~VERSION INFORMATION
VERS.    2.0:   CWLS LOG ASCII STANDARD - VERSION 2.0
WRAP.     NO:   ONE LINE PER STEP
~WELL INFORMATION BLOCK
#MNEM.UNIT      DATA                  DESCRIPTION OF MNEMONIC
#----   --------             ---------------
STRT.m  281.00                   :START DEPTH
STOP.m  1577.00                   :STOP DEPTH
STEP.m  0.50                   :STEP VALUE
NULL.  -999.25                   :NULL VALUE
COMP.   TAG OIL                   :COMPANY NAME
WELL.   CHEAL A-10                   :WELL NAME
FLD .   TARANAKI BASIN                   :FIELD NAME
LOC .   STRATFORD              		 :LOCATION
PROV.   TARANAKI                   :PROVINCE
SRVC.   Geoservices                   :SERVICE COMPANY NAME
DATE.   03-03-2012 15:01:13                   :DATE
UWI .                      :UNIQUE WELL IDENTIFIER
~CURVE INFORMATION
#MNEM.UNIT       API CODE        CURVE DESCRIPTION
#----   -------- ------------------
Bit Depth .m        :Bit Depth
Tot Depth .m        :Tot Depth
TVD Depth .m        :TVD Depth
WOH .klbs        :WOH
WOB .klbs        :WOB
T Revol .krev        :T Revol
RPM .rpm        :RPM
TORQUE .lb*ft        :TORQUE
SPP .psi        :SPP
ROP m/hr .m/h        :ROP m/hr
ROP ins .m/h        :ROP ins
ROP .mn/m        :ROP
FLWpmps .gpm        :FLWpmps
ACTIVE .bbl        :ACTIVE
BitRun .m        :BitRun
BitTim .h        :BitTim
PumpTime .h        :PumpTime
TMP IN .degC        :TMP IN
TMP OUT .degC        :TMP OUT
#
#-----------------------------------------------------------
# Bit Depth (m)   Tot Depth (m)   TVD Depth (m)   WOH (klbs)   WOB (klbs)   T Revol (krev)   RPM (rpm)   TORQUE (lb*ft)   SPP (psi)   ROP m/hr (m/h)   ROP ins (m/h)   ROP (mn/m)   FLWpmps (gpm)   ACTIVE (bbl)   BitRun (m)   BitTim (h)   PumpTime (h)   TMP IN (degC)   TMP OUT (degC)
#-----------------------------------------------------------
~A
# ...
    612.50     612.50     612.47       44.9       14.2         80        106       1252       1001      50.07      46.74       1.20        377      362.6     338.49      12.32      23.26       24.0       32.1 
    613.00     613.00     612.97       47.3       11.8         80        106       1203        979      37.86      47.20       1.58        378      362.4     339.00      12.34      23.27       24.0       32.0 
    613.50     613.50     613.47       48.3       10.8         80        106       1147        963      34.67      37.22       1.73        378      361.3     339.50      12.35      23.29       24.0       31.5 
    614.00     614.00     613.97       47.4       11.7         80        106       1170        972      35.33      34.05       1.70        378      362.0     340.01      12.37      23.30       24.0       31.4 
    614.50     614.50     614.47       47.7       11.4         80        106       1151        968      35.00      34.61       1.71        378      362.1     340.51      12.38      23.32       24.0       31.3 
    615.00     615.00     614.97       47.7       11.4         80        106       1150        970      35.38      34.72       1.70        378      361.0     340.99      12.39      23.33       24.0       31.2 
    615.50     615.50     615.47       49.1       10.0         80        106       1117        959      35.33      35.82       1.70        378      362.2     341.50      12.41      23.34       24.0       31.1 
    616.00     616.00     615.97       46.9       12.2         80        106       1148        974      35.70      35.33       1.68        378      362.7     341.99      12.42      23.36       24.0       31.0 
    616.50     616.50     616.47       45.7       13.4         81        106       1180        989      35.00      34.53       1.71        377      361.7     342.50      12.44      23.37       24.0       31.0 
    617.00     617.00     616.97       48.1       11.0         81        106       1119        964      36.40      35.44       1.65        378      361.3     343.00      12.45      23.39       24.0       30.8 
    617.50     617.50     617.47       46.8       12.3         81        106       1144        976      34.68      35.28       1.73        377      360.9     343.49      12.46      23.40       24.0       30.8 
    618.00     618.00     617.97       47.2       11.9         81        106       1133        973      32.67      33.39       1.84        377      361.2     344.00      12.48      23.42       24.0       30.8 
    618.50     618.50     618.47       45.9       13.2         81        106       1159        985      32.12      32.07       1.87        377      360.3     344.49      12.50      23.43       24.0       30.8 
    619.00     619.00     618.97       45.6       14.6         81        106       1171        988      30.77      31.25       1.95        377      360.4     344.99      12.51      23.45       24.0       31.4 
    619.50     619.50     619.47       45.7       14.8         81        106       1156        983      32.68      31.16       1.84        377      361.5     345.50      12.53      23.46       24.0       30.4 
    620.00     620.00     619.97       46.5       14.0         81        106       1159        986      25.26      31.62       2.38        377      361.8     345.99      12.55      23.48       24.0       30.4 
    620.50     620.50     620.47       44.6       15.9         81        106       1204       1001      16.80      17.55       3.57        377      362.3     346.48      12.58      23.51       24.0       30.6 
    621.00     621.00     620.97       46.8       13.7         82        106       1161        979      32.10      22.19       1.87        377      363.0     347.00      12.59      23.53       24.0       30.2 
    621.50     621.50     621.47       46.1       14.4         82        106       1180        982      33.66      31.56       1.78        377      363.1     347.49      12.61      23.54       24.0       31.0 
    622.00     622.00     621.97       46.0       14.5         82        106       1180        983      32.42      32.98       1.85        377      363.6     347.98      12.62      23.56       24.0       30.0 
    622.50     622.50     622.47       46.6       13.9         82        106       1203        978      34.44      32.68       1.74        377      364.9     348.50      12.64      23.57       24.0       30.0 
    623.00     623.00     622.97       49.3       11.2         82        106       1120        954      36.54      35.20       1.64        378      364.8     349.02      12.65      23.59       24.0       30.0 
    623.50     623.50     623.47       47.5       13.0         82        106       1142        966      35.85      35.24       1.67        377      364.7     349.49      12.66      23.60       24.0       30.0 
    624.00     624.00     623.97       46.5       14.0         82        107       1174        993      34.24      35.31       1.75        382      365.1     349.99      12.68      23.61       24.0       30.0 
    624.50     624.50     624.47       46.3       14.2         82        110       1173       1038      32.41      33.00       1.85        394      364.8     350.49      12.69      23.63       24.0       30.1 
    625.00     625.00     624.97       47.1       13.4         82        111       1159       1042      36.21      33.72       1.66        397      364.9     350.99      12.71      23.64       24.0       31.0 
    625.50     625.50     625.47       46.4       14.1         82        112       1185       1054      33.01      34.40       1.82        399      364.7     351.49      12.72      23.66       24.0       30.8 
    626.00     626.00     625.97       46.2       14.3         83        112       1225       1067      36.00      33.99       1.67        399      364.8     351.99      12.74      23.67       24.0       30.6 
    626.50     626.50     626.47       46.5       14.0         83        112       1269       1068      33.58      34.16       1.79        399      364.3     352.49      12.75      23.69       24.0       30.6 
    627.00     627.00     626.97       46.8       13.7         83        111       1305       1059      36.63      34.63       1.64        398      364.6     353.00      12.77      23.70       24.0       30.5 
    627.50     627.50     627.47       46.8       13.7         83        111       1290       1059      35.28      35.09       1.70        398      364.7     353.49      12.78      23.72       24.0       30.6 
    628.00     628.00     627.97       49.6       10.9         83        113       1139       1055      31.39      29.65       1.91        403      375.2     354.82      12.82      23.85       24.0       30.4 
    628.50     628.50     628.47       47.8       12.7         83        115       1208       1114      39.27      31.57       1.53        411      384.8     355.34      12.84      23.86       24.0       30.4 
    629.00     629.00     628.97       47.0       13.5         83        115       1210       1122      32.90      36.46       1.82        411      380.3     355.83      12.85      23.88       24.0       30.5 
    629.50     629.50     629.47       47.2       13.3         83        115       1198       1126      35.85      32.36       1.67        411      375.5     356.33      12.86      23.89       24.0       30.5 
    630.00     630.00     629.97       47.4       13.1         84        115       1213       1128      33.55      35.29       1.79        411      370.7     356.83      12.88      23.91       24.0       30.5 
    630.50     630.50     630.47       47.9       12.7         84        115       1231       1132      18.23      23.48       3.29        410      365.8     357.32      12.91      23.93       24.0       30.5 
    631.00     631.00     630.97       47.5       13.0         84        115       1284       1137      23.64      21.37       2.54        410      363.2     357.82      12.93      23.96       24.0       30.5 
    631.50     631.50     631.47       51.9        8.6         84        115       1226       1114      30.85      26.38       1.95        411      363.3     358.32      12.94      23.97       24.0       30.5 
