~VERSION INFORMATION
VERS.    2.0:   CWLS LOG ASCII STANDARD - VERSION 2.0
WRAP.     NO:   ONE LINE PER STEP
~WELL INFORMATION BLOCK
#MNEM.UNIT      DATA                  DESCRIPTION OF MNEMONIC
#----   --------             ---------------
STRT.m  281.00                   :START DEPTH
STOP.m  1577.00                   :STOP DEPTH
STEP.m  0.50                   :STEP VALUE
NULL.  -999.25                   :NULL VALUE
COMP.   TAG OIL                   :COMPANY NAME
WELL.   CHEAL A-10                   :WELL NAME
FLD .   TARANAKI BASIN                   :FIELD NAME
LOC .   STRATFORD              		 :LOCATION
PROV.   TARANAKI                   :PROVINCE
SRVC.   Geoservices                   :SERVICE COMPANY NAME
DATE.   03-03-2012 15:01:13                   :DATE
UWI .                      :UNIQUE WELL IDENTIFIER
~CURVE INFORMATION
#MNEM.UNIT       API CODE        CURVE DESCRIPTION
#----   -------- ------------------
Bit Depth .m        :Bit Depth
Tot Depth .m        :Tot Depth
TVD Depth .m        :TVD Depth
WOH .klbs        :WOH
WOB .klbs        :WOB
T Revol .krev        :T Revol
RPM .rpm        :RPM
TORQUE .lb*ft        :TORQUE
SPP .psi        :SPP
ROP m/hr .m/h        :ROP m/hr
ROP ins .m/h        :ROP ins
ROP .mn/m        :ROP
FLWpmps .gpm        :FLWpmps
ACTIVE .bbl        :ACTIVE
BitRun .m        :BitRun
BitTim .h        :BitTim
PumpTime .h        :PumpTime
TMP IN .degC        :TMP IN
TMP OUT .degC        :TMP OUT
#
#-----------------------------------------------------------
# Bit Depth (m)   Tot Depth (m)   TVD Depth (m)   WOH (klbs)   WOB (klbs)   T Revol (krev)   RPM (rpm)   TORQUE (lb*ft)   SPP (psi)   ROP m/hr (m/h)   ROP ins (m/h)   ROP (mn/m)   FLWpmps (gpm)   ACTIVE (bbl)   BitRun (m)   BitTim (h)   PumpTime (h)   TMP IN (degC)   TMP OUT (degC)
#-----------------------------------------------------------
~A
# ...
    866.00     866.00     865.96       57.1       12.0        142        114       1179       1254      22.95      25.99       2.61        405      409.4     597.19      21.40      34.08       34.0       36.1 
    866.50     866.50     866.46       58.5       10.6        142        114       1160       1246      31.29      24.36       1.92        405      409.3     597.69      21.41      34.10       34.0       36.1 
    867.00     867.00     866.96       59.9        9.1        142        114       1118       1233      33.01      31.80       1.82        406      409.1     598.19      21.43      34.11       34.0       36.0 
    867.50     867.50     867.46       64.0        5.1        142        114       1047       1207      34.86      32.65       1.72        406      409.3     598.70      21.44      34.13       34.0       36.0 
    868.00     868.00     867.96       58.0       11.0        143        113       1148       1243      26.92      32.33       2.23        405      409.0     599.20      21.46      34.15       34.0       36.0 
    868.50     868.50     868.46       59.5        9.5        143        113       1124       1233      32.13      26.31       1.87        405      408.7     599.70      21.48      34.16       34.0       36.0 
    869.00     869.00     868.96       58.5       10.6        143        114       1144       1241      30.02      32.43       2.00        405      408.3     600.21      21.49      34.18       34.0       36.0 
    869.50     869.50     869.46       57.4       11.6        143        113       1167       1254      27.86      28.17       2.15        405      408.2     600.70      21.51      34.20       34.0       36.0 
    870.00     870.00     869.96       57.7       11.4        143        113       1166       1252      28.16      28.91       2.13        405      407.9     601.20      21.53      34.21       34.0       36.0 
    870.50     870.50     870.46       57.1       11.9        143        113       1158       1254      21.67      24.43       2.77        405      407.2     601.69      21.55      34.24       34.0       36.0 
    871.00     871.00     870.96       57.2       11.9        143        113       1163       1252      21.90      21.39       2.74        405      406.7     602.20      21.58      34.26       34.0       36.1 
    871.50     871.50     871.46       57.2       11.9        143        113       1168       1252      23.78      21.79       2.52        405      406.3     602.69      21.60      34.28       34.0       36.1 
    872.00     872.00     871.96       57.2       11.8        144        113       1166       1252      22.97      23.06       2.61        405      406.7     603.19      21.62      34.30       34.0       36.1 
    872.50     872.50     872.46       57.2       11.9        144        113       1155       1251      22.60      22.50       2.66        405      406.6     603.69      21.64      34.32       34.0       36.1 
    873.00     873.00     872.96       57.1       11.9        144        113       1162       1253      20.75      22.17       2.89        405      406.5     604.20      21.66      34.35       34.0       36.1 
    873.50     873.50     873.46       57.1       12.0        144        113       1170       1257      20.21      19.48       2.97        405      406.3     604.70      21.69      34.37       34.0       36.2 
    874.00     874.00     873.96       56.7       12.4        144        113       1193       1257      22.60      21.16       2.66        405      405.7     605.20      21.71      34.40       34.0       36.2 
    874.50     874.50     874.46       56.6       12.5        144        113       1175       1254      20.86      21.72       2.88        405      405.6     605.70      21.74      34.42       34.0       36.2 
    875.00     875.00     874.96       56.7       12.4        145        113       1178       1251      19.68      19.48       3.05        405      404.7     606.20      21.76      34.45       34.0       36.1 
    875.50     875.50     875.46       56.6       12.5        145        113       1196       1255      21.15      20.46       2.84        404      404.7     606.69      21.78      34.47       34.0       36.2 
    876.00     876.00     875.96       56.8       12.2        145        113       1191       1252      20.87      21.05       2.87        405      404.2     607.19      21.81      34.49       34.0       36.2 
    876.50     876.50     876.46       56.7       12.4        145        113       1231       1251      20.86      20.37       2.88        405      403.4     607.69      21.83      34.52       34.0       36.2 
    877.00     877.00     876.96       56.6       12.5        145        113       1241       1250      20.56      20.30       2.92        405      403.6     608.19      21.86      34.54       34.0       36.2 
    877.50     877.50     877.46       56.6       12.5        145        113       1260       1245      15.13      18.18       3.97        405      401.1     608.69      21.89      34.57       34.0       36.2 
    878.00     878.00     877.96       56.6       12.5        145        113       1260       1245      15.13      18.18       3.97        405      401.1     608.69      21.89      34.57       34.0       36.2 
    878.50     878.50     878.46       56.6       12.5        145        113       1241       1250      20.56      20.30       2.92        405      403.6     608.19      21.86      34.54       34.0       36.2 
    879.00     879.00     878.96       58.9       10.2        146        113       1190       1236      15.62      16.04       3.84        405      402.4     609.21      21.92      35.23       34.0       36.4 
    879.50     879.50     879.46       60.3        8.8        146        113       1173       1238      19.34      29.22       3.10        405      418.0     609.70      21.95      35.25       34.0       36.7 
    880.00     880.00     879.96       61.0        8.0        146        114       1149       1238      14.41      14.80       4.16        406      407.0     610.20      21.98      35.29       34.0       36.8 
    880.50     880.50     880.46       58.7       10.4        146        114       1197       1257      17.62      17.35       3.41        406      398.5     610.70      22.01      35.32       34.0       36.8 
    881.00     881.00     880.96       58.4       10.6        146        114       1185       1260      18.36      17.98       3.27        406      397.4     611.19      22.04      35.34       34.0       36.8 
    881.50     881.50     881.46       58.1       11.0        147        114       1178       1263      22.32      19.54       2.69        406      396.4     611.70      22.06      35.37       34.0       36.9 
    882.00     882.00     881.96       58.5       10.6        147        114       1159       1258      19.90      22.49       3.02        405      396.2     612.20      22.09      35.39       34.0       36.9 
    882.50     882.50     882.46       58.1       10.9        147        114       1164       1263      19.59      18.35       3.06        405      396.5     612.69      22.11      35.42       34.0       37.0 
    883.00     883.00     882.96       58.1       10.9        147        114       1164       1263      19.59      18.35       3.06        405      396.5     612.69      22.11      35.42       34.0       37.0 
    883.50     883.50     883.46       58.1       11.0        147        113       1147       1260      20.04      18.29       2.99        405      396.7     613.69      22.16      35.47       34.0       37.0 
    884.00     884.00     883.96       59.4        9.6        147        113       1147       1257      29.79      23.26       2.01        405      396.3     614.20      22.18      35.48       34.0       37.0 
    884.50     884.50     884.46       59.2        9.9        148        113       1148       1258      31.31      30.46       1.92        405      395.8     614.71      22.19      35.50       34.0       37.0 
    885.00     885.00     884.96       62.8        6.3        148        113       1106       1236      34.25      30.95       1.75        405      396.3     615.20      22.21      35.51       34.0       37.0 
