~VERSION INFORMATION
VERS.    2.0:   CWLS LOG ASCII STANDARD - VERSION 2.0
WRAP.     NO:   ONE LINE PER STEP
~WELL INFORMATION BLOCK
#MNEM.UNIT      DATA                  DESCRIPTION OF MNEMONIC
#----   --------             ---------------
STRT.m  281.00                   :START DEPTH
STOP.m  1577.00                   :STOP DEPTH
STEP.m  0.50                   :STEP VALUE
NULL.  -999.25                   :NULL VALUE
COMP.   TAG OIL                   :COMPANY NAME
WELL.   CHEAL A-10                   :WELL NAME
FLD .   TARANAKI BASIN                   :FIELD NAME
LOC .   STRATFORD              		 :LOCATION
PROV.   TARANAKI                   :PROVINCE
SRVC.   Geoservices                   :SERVICE COMPANY NAME
DATE.   03-03-2012 15:01:13                   :DATE
UWI .                      :UNIQUE WELL IDENTIFIER
~CURVE INFORMATION
#MNEM.UNIT       API CODE        CURVE DESCRIPTION
#----   -------- ------------------
Bit Depth .m        :Bit Depth
Tot Depth .m        :Tot Depth
TVD Depth .m        :TVD Depth
WOH .klbs        :WOH
WOB .klbs        :WOB
T Revol .krev        :T Revol
RPM .rpm        :RPM
TORQUE .lb*ft        :TORQUE
SPP .psi        :SPP
ROP m/hr .m/h        :ROP m/hr
ROP ins .m/h        :ROP ins
ROP .mn/m        :ROP
FLWpmps .gpm        :FLWpmps
ACTIVE .bbl        :ACTIVE
BitRun .m        :BitRun
BitTim .h        :BitTim
PumpTime .h        :PumpTime
TMP IN .degC        :TMP IN
TMP OUT .degC        :TMP OUT
#
#-----------------------------------------------------------
# Bit Depth (m)   Tot Depth (m)   TVD Depth (m)   WOH (klbs)   WOB (klbs)   T Revol (krev)   RPM (rpm)   TORQUE (lb*ft)   SPP (psi)   ROP m/hr (m/h)   ROP ins (m/h)   ROP (mn/m)   FLWpmps (gpm)   ACTIVE (bbl)   BitRun (m)   BitTim (h)   PumpTime (h)   TMP IN (degC)   TMP OUT (degC)
#-----------------------------------------------------------
~A
# ...
   1041.50    1041.50    1041.29       67.4        9.6        191        113       1293       1338      33.65      32.34       1.78        404      353.1     767.61      28.53      44.00       34.0       39.3 
   1042.00    1042.00    1041.79       66.7       10.2        192        113       1293       1342      31.91      32.24       1.88        404      352.8     768.13      28.54      44.02       34.0       39.3 
   1042.50    1042.50    1042.29       66.6       10.4        192        113       1268       1339      32.48      32.14       1.85        404      352.5     768.62      28.56      44.03       34.0       39.3 
   1043.00    1043.00    1042.78       66.4       10.6        192        113       1271       1345      33.38      32.11       1.80        404      352.7     769.11      28.57      44.05       34.0       39.3 
   1043.50    1043.50    1043.28       67.4        9.5        192        113       1278       1346      32.75      32.81       1.83        404      352.5     769.61      28.59      44.06       34.0       39.4 
   1044.00    1044.00    1043.78       66.3       10.7        192        113       1270       1342      33.92      32.30       1.77        404      352.7     770.12      28.60      44.08       34.0       39.5 
   1044.50    1044.50    1044.27       63.3       13.7        192        113       1308       1364      26.73      31.05       2.24        404      352.2     770.62      28.62      44.10       34.0       39.5 
   1045.00    1045.00    1044.77       63.8       13.2        192        113       1308       1368      31.34      27.24       1.91        404      352.0     771.11      28.64      44.11       34.0       39.5 
   1045.50    1045.50    1045.27       66.0       11.0        192        113       1260       1355      37.11      33.13       1.62        404      351.4     771.61      28.65      44.13       34.0       39.4 
   1046.00    1046.00    1045.76       66.5       10.5        192        113       1226       1343      35.57      35.28       1.69        404      351.2     772.11      28.67      44.14       34.0       39.2 
   1046.50    1046.50    1046.26       67.8        9.2        193        113       1197       1332      36.13      35.54       1.66        404      351.2     772.60      28.68      44.15       34.0       39.3 
   1047.00    1047.00    1046.76       65.5       11.5        193        113       1239       1352      35.88      35.38       1.67        404      351.2     773.11      28.69      44.17       34.0       39.2 
   1047.50    1047.50    1047.26       65.3       11.7        193        113       1230       1353      35.03      35.66       1.71        404      350.9     773.60      28.71      44.18       34.0       39.2 
   1048.00    1048.00    1047.75       63.1       13.9        193        113       1217       1346      16.27      25.68       3.69        404      350.7     774.11      28.74      44.21       34.0       39.2 
   1048.50    1048.50    1048.25       63.0       14.0        193        113       1254       1363      26.37      15.18       2.28        403      350.6     774.61      28.76      44.23       34.0       39.2 
   1049.00    1049.00    1048.75       62.4       14.6        193        113       1264       1362      25.64      26.15       2.34        403      350.6     775.11      28.78      44.25       34.0       39.2 
   1049.50    1049.50    1049.24       62.3       14.7        193        113       1267       1364      26.30      25.14       2.28        403      349.5     775.62      28.80      44.27       34.0       39.2 
   1050.00    1050.00    1049.74       62.2       14.8        193        113       1272       1368      27.07      26.08       2.22        403      349.3     776.11      28.81      44.29       34.0       39.3 
   1050.50    1050.50    1050.24       62.5       14.5        194        113       1269       1367      26.68      26.46       2.25        403      349.1     776.60      28.83      44.31       34.0       39.2 
   1051.00    1051.00    1050.73       64.8       12.2        194        113       1307       1351      34.27      29.80       1.75        403      348.6     777.10      28.85      44.32       34.0       39.2 
   1051.50    1051.50    1051.23       62.8       14.2        194        113       1354       1361      29.82      31.17       2.01        402      348.5     777.61      28.86      44.34       34.0       39.2 
   1052.00    1052.00    1051.73       64.9       12.0        194        113       1342       1345      32.75      30.36       1.83        402      348.4     778.10      28.88      44.36       34.0       39.2 
   1052.50    1052.50    1052.22       63.9       13.1        194        112       1378       1353      36.37      33.14       1.65        402      348.1     778.30      28.88      44.36       34.0       39.3 
   1053.00    1053.00    1052.72       63.4       13.6        194        113       1340       1356      31.92      33.97       1.88        402      348.0     778.72      28.90      44.37       34.0       39.3 
   1053.50    1053.50    1053.22       64.6       12.4        194        113       1080       1344      29.22      30.46       2.05        402      347.7     779.21      28.91      44.52       34.0       39.3 
   1054.00    1054.00    1053.72       68.2        8.8        195        115          0       1353       7.67       7.63       7.82        410      342.6     779.72      28.98      44.59       34.0       39.4 
   1054.50    1054.50    1054.21       67.2        9.8        195        115          0       1357      10.14       9.36       5.92        410      340.1     780.22      29.03      44.63       34.0       39.4 
   1055.00    1055.00    1054.71       66.3       10.7        195        115          0       1355      13.44      12.28       4.46        409      339.0     780.71      29.07      44.67       34.0       39.5 
   1055.50    1055.50    1055.21       65.6       11.4        195        115          0       1355      12.86      13.82       4.67        409      338.2     780.91      29.08      44.69       34.0       39.5 
   1056.00    1056.00    1055.70       65.7       11.3        195        115          0       1357      11.89      12.44       5.05        409      337.5     781.08      29.10      44.70       34.0       39.5 
   1056.50    1056.50    1056.20       64.9       12.1        196        115          0       1344      10.82      10.22       5.55        409      337.6     781.58      29.14      44.75       34.0       39.8 
   1057.00    1057.00    1056.70       66.4       10.6        196        114          0       1358      16.74      15.96       3.58        409      337.1     782.09      29.17      44.78       34.0       40.0 
   1057.50    1057.50    1057.19       65.8       11.2        196        114          0       1359      13.93      15.03       4.31        409      336.6     782.58      29.21      44.81       34.0       40.1 
   1058.00    1058.00    1057.69       68.2        8.8        196        114       1354       1346      16.43       9.49       3.65        409      336.0     783.08      29.24      44.87       34.0       40.0 
   1058.50    1058.50    1058.18       63.5       13.5        197        114       1396       1396      28.70      26.61       2.09        408      335.8     783.60      29.26      44.88       34.0       40.0 
   1059.00    1059.00    1058.68       63.5       13.5        197        114       1389       1409      23.05      26.41       2.60        408      335.6     784.10      29.28      44.90       34.0       40.0 
   1059.50    1059.50    1059.18       63.7       13.3        197        114       1354       1399      30.82      24.52       1.95        408      335.5     784.60      29.29      44.92       34.0       40.1 
   1060.00    1060.00    1059.67       64.5       12.5        197        114       1324       1391      29.26      28.67       2.05        408      335.6     785.08      29.31      44.94       34.0       40.2 
   1060.50    1060.50    1060.17       67.1        9.8        197        114       1219       1366      35.96      32.45       1.67        408      335.6     785.58      29.32      44.95       34.0       40.1 
