~VERSION INFORMATION
VERS.    2.0:   CWLS LOG ASCII STANDARD - VERSION 2.0
WRAP.     NO:   ONE LINE PER STEP
~WELL INFORMATION BLOCK
#MNEM.UNIT      DATA                  DESCRIPTION OF MNEMONIC
#----   --------             ---------------
STRT.m  281.00                   :START DEPTH
STOP.m  1577.00                   :STOP DEPTH
STEP.m  0.50                   :STEP VALUE
NULL.  -999.25                   :NULL VALUE
COMP.   TAG OIL                   :COMPANY NAME
WELL.   CHEAL A-10                   :WELL NAME
FLD .   TARANAKI BASIN                   :FIELD NAME
LOC .   PRAMOD KUMAR                   :LOCATION
PROV.   TARANAKI                   :PROVINCE
SRVC.   Geoservices                   :SERVICE COMPANY NAME
DATE.   03-03-2012 03:20:21                   :DATE
UWI .                      :UNIQUE WELL IDENTIFIER
~CURVE INFORMATION
#MNEM.UNIT       API CODE        CURVE DESCRIPTION
#----   -------- ------------------
Tot Depth .m        :Tot Depth
T GAS main .%        :T GAS main
C1  main .ppm        :C1  main
C2  main .ppm        :C2  main
C3  main .ppm        :C3  main
iC4 main .ppm        :iC4 main
nC4 main .ppm        :nC4 main
iC5 main .ppm        :iC5 main
nC5 main .ppm        :nC5 main
H2S .ppm        :H2S
C02 .ppm        :C02
C1/C2 .....        :C1/C2
C1/C3 .....        :C1/C3
C1/C4 .....        :C1/C4
C1/C5 .....        :C1/C5
GAS WET .....        :GAS WET
L-H RATIO .....        :L-H RATIO
OCQ .....        :OCQ
GRA .....        :GRA
TVD Depth .m        :TVD Depth
#
#-----------------------------------------------------------
# Tot Depth (m)   T GAS main (%)   C1  main (ppm)   C2  main (ppm)   C3  main (ppm)   iC4 main (ppm)   nC4 main (ppm)   iC5 main (ppm)   nC5 main (ppm)   H2S (ppm)   C02 (ppm)   C1/C2 (....)   C1/C3 (....)   C1/C4 (....)   C1/C5 (....)   GAS WET (....)   L-H RATIO (....)   OCQ (....)   GRA (....)   TVD Depth (m)
#-----------------------------------------------------------
~A
# ...
    447.50       0.02        158          0          0          0          0          0          0          0          0       0.00       0.00       0.00       0.00       0.00       0.00       0.00       0.00     447.48 
    448.00       0.02        158          0          0          0          0          0          0          0          0       0.00       0.00       0.00       0.00       0.00       0.00       0.00       0.00     447.98 
    448.50       0.02        152          0          0          0          0          0          0          0          0       0.00       0.00       0.00       0.00       0.00       0.00       0.00       0.00     448.48 
    449.00       0.02        153          0          0          0          0          0          0          0          0       0.00       0.00       0.00       0.00       0.00       0.00       0.00       0.00     448.98 
    449.50       0.02        149          0          0          0          0          0          0          0          0       0.00       0.00       0.00       0.00       0.00       0.00       0.00       0.00     449.48 
    450.00       0.02        140          0          0          0          0          0          0          0          0       0.00       0.00       0.00       0.00       0.00       0.00       0.00       0.00     449.98 
    450.50       0.02        138          0          0          0          0          0          0          0          0       0.00       0.00       0.00       0.00       0.00       0.00       0.00       0.00     450.48 
    451.00       0.02        137          0          0          0          0          0          0          0          0       0.00       0.00       0.00       0.00       0.00       0.00       0.00       0.00     450.98 
    451.50       0.02        143          0          0          0          0          0          0          0          0       0.00       0.00       0.00       0.00       0.00       0.00       0.00       0.00     451.48 
    452.00       0.02        150          0          0          0          0          0          0          0          0       0.00       0.00       0.00       0.00       0.00       0.00       0.00       0.00     451.98 
    452.50       0.02        155          0          0          0          0          0          0          0          0       0.00       0.00       0.00       0.00       0.00       0.00       0.00       0.00     452.48 
    453.00       0.02        135          0          0          0          0          0          0          0          0       0.00       0.00       0.00       0.00       0.00       0.00       0.00       0.00     452.98 
    453.50       0.02        135          0          0          0          0          0          0          0          0       0.00       0.00       0.00       0.00       0.00       0.00       0.00       0.00     453.48 
    454.00       0.02        120          0          0          0          0          0          0          0          0       0.00       0.00       0.00       0.00       0.00       0.00       0.00       0.00     453.98 
    454.50       0.01        111          0          0          0          0          0          0          0          0       0.00       0.00       0.00       0.00       0.00       0.00       0.00       0.00     454.48 
    455.00       0.01        101          0          0          0          0          0          0          0          0       0.00       0.00       0.00       0.00       0.00       0.00       0.00       0.00     454.98 
    455.50       0.01        107          0          0          0          0          0          0          0          0       0.00       0.00       0.00       0.00       0.00       0.00       0.00       0.00     455.48 
    456.00       0.01        111          0          0          0          0          0          0          0          0       0.00       0.00       0.00       0.00       0.00       0.00       0.00       0.00     455.98 
    456.50       0.01        111          0          0          0          0          0          0          0          0       0.00       0.00       0.00       0.00       0.00       0.00       0.00       0.00     456.48 
    457.00       0.01        103          0          0          0          0          0          0          0          0       0.00       0.00       0.00       0.00       0.00       0.00       0.00       0.00     456.98 
    457.50       0.01        112          0          0          0          0          0          0          0          0       0.00       0.00       0.00       0.00       0.00       0.00       0.00       0.00     457.48 
    458.00       0.01        116          0          0          0          0          0          0          0          0       0.00       0.00       0.00       0.00       0.00       0.00       0.00       0.00     457.98 
    458.50       0.01        116          0          0          0          0          0          0          0          0       0.00       0.00       0.00       0.00       0.00       0.00       0.00       0.00     458.48 
    459.00       0.01        120          0          0          0          0          0          0          0          0       0.00       0.00       0.00       0.00       0.00       0.00       0.00       0.00     458.98 
    459.50       0.01        114          0          0          0          0          0          0          0          0       0.00       0.00       0.00       0.00       0.00       0.00       0.00       0.00     459.48 
    460.00       0.01        119          0          0          0          0          0          0          0          0       0.00       0.00       0.00       0.00       0.00       0.00       0.00       0.00     459.98 
    460.50       0.01        125          0          0          0          0          0          0          0          0       0.00       0.00       0.00       0.00       0.00       0.00       0.00       0.00     460.48 
    461.00       0.01        119          0          0          0          0          0          0          0          0       0.00       0.00       0.00       0.00       0.00       0.00       0.00       0.00     460.98 
    461.50       0.01        108          0          0          0          0          0          0          0          0       0.00       0.00       0.00       0.00       0.00       0.00       0.00       0.00     461.48 
    462.00       0.01        101          0          0          0          0          0          0          0          0       0.00       0.00       0.00       0.00       0.00       0.00       0.00       0.00     461.98 
    462.50       0.01        108          0          0          0          0          0          0          0          0       0.00       0.00       0.00       0.00       0.00       0.00       0.00       0.00     462.48 
    463.00       0.01        105          0          0          0          0          0          0          0          0       0.00       0.00       0.00       0.00       0.00       0.00       0.00       0.00     462.98 
    463.50       0.01        105          0          0          0          0          0          0          0          0       0.00       0.00       0.00       0.00       0.00       0.00       0.00       0.00     463.48 
    464.00       0.01         92          0          0          0          0          0          0          0          0       0.00       0.00       0.00       0.00       0.00       0.00       0.00       0.00     463.98 
    464.50       0.01         92          0          0          0          0          0          0          0          0       0.00       0.00       0.00       0.00       0.00       0.00       0.00       0.00     464.48 
    465.00       0.01         90          0          0          0          0          0          0          0          0       0.00       0.00       0.00       0.00       0.00       0.00       0.00       0.00     464.98 
    465.50       0.01         94          0          0          0          0          0          0          0          0       0.00       0.00       0.00       0.00       0.00       0.00       0.00       0.00     465.48 
