~VERSION INFORMATION
VERS.    2.0:   CWLS LOG ASCII STANDARD - VERSION 2.0
WRAP.     NO:   ONE LINE PER STEP
~WELL INFORMATION BLOCK
#MNEM.UNIT      DATA                  DESCRIPTION OF MNEMONIC
#----   --------             ---------------
STRT.m  281.00                   :START DEPTH
STOP.m  1577.00                   :STOP DEPTH
STEP.m  0.50                   :STEP VALUE
NULL.  -999.25                   :NULL VALUE
COMP.   TAG OIL                   :COMPANY NAME
WELL.   CHEAL A-10                   :WELL NAME
FLD .   TARANAKI BASIN                   :FIELD NAME
LOC .   PRAMOD KUMAR                   :LOCATION
PROV.   TARANAKI                   :PROVINCE
SRVC.   Geoservices                   :SERVICE COMPANY NAME
DATE.   03-03-2012 03:20:21                   :DATE
UWI .                      :UNIQUE WELL IDENTIFIER
~CURVE INFORMATION
#MNEM.UNIT       API CODE        CURVE DESCRIPTION
#----   -------- ------------------
Tot Depth .m        :Tot Depth
T GAS main .%        :T GAS main
C1  main .ppm        :C1  main
C2  main .ppm        :C2  main
C3  main .ppm        :C3  main
iC4 main .ppm        :iC4 main
nC4 main .ppm        :nC4 main
iC5 main .ppm        :iC5 main
nC5 main .ppm        :nC5 main
H2S .ppm        :H2S
C02 .ppm        :C02
C1/C2 .....        :C1/C2
C1/C3 .....        :C1/C3
C1/C4 .....        :C1/C4
C1/C5 .....        :C1/C5
GAS WET .....        :GAS WET
L-H RATIO .....        :L-H RATIO
OCQ .....        :OCQ
GRA .....        :GRA
TVD Depth .m        :TVD Depth
#
#-----------------------------------------------------------
# Tot Depth (m)   T GAS main (%)   C1  main (ppm)   C2  main (ppm)   C3  main (ppm)   iC4 main (ppm)   nC4 main (ppm)   iC5 main (ppm)   nC5 main (ppm)   H2S (ppm)   C02 (ppm)   C1/C2 (....)   C1/C3 (....)   C1/C4 (....)   C1/C5 (....)   GAS WET (....)   L-H RATIO (....)   OCQ (....)   GRA (....)   TVD Depth (m)
#-----------------------------------------------------------
~A
# ...
   1224.50       0.62       4416          0          0          0          0          0          0          0          0       0.00       0.00       0.00       0.00       0.00       0.00       0.00       0.00    1219.74 
   1225.00       0.91       8121          0          0          0          0          0          0          0          0       0.00       0.00       0.00       0.00       0.00       0.00       0.00       0.00    1220.21 
   1225.50       0.94       8902          0          0          0          0          0          0          0          0       0.00       0.00       0.00       0.00       0.00       0.00       0.00       0.00    1220.69 
   1226.00       0.95       8902          0          0          0          0          0          0          0          0       0.00       0.00       0.00       0.00       0.00       0.00       0.00       0.00    1221.16 
   1226.50       1.00       9300          0          0          0          0          0          0          0          0       0.00       0.00       0.00       0.00       0.00       0.00       0.00       0.00    1221.64 
   1227.00       1.00       9346          0          0          0          0          0          0          0          0       0.00       0.00       0.00       0.00       0.00       0.00       0.00       0.00    1222.11 
   1227.50       0.99       8916          0          0          0          0          0          0          0          0       0.00       0.00       0.00       0.00       0.00       0.00       0.00       0.00    1222.59 
   1228.00       0.92       7952          0          0          0          0          0          0          0          0       0.00       0.00       0.00       0.00       0.00       0.00       0.00       0.00    1223.06 
   1228.50       0.78       7952          0          0          0          0          0          0          0          0       0.00       0.00       0.00       0.00       0.00       0.00       0.00       0.00    1223.54 
   1229.00       0.68       6343          0          0          0          0          0          0          0          0       0.00       0.00       0.00       0.00       0.00       0.00       0.00       0.00    1224.01 
   1229.50       0.76       7150          0          0          0          0          0          0          0          0       0.00       0.00       0.00       0.00       0.00       0.00       0.00       0.00    1224.49 
   1230.00       0.76       7229          0          0          0          0          0          0          0          0       0.00       0.00       0.00       0.00       0.00       0.00       0.00       0.00    1224.96 
   1230.50       0.77       7247          0          0          0          0          0          0          0          0       0.00       0.00       0.00       0.00       0.00       0.00       0.00       0.00    1225.44 
   1231.00       0.81       7442          0          0          0          0          0          0          0          0       0.00       0.00       0.00       0.00       0.00       0.00       0.00       0.00    1225.91 
   1231.50       0.87       8200          0          0          0          0          0          0          0          0       0.00       0.00       0.00       0.00       0.00       0.00       0.00       0.00    1226.39 
   1232.00       0.97       9118          0          0          0          0          0          0          0          0       0.00       0.00       0.00       0.00       0.00       0.00       0.00       0.00    1226.86 
   1232.50       1.01       9491          0          0          0          0          0          0          0          0       0.00       0.00       0.00       0.00       0.00       0.00       0.00       0.00    1227.34 
   1233.00       0.89       8528          0          0          0          0          0          0          0          0       0.00       0.00       0.00       0.00       0.00       0.00       0.00       0.00    1227.81 
   1233.50       0.91       8534          0          0          0          0          0          0          0          0       0.00       0.00       0.00       0.00       0.00       0.00       0.00       0.00    1228.28 
   1234.00       0.82       7361          0          0          0          0          0          0          0          0       0.00       0.00       0.00       0.00       0.00       0.00       0.00       0.00    1228.75 
   1234.50       0.92       8646          0          0          0          0          0          0          0          0       0.00       0.00       0.00       0.00       0.00       0.00       0.00       0.00    1229.23 
   1235.00       0.96       9071          0          0          0          0          0          0          0          0       0.00       0.00       0.00       0.00       0.00       0.00       0.00       0.00    1229.70 
   1235.50       0.99       9359          0          0          0          0          0          0          0          0       0.00       0.00       0.00       0.00       0.00       0.00       0.00       0.00    1230.17 
   1236.00       1.06       9816          0          0          0          0          0          0          0          0       0.00       0.00       0.00       0.00       0.00       0.00       0.00       0.00    1230.64 
   1236.50       1.07       9847          0          0          0          0          0          0          0          0       0.00       0.00       0.00       0.00       0.00       0.00       0.00       0.00    1231.11 
   1237.00       1.09       9987          0          0          0          0          0          0          0          0       0.00       0.00       0.00       0.00       0.00       0.00       0.00       0.00    1231.59 
   1237.50       1.16      10690          0          0          0          0          0          0          0          0       0.00       0.00       0.00       0.00       0.00       0.00       0.00       0.00    1232.06 
   1238.00       1.19      10858          0          0          0          0          0          0          0          0       0.00       0.00       0.00       0.00       0.00       0.00       0.00       0.00    1232.53 
   1238.50       1.14      10702          0          0          0          0          0          0          0          0       0.00       0.00       0.00       0.00       0.00       0.00       0.00       0.00    1233.00 
   1239.00       1.02       9712          0          0          0          0          0          0          0          0       0.00       0.00       0.00       0.00       0.00       0.00       0.00       0.00    1233.48 
   1239.50       1.04       9701          0          0          0          0          0          0          0          0       0.00       0.00       0.00       0.00       0.00       0.00       0.00       0.00    1233.95 
   1240.00       1.07       9906          0          0          0          0          0          0          0          0       0.00       0.00       0.00       0.00       0.00       0.00       0.00       0.00    1234.42 
   1240.50       1.17      10423          0          0          0          0          0          0          0          0       0.00       0.00       0.00       0.00       0.00       0.00       0.00       0.00    1234.89 
   1241.00       1.22      11117          0          0          0          0          0          0          0          0       0.00       0.00       0.00       0.00       0.00       0.00       0.00       0.00    1235.36 
   1241.50       1.22      10997          0          0          0          0          0          0          0          0       0.00       0.00       0.00       0.00       0.00       0.00       0.00       0.00    1235.84 
   1242.00       1.19      10863          0          0          0          0          0          0          0          0       0.00       0.00       0.00       0.00       0.00       0.00       0.00       0.00    1236.31 
   1242.50       1.16      10723          0          0          0          0          0          0          0          0       0.00       0.00       0.00       0.00       0.00       0.00       0.00       0.00    1236.78 
