~VERSION INFORMATION
VERS.    2.0:   CWLS LOG ASCII STANDARD - VERSION 2.0
WRAP.     NO:   ONE LINE PER STEP
~WELL INFORMATION BLOCK
#MNEM.UNIT      DATA                  DESCRIPTION OF MNEMONIC
#----   --------             ---------------
STRT.m  281.00                   :START DEPTH
STOP.m  1577.00                   :STOP DEPTH
STEP.m  0.50                   :STEP VALUE
NULL.  -999.25                   :NULL VALUE
COMP.   TAG OIL                   :COMPANY NAME
WELL.   CHEAL A-10                   :WELL NAME
FLD .   TARANAKI BASIN                   :FIELD NAME
LOC .   STRATFORD              		 :LOCATION
PROV.   TARANAKI                   :PROVINCE
SRVC.   Geoservices                   :SERVICE COMPANY NAME
DATE.   03-03-2012 15:01:13                   :DATE
UWI .                      :UNIQUE WELL IDENTIFIER
~CURVE INFORMATION
#MNEM.UNIT       API CODE        CURVE DESCRIPTION
#----   -------- ------------------
Bit Depth .m        :Bit Depth
Tot Depth .m        :Tot Depth
TVD Depth .m        :TVD Depth
WOH .klbs        :WOH
WOB .klbs        :WOB
T Revol .krev        :T Revol
RPM .rpm        :RPM
TORQUE .lb*ft        :TORQUE
SPP .psi        :SPP
ROP m/hr .m/h        :ROP m/hr
ROP ins .m/h        :ROP ins
ROP .mn/m        :ROP
FLWpmps .gpm        :FLWpmps
ACTIVE .bbl        :ACTIVE
BitRun .m        :BitRun
BitTim .h        :BitTim
PumpTime .h        :PumpTime
TMP IN .degC        :TMP IN
TMP OUT .degC        :TMP OUT
#
#-----------------------------------------------------------
# Bit Depth (m)   Tot Depth (m)   TVD Depth (m)   WOH (klbs)   WOB (klbs)   T Revol (krev)   RPM (rpm)   TORQUE (lb*ft)   SPP (psi)   ROP m/hr (m/h)   ROP ins (m/h)   ROP (mn/m)   FLWpmps (gpm)   ACTIVE (bbl)   BitRun (m)   BitTim (h)   PumpTime (h)   TMP IN (degC)   TMP OUT (degC)
#-----------------------------------------------------------
~A
# ...
   1295.00    1295.00    1285.95       72.1       14.9        286        126       1349       1754      18.24      17.85       3.29        448      302.0    1015.55      41.01      61.31       34.0       45.0 
   1295.50    1295.50    1286.41       72.1       15.0        286        126       1332       1752      17.47      17.42       3.43        449      301.4    1016.07      41.04      61.34       34.0       45.0 
   1296.00    1296.00    1286.87       72.0       15.0        286        126       1320       1759      18.44      17.96       3.25        449      301.3    1016.56      41.07      61.37       34.0       45.0 
   1296.50    1296.50    1287.33       72.1       14.9        286        126       1317       1763      18.93      18.42       3.17        449      300.5    1017.06      41.09      61.39       34.0       45.0 
   1297.00    1297.00    1287.79       72.1       14.9        286        126       1337       1762      18.59      18.03       3.23        449      301.0    1017.56      41.12      61.42       34.0       45.1 
   1297.50    1297.50    1288.25       72.1       15.0        287        126       1305       1763      18.73      18.58       3.20        450      300.4    1018.06      41.15      61.45       34.0       45.1 
   1298.00    1298.00    1288.72       72.1       14.9        287        126       1306       1762      18.19      18.19       3.30        450      300.1    1018.56      41.17      61.47       34.0       45.1 
   1298.50    1298.50    1289.18       72.1       15.0        287        126       1303       1759      20.40      19.47       2.94        449      299.5    1019.05      41.20      61.50       34.0       45.2 
   1299.00    1299.00    1289.64       72.1       14.9        287        126       1286       1756      18.96      19.28       3.16        449      299.5    1019.56      41.22      61.53       34.0       45.3 
   1299.50    1299.50    1290.10       72.1       14.9        287        126       1271       1757      18.82      18.54       3.19        449      299.0    1019.64      41.23      61.53       34.0       45.3 
   1300.00    1300.00    1290.56       72.2       14.8        287        126       1283       1757      19.16      18.63       3.13        448      299.2    1020.04      41.25      61.55       34.0       45.4 
   1300.50    1300.50    1291.03       72.1       15.0        288        125       1291       1750      19.17      19.09       3.13        448      299.0    1020.53      41.28      61.58       34.0       45.4 
   1301.00    1301.00    1291.49       72.1       14.9        288        125       1292       1752      19.17      19.02       3.13        448      298.4    1021.03      41.30      61.60       34.0       45.4 
   1301.50    1301.50    1291.95       72.1       14.9        288        125       1296       1750      18.39      18.33       3.26        448      298.1    1021.53      41.33      61.63       34.0       45.4 
   1302.00    1302.00    1292.41       72.2       14.8        288        125       1290       1754      18.41      18.26       3.26        448      297.9    1022.04      41.36      61.66       34.0       45.3 
   1302.50    1302.50    1292.87       72.1       14.9        288        126       1290       1751      18.03      17.93       3.33        448      297.7    1022.54      41.38      61.68       34.0       45.2 
   1303.00    1303.00    1293.34       71.9       15.1        289        126       1296       1755      18.22      18.21       3.29        448      297.3    1023.04      41.41      61.71       34.0       45.2 
   1303.50    1303.50    1293.80       72.1       14.9        289        126       1247       1739       8.78      10.15       6.83        449      296.8    1023.54      41.47      61.77       34.0       45.0 
   1304.00    1304.00    1294.26       72.3       14.7        289        126       1294       1758      17.87      14.31       3.36        449      296.4    1024.04      41.50      61.80       34.0       44.9 
   1304.50    1304.50    1294.72       72.3       14.7        290        126       1301       1760      17.56      17.78       3.42        449      295.6    1024.54      41.52      61.83       34.0       45.1 
   1305.00    1305.00    1295.18       72.3       14.7        290        126       1333       1760      17.76      17.34       3.38        449      295.2    1025.03      41.55      61.85       34.0       44.9 
   1305.50    1305.50    1295.64       73.4       13.6        290        126          0       1749      13.60      17.40       4.41        450      298.9    1025.55      41.59      62.25       34.0       45.3 
   1306.00    1306.00    1296.11       68.5       18.5        290        128          0       1802      12.01      14.76       4.99        458      424.8    1026.03      41.63      62.29       34.0       45.5 
   1306.50    1306.50    1296.57       67.9       19.1        291        128          0       1806      13.27      12.26       4.52        458      419.3    1026.54      41.67      62.32       34.0       45.5 
   1307.00    1307.00    1297.03       68.2       18.8        291        128          0       1797      13.23      12.90       4.54        457      417.3    1027.03      41.71      62.36       34.0       45.5 
   1307.50    1307.50    1297.49       67.9       19.1        291        128          0       1794      12.83      13.19       4.68        457      416.1    1027.54      41.75      62.40       34.0       45.5 
   1308.00    1308.00    1297.95       67.9       19.1        292        128          0       1796      13.22      13.04       4.54        458      415.2    1028.03      41.78      62.44       34.0       45.5 
   1308.50    1308.50    1298.42       67.3       19.7        292        128          0       1789      12.51      12.27       4.80        457      414.5    1028.53      41.82      62.48       34.0       45.6 
   1309.00    1309.00    1298.88       67.1       19.9        292        128          0       1793      14.08      13.15       4.26        457      414.5    1029.04      41.86      62.51       34.0       45.6 
   1309.50    1309.50    1299.34       67.8       19.2        293        128          0       1794      11.35      11.72       5.29        457      413.6    1029.53      41.90      62.56       34.0       45.5 
   1310.00    1310.00    1299.80       67.1       19.9        293        128          0       1777      11.89      12.02       5.04        457      414.4    1030.04      41.94      62.60       34.0       45.5 
   1310.50    1310.50    1300.26       66.6       20.4        293        128          0       1782      13.47      12.90       4.46        457      404.7    1030.54      41.98      62.64       34.0       45.5 
   1311.00    1311.00    1300.71       66.3       20.8        293        128          0       1781      14.39      14.34       4.17        457      413.2    1031.03      42.02      62.67       34.0       45.6 
   1311.50    1311.50    1301.17       66.3       20.7        294        128          0       1780      15.25      14.59       3.93        457      412.9    1031.54      42.05      62.70       34.0       45.5 
   1312.00    1312.00    1301.63       66.3       20.7        294        128          0       1770      13.84      14.27       4.33        457      403.0    1032.03      42.08      62.74       34.0       45.6 
   1312.50    1312.50    1302.08       66.3       20.7        294        128          0       1768      15.50      14.22       3.87        457      397.1    1032.54      42.12      62.77       34.0       45.6 
   1313.00    1313.00    1302.54       66.4       20.7        294        128          0       1770      15.48      15.61       3.88        457      398.4    1033.03      42.15      62.81       34.0       45.7 
   1313.50    1313.50    1302.99       66.3       20.7        295        128          0       1768      14.87      15.24       4.03        456      400.6    1033.53      42.18      62.84       34.0       45.6 
   1314.00    1314.00    1303.45       66.3       20.7        295        128          0       1764      14.52      14.30       4.13        456      370.5    1034.04      42.22      62.87       34.0       45.5 
