~VERSION INFORMATION
VERS.    2.0:   CWLS LOG ASCII STANDARD - VERSION 2.0
WRAP.     NO:   ONE LINE PER STEP
~WELL INFORMATION BLOCK
#MNEM.UNIT      DATA                  DESCRIPTION OF MNEMONIC
#----   --------             ---------------
STRT.m  281.00                   :START DEPTH
STOP.m  1577.00                   :STOP DEPTH
STEP.m  0.50                   :STEP VALUE
NULL.  -999.25                   :NULL VALUE
COMP.   TAG OIL                   :COMPANY NAME
WELL.   CHEAL A-10                   :WELL NAME
FLD .   TARANAKI BASIN                   :FIELD NAME
LOC .   STRATFORD              		 :LOCATION
PROV.   TARANAKI                   :PROVINCE
SRVC.   Geoservices                   :SERVICE COMPANY NAME
DATE.   03-03-2012 15:01:13                   :DATE
UWI .                      :UNIQUE WELL IDENTIFIER
~CURVE INFORMATION
#MNEM.UNIT       API CODE        CURVE DESCRIPTION
#----   -------- ------------------
Bit Depth .m        :Bit Depth
Tot Depth .m        :Tot Depth
TVD Depth .m        :TVD Depth
WOH .klbs        :WOH
WOB .klbs        :WOB
T Revol .krev        :T Revol
RPM .rpm        :RPM
TORQUE .lb*ft        :TORQUE
SPP .psi        :SPP
ROP m/hr .m/h        :ROP m/hr
ROP ins .m/h        :ROP ins
ROP .mn/m        :ROP
FLWpmps .gpm        :FLWpmps
ACTIVE .bbl        :ACTIVE
BitRun .m        :BitRun
BitTim .h        :BitTim
PumpTime .h        :PumpTime
TMP IN .degC        :TMP IN
TMP OUT .degC        :TMP OUT
#
#-----------------------------------------------------------
# Bit Depth (m)   Tot Depth (m)   TVD Depth (m)   WOH (klbs)   WOB (klbs)   T Revol (krev)   RPM (rpm)   TORQUE (lb*ft)   SPP (psi)   ROP m/hr (m/h)   ROP ins (m/h)   ROP (mn/m)   FLWpmps (gpm)   ACTIVE (bbl)   BitRun (m)   BitTim (h)   PumpTime (h)   TMP IN (degC)   TMP OUT (degC)
#-----------------------------------------------------------
~A
# ...
    534.50     534.50     534.47       44.0        8.6         60        112       1170       1009      36.75      33.39       1.63        401      373.4     258.57       9.44      19.71       24.0       31.1 
    535.00     535.00     534.97       44.0        8.6         60        112       1166       1013      33.10      34.69       1.81        401      373.2     259.07       9.45      19.72       24.0       31.1 
    535.50     535.50     535.47       43.9        8.8         60        112       1168       1014      34.67      33.40       1.73        401      373.3     259.56       9.47      19.74       24.0       31.2 
    536.00     536.00     535.97       43.6        9.0         60        112       1175       1015      33.41      32.94       1.80        401      373.4     260.07       9.48      19.75       24.0       31.2 
    536.50     536.50     536.47       43.0        9.6         61        112       1178       1023      29.17      32.76       2.06        401      373.4     260.57       9.50      19.77       24.0       31.2 
    537.00     537.00     536.97       43.3        9.3         61        112       1159       1020      31.38      29.49       1.91        401      373.5     261.07       9.52      19.79       24.0       31.2 
    537.50     537.50     537.47       43.2        9.4         61        112       1157       1019      31.33      30.17       1.92        401      373.2     261.56       9.53      19.80       24.0       31.2 
    538.00     538.00     537.97       43.5        9.1         61        112       1135       1015      31.73      32.42       1.89        401      373.1     262.08       9.55      19.82       24.0       31.3 
    538.50     538.50     538.47       42.7        9.9         61        112       1133       1016      25.17      27.96       2.38        401      373.0     262.58       9.57      19.84       24.0       31.5 
    539.00     539.00     538.97       43.0        9.6         61        112       1135       1020      30.48      25.66       1.97        401      372.8     263.07       9.58      19.86       24.0       31.8 
    539.50     539.50     539.47       43.3        9.3         61        112       1135       1017      31.44      30.34       1.91        401      372.5     263.58       9.60      19.87       24.0       31.9 
    540.00     540.00     539.97       43.1        9.5         61        112       1126       1018      29.88      31.52       2.01        401      372.4     264.08       9.62      19.89       24.0       32.0 
    540.50     540.50     540.47       43.3        9.3         62        112       1115       1018      29.72      29.61       2.02        401      372.1     264.57       9.63      19.90       24.0       32.1 
    541.00     541.00     540.97       43.3        9.3         62        112       1111       1018      29.75      28.74       2.02        401      371.9     265.06       9.65      19.92       24.0       32.2 
    541.50     541.50     541.47       43.5        9.1         62        112       1110       1018      28.80      29.50       2.08        401      371.7     265.56       9.67      19.94       24.0       32.1 
    542.00     542.00     541.97       43.4        9.2         62        112       1127       1018      30.77      29.27       1.95        401      371.2     266.07       9.68      19.96       24.0       32.1 
    542.50     542.50     542.47       43.2        9.4         62        112       1140       1020      27.92      28.64       2.15        401      371.0     266.57       9.70      19.97       24.0       32.2 
    543.00     543.00     542.97       43.2        9.4         62        112       1134       1020      27.92      27.49       2.15        401      370.6     267.07       9.72      19.99       24.0       32.2 
    543.50     543.50     543.47       43.2        9.4         62        112       1131       1020      27.91      27.56       2.15        401      370.8     267.56       9.74      20.01       24.0       32.1 
    544.00     544.00     543.97       43.6        9.0         62        112       1122       1016      29.79      28.98       2.01        401      370.3     268.07       9.75      20.03       24.0       32.1 
    544.50     544.50     544.47       43.4        9.2         62        112       1126       1018      29.75      29.54       2.02        401      370.1     268.57       9.77      20.04       24.0       32.1 
    545.00     545.00     544.97       43.5        9.2         63        112       1122       1028      28.55      28.70       2.10        401      369.9     269.06       9.79      20.06       24.0       32.0 
    545.50     545.50     545.47       43.2        9.4         63        112       1104       1019      28.27      28.13       2.12        401      369.4     269.96       9.82      20.09       24.0       31.9 
    546.00     546.00     545.97       43.0        9.6         63        112       1118       1020      25.07      27.33       2.39        401      368.5     270.46       9.84      20.11       24.0       31.8 
    546.50     546.50     546.47       42.9        9.7         63        112       1118       1017      24.86      24.51       2.41        401      368.2     270.96       9.86      20.13       24.0       31.7 
    547.00     547.00     546.97       43.0        9.6         63        112       1128       1016      25.93      24.97       2.31        400      367.9     271.46       9.88      20.15       24.0       31.6 
    547.50     547.50     547.47       43.0        9.6         63        112       1119       1015      27.56      26.88       2.18        400      367.5     271.96       9.90      20.17       24.0       31.6 
    548.00     548.00     547.97       43.0        9.6         63        112       1161       1014      26.30      26.32       2.28        400      367.5     272.46       9.92      20.19       24.0       31.5 
    548.50     548.50     548.47       42.9        9.7         64        112       1154       1015      24.86      25.03       2.41        400      367.3     272.96       9.94      20.21       24.0       31.4 
    549.00     549.00     548.97       42.9        9.7         64        112       1172       1017      24.19      24.69       2.48        400      367.3     273.46       9.96      20.23       24.0       31.2 
    549.50     549.50     549.47       42.8        9.8         64        112       1225       1014      23.98      23.53       2.50        399      367.0     273.97       9.98      20.25       24.0       31.1 
    550.00     550.00     549.97       43.0        9.6         64        112       1222       1017      25.70      24.49       2.33        400      366.7     274.46      10.00      20.27       24.0       31.1 
    550.50     550.50     550.47       45.4        7.3         64        113       1103       1023      19.47      23.86       3.08        404      366.7     274.98      10.03      20.46       24.0       30.7 
    551.00     551.00     550.97       42.8        9.8         64        114       1169       1058      26.49      26.68       2.26        406      364.6     275.49      10.04      20.48       24.0       30.7 
    551.50     551.50     551.47       42.6       10.0         64        114       1155       1065      26.79      25.81       2.24        406      363.3     275.99      10.06      20.50       24.0       30.7 
    552.00     552.00     551.97       42.6       10.1         65        114       1154       1068      27.14      26.08       2.21        406      362.7     276.49      10.08      20.52       24.0       30.7 
    552.50     552.50     552.47       42.4       10.2         65        114       1180       1064      26.90      26.64       2.23        406      362.5     277.00      10.10      20.53       24.0       30.7 
    553.00     553.00     552.97       42.7        9.9         65        114       1181       1063      25.88      26.74       2.32        406      362.4     277.49      10.12      20.55       24.0       30.7 
    553.50     553.50     553.47       42.5       10.1         65        114       1182       1063      24.27      25.03       2.47        406      362.2     277.99      10.14      20.57       24.0       30.7 
