~VERSION INFORMATION
VERS.    2.0:   CWLS LOG ASCII STANDARD - VERSION 2.0
WRAP.     NO:   ONE LINE PER STEP
~WELL INFORMATION BLOCK
#MNEM.UNIT      DATA                  DESCRIPTION OF MNEMONIC
#----   --------             ---------------
STRT.m  281.00                   :START DEPTH
STOP.m  1577.00                   :STOP DEPTH
STEP.m  0.50                   :STEP VALUE
NULL.  -999.25                   :NULL VALUE
COMP.   TAG OIL                   :COMPANY NAME
WELL.   CHEAL A-10                   :WELL NAME
FLD .   TARANAKI BASIN                   :FIELD NAME
LOC .   STRATFORD              		 :LOCATION
PROV.   TARANAKI                   :PROVINCE
SRVC.   Geoservices                   :SERVICE COMPANY NAME
DATE.   03-03-2012 15:01:13                   :DATE
UWI .                      :UNIQUE WELL IDENTIFIER
~CURVE INFORMATION
#MNEM.UNIT       API CODE        CURVE DESCRIPTION
#----   -------- ------------------
Bit Depth .m        :Bit Depth
Tot Depth .m        :Tot Depth
TVD Depth .m        :TVD Depth
WOH .klbs        :WOH
WOB .klbs        :WOB
T Revol .krev        :T Revol
RPM .rpm        :RPM
TORQUE .lb*ft        :TORQUE
SPP .psi        :SPP
ROP m/hr .m/h        :ROP m/hr
ROP ins .m/h        :ROP ins
ROP .mn/m        :ROP
FLWpmps .gpm        :FLWpmps
ACTIVE .bbl        :ACTIVE
BitRun .m        :BitRun
BitTim .h        :BitTim
PumpTime .h        :PumpTime
TMP IN .degC        :TMP IN
TMP OUT .degC        :TMP OUT
#
#-----------------------------------------------------------
# Bit Depth (m)   Tot Depth (m)   TVD Depth (m)   WOH (klbs)   WOB (klbs)   T Revol (krev)   RPM (rpm)   TORQUE (lb*ft)   SPP (psi)   ROP m/hr (m/h)   ROP ins (m/h)   ROP (mn/m)   FLWpmps (gpm)   ACTIVE (bbl)   BitRun (m)   BitTim (h)   PumpTime (h)   TMP IN (degC)   TMP OUT (degC)
#-----------------------------------------------------------
~A
# ...
    710.00     710.00     709.97       50.9       13.8        102        113       1170       1138      26.37      24.57       2.28        403      351.6     445.34      15.57      27.07       24.0       32.9 
    710.50     710.50     710.47       51.0       13.7        102        113       1162       1136      26.85      26.23       2.23        403      351.5     445.84      15.59      27.09       24.0       33.0 
    711.00     711.00     710.97       51.0       13.7        102        113       1148       1134      27.56      26.86       2.18        403      351.6     446.34      15.61      27.11       24.0       33.0 
    711.50     711.50     711.47       51.1       13.7        102        113       1147       1135      28.05      27.92       2.14        403      351.3     446.83      15.63      27.13       24.0       33.0 
    712.00     712.00     711.97       51.0       13.7        103        113       1147       1133      27.50      27.36       2.18        402      351.9     447.33      15.64      27.14       24.0       33.0 
    712.50     712.50     712.47       51.1       13.6        103        113       1144       1134      28.40      27.16       2.11        402      351.4     447.83      15.66      27.16       24.0       33.0 
    713.00     713.00     712.97       51.0       13.8        103        113       1147       1135      25.78      28.18       2.33        402      351.3     448.34      15.68      27.18       24.0       33.0 
    713.50     713.50     713.47       50.7       14.0        103        113       1157       1140      25.12      23.92       2.39        402      350.6     448.83      15.70      27.20       24.0       33.0 
    714.00     714.00     713.97       50.5       14.2        103        113       1150       1137      24.62      24.61       2.44        402      352.8     449.33      15.72      27.22       24.0       33.0 
    714.50     714.50     714.47       50.5       14.2        103        113       1163       1137      24.99      25.09       2.40        402      350.9     449.83      15.74      27.24       24.0       33.0 
    715.00     715.00     714.97       50.6       14.1        103        113       1158       1135      25.04      24.65       2.40        402      357.3     450.34      15.76      27.26       24.0       33.0 
    715.50     715.50     715.47       50.5       14.2        103        113       1157       1137      22.37      23.43       2.68        402      357.0     450.83      15.78      27.28       24.0       33.0 
    716.00     716.00     715.97       50.6       14.2        104        112       1152       1134      22.97      22.12       2.61        401      353.1     451.33      15.81      27.31       24.0       33.0 
    716.50     716.50     716.47       50.6       14.2        104        112       1150       1132      23.17      22.87       2.59        401      349.5     451.83      15.83      27.33       24.0       33.0 
    717.00     717.00     716.97       50.5       14.3        104        112       1149       1131      23.37      22.84       2.57        401      349.8     452.34      15.85      27.35       24.0       33.0 
    717.50     717.50     717.47       50.5       14.6        104        112       1145       1128      23.36      23.14       2.57        401      351.4     452.83      15.87      27.37       24.0       33.0 
    718.00     718.00     717.97       50.5       14.9        104        112       1145       1127      23.17      23.15       2.59        400      353.0     453.33      15.89      27.39       24.0       33.0 
    718.50     718.50     718.47       50.5       14.9        104        112       1152       1127      23.77      23.13       2.52        400      352.7     453.84      15.91      27.41       24.0       33.1 
    719.00     719.00     718.97       50.4       15.0        105        112       1151       1124      22.68      23.05       2.65        400      348.9     454.33      15.94      27.43       24.0       33.1 
    719.50     719.50     719.47       50.5       15.0        105        112       1150       1124      22.25      22.78       2.70        400      350.0     454.57      15.95      27.45       24.0       33.1 
    720.00     720.00     719.97       50.5       14.9        105        112       1152       1123      22.99      22.45       2.61        400      358.0     455.08      15.97      27.47       24.0       33.1 
    720.50     720.50     720.47       52.8       12.6        105        112       1111       1107      30.51      24.10       1.97        400      355.6     455.59      15.98      27.48       24.0       33.1 
    721.00     721.00     720.97       51.9       13.6        105        112       1138       1112      27.68      28.50       2.17        399      348.1     456.08      16.00      27.50       24.0       33.1 
    721.50     721.50     721.47       50.6       14.9        105        112       1260       1122      23.03      28.64       2.61        399      357.2     456.31      16.01      27.51       24.0       33.2 
    722.00     722.00     721.97       51.0       14.4        105        112       1291       1127      27.74      24.94       2.16        399      356.3     456.82      16.03      27.53       24.0       33.2 
    722.50     722.50     722.47       49.9       15.5        105        112       1398       1136      17.30      22.42       3.47        399      354.0     457.31      16.06      27.56       24.0       33.2 
    723.00     723.00     722.97       50.9       14.6        105        112       1391       1126      25.38      18.05       2.36        398      348.2     457.83      16.08      27.58       24.0       33.3 
    723.50     723.50     723.47       52.3       13.1        106        112       1238       1112      31.59      29.63       1.90        399      350.0     458.32      16.10      27.59       24.0       33.3 
    724.00     724.00     723.97       54.7       10.7        106        113       1134       1126      27.06      24.88       2.22        404      362.5     458.82      16.11      27.68       24.0       33.2 
    724.50     724.50     724.47       50.8       14.6        106        114       1245       1176      26.46      24.98       2.27        409      366.4     459.31      16.13      27.70       24.0       33.0 
    725.00     725.00     724.97       50.4       15.1        106        114       1249       1187      26.45      26.03       2.27        409      359.9     459.83      16.15      27.72       24.0       33.0 
    725.50     725.50     725.47       51.0       14.4        106        114       1217       1182      28.06      27.07       2.14        409      354.1     460.31      16.17      27.74       24.0       33.0 
    726.00     726.00     725.97       51.2       14.2        106        114       1218       1178      29.81      27.83       2.01        409      350.7     460.61      16.18      27.75       24.0       33.0 
    726.50     726.50     726.47       50.9       14.5        106        114       1200       1183      26.23      27.76       2.29        409      346.6     461.12      16.20      27.77       24.0       32.9 
    727.00     727.00     726.97       50.6       14.9        106        114       1198       1181      23.99      26.04       2.50        409      345.0     461.61      16.22      27.79       24.0       32.9 
    727.50     727.50     727.47       50.4       15.1        107        114       1190       1178      21.68      22.08       2.77        408      343.5     462.11      16.24      27.81       24.0       32.9 
    728.00     728.00     727.97       50.0       15.4        107        114       1203       1182      21.22      20.77       2.83        408      343.6     462.62      16.27      27.84       24.0       32.9 
    728.50     728.50     728.47       50.1       15.3        107        114       1201       1183      21.16      20.71       2.83        408      343.4     463.11      16.29      27.86       24.0       32.9 
    729.00     729.00     728.97       50.2       15.2        107        114       1203       1181      23.01      21.92       2.61        409      343.0     463.63      16.31      27.88       24.0       33.0 
