~VERSION INFORMATION
VERS.    2.0:   CWLS LOG ASCII STANDARD - VERSION 2.0
WRAP.     NO:   ONE LINE PER STEP
~WELL INFORMATION BLOCK
#MNEM.UNIT      DATA                  DESCRIPTION OF MNEMONIC
#----   --------             ---------------
STRT.m  281.00                   :START DEPTH
STOP.m  1577.00                   :STOP DEPTH
STEP.m  0.50                   :STEP VALUE
NULL.  -999.25                   :NULL VALUE
COMP.   TAG OIL                   :COMPANY NAME
WELL.   CHEAL A-10                   :WELL NAME
FLD .   TARANAKI BASIN                   :FIELD NAME
LOC .   STRATFORD              		 :LOCATION
PROV.   TARANAKI                   :PROVINCE
SRVC.   Geoservices                   :SERVICE COMPANY NAME
DATE.   03-03-2012 15:01:13                   :DATE
UWI .                      :UNIQUE WELL IDENTIFIER
~CURVE INFORMATION
#MNEM.UNIT       API CODE        CURVE DESCRIPTION
#----   -------- ------------------
Bit Depth .m        :Bit Depth
Tot Depth .m        :Tot Depth
TVD Depth .m        :TVD Depth
WOH .klbs        :WOH
WOB .klbs        :WOB
T Revol .krev        :T Revol
RPM .rpm        :RPM
TORQUE .lb*ft        :TORQUE
SPP .psi        :SPP
ROP m/hr .m/h        :ROP m/hr
ROP ins .m/h        :ROP ins
ROP .mn/m        :ROP
FLWpmps .gpm        :FLWpmps
ACTIVE .bbl        :ACTIVE
BitRun .m        :BitRun
BitTim .h        :BitTim
PumpTime .h        :PumpTime
TMP IN .degC        :TMP IN
TMP OUT .degC        :TMP OUT
#
#-----------------------------------------------------------
# Bit Depth (m)   Tot Depth (m)   TVD Depth (m)   WOH (klbs)   WOB (klbs)   T Revol (krev)   RPM (rpm)   TORQUE (lb*ft)   SPP (psi)   ROP m/hr (m/h)   ROP ins (m/h)   ROP (mn/m)   FLWpmps (gpm)   ACTIVE (bbl)   BitRun (m)   BitTim (h)   PumpTime (h)   TMP IN (degC)   TMP OUT (degC)
#-----------------------------------------------------------
~A
# ...
   1373.00    1373.00    1357.11       69.6       17.4        317        126          0       1809      11.04      10.84       5.44        451      309.2    1092.00      45.02      66.53       34.0       41.1 
   1373.50    1373.50    1357.57       72.9       14.1        317        129          0       1814       7.40       8.10       8.11        459      309.0    1092.40      45.07      66.58       34.0       41.1 
   1374.00    1374.00    1358.02       74.0       13.0        318        129          0       1819       6.74       5.68       8.90        462      308.8    1092.89      45.14      66.66       34.0       41.0 
   1374.50    1374.50    1358.48       70.3       16.7        318        127          0       1795      10.81      11.08       5.55        452      309.8    1093.40      45.19      66.70       34.0       40.9 
   1375.00    1375.00    1358.94       71.2       15.8        319        126          0       1779      13.64      11.75       4.40        449      310.3    1093.91      45.23      66.77       34.0       40.9 
   1375.50    1375.50    1359.40       72.2       14.8        319        125          0       1812      24.52      24.42       2.45        447      310.9    1094.40      45.25      66.79       34.0       40.8 
   1376.00    1376.00    1359.85       71.8       15.3        319        125       1560       1815      25.40      23.43       2.36        447      311.1    1094.91      45.27      66.81       34.0       40.8 
   1376.50    1376.50    1360.31       71.8       15.3        319        125       1501       1814      24.50      24.27       2.45        447      311.2    1095.40      45.29      66.83       34.0       40.7 
   1377.00    1377.00    1360.77       71.7       15.4        319        125       1469       1811      23.65      24.06       2.54        446      311.6    1095.90      45.31      66.86       34.0       40.8 
   1377.50    1377.50    1361.23       71.8       15.3        319        125       1452       1809      23.75      23.71       2.53        446      319.8    1096.39      45.33      66.88       34.0       40.7 
   1378.00    1378.00    1361.68       71.6       15.4        320        125       1455       1810      24.47      24.12       2.45        445      319.2    1096.91      45.35      66.90       34.0       40.8 
   1378.50    1378.50    1362.14       71.6       15.5        320        125       1452       1811      23.66      23.72       2.54        446      318.6    1097.40      45.37      66.92       34.0       40.8 
   1379.00    1379.00    1362.60       71.5       15.5        320        125       1423       1815      20.59      22.58       2.91        446      316.0    1097.89      45.39      66.94       34.0       40.7 
   1379.50    1379.50    1363.06       71.5       15.6        320        125       1429       1820      23.86      20.66       2.51        446      317.0    1098.39      45.42      66.96       34.0       40.7 
   1380.00    1380.00    1363.51       71.7       15.3        320        125       1429       1817      23.66      23.58       2.54        446      315.9    1098.90      45.44      66.98       34.0       40.7 
   1380.50    1380.50    1363.97       71.5       15.5        320        125       1477       1818      23.08      23.29       2.60        446      315.6    1099.40      45.46      67.01       34.0       40.6 
   1381.00    1381.00    1364.43       71.7       15.3        321        125       1489       1824      21.54      21.90       2.79        446      314.7    1099.79      45.48      67.02       34.0       40.6 
   1381.50    1381.50    1364.89       71.4       15.6        321        126       1488       1840      23.04      22.23       2.60        449      314.7    1100.20      45.49      67.04       34.0       40.6 
   1382.00    1382.00    1365.34       71.6       15.4        321        126       1509       1840      23.05      22.67       2.60        449      313.4    1100.70      45.52      67.06       34.0       40.6 
   1382.50    1382.50    1365.80       71.7       15.3        321        125       1414       1830      26.07      24.35       2.30        448      308.7    1101.21      45.54      67.08       34.0       40.6 
   1383.00    1383.00    1366.26       72.4       14.6        321        126       1314       1839      20.19      21.67       2.97        451      313.8    1101.69      45.56      67.25       34.0       40.5 
   1383.50    1383.50    1366.71       73.8       13.2        321        128       1300       1881      16.24      16.86       3.69        458      312.4    1102.09      45.58      67.28       34.0       40.4 
   1384.00    1384.00    1367.17       73.8       13.2        322        128       1306       1876      17.72      16.91       3.39        457      310.3    1102.59      45.61      67.30       34.0       40.4 
   1384.50    1384.50    1367.63       73.7       13.3        322        128       1310       1881      18.27      18.20       3.28        457      310.3    1102.99      45.63      67.33       34.0       40.4 
   1385.00    1385.00    1368.09       73.8       13.2        322        128       1307       1883      18.34      18.34       3.27        457      310.5    1103.38      45.65      67.35       34.0       40.3 
   1385.50    1385.50    1368.54       74.9       12.1        322        128       1283       1869      16.46      17.52       3.65        457      310.7    1103.88      45.69      67.38       34.0       40.3 
   1386.00    1386.00    1369.00       75.9       11.1        322        128       1256       1853      15.51      15.51       3.87        457      310.9    1104.38      45.72      67.41       34.0       40.3 
   1386.50    1386.50    1369.46       76.0       11.0        323        128       1262       1849      15.51      15.68       3.87        457      311.1    1104.88      45.75      67.44       34.0       40.3 
   1387.00    1387.00    1369.92       76.0       11.0        323        128       1270       1847      15.12      14.84       3.97        457      310.8    1105.37      45.78      67.47       34.0       40.3 
   1387.50    1387.50    1370.37       76.1       10.9        323        128       1272       1846      14.89      15.13       4.03        457      310.3    1105.88      45.82      67.51       34.0       40.3 
   1388.00    1388.00    1370.83       76.1       10.9        323        128       1293       1846      14.36      14.19       4.18        457      309.3    1106.27      45.84      67.54       34.0       40.3 
   1388.50    1388.50    1371.29       76.1       11.0        324        128       1289       1848      15.24      14.47       3.94        457      308.7    1106.78      45.88      67.57       34.0       40.3 
   1389.00    1389.00    1371.75       76.1       11.0        324        128       1274       1843      16.48      16.00       3.64        456      308.1    1107.28      45.91      67.60       34.0       40.2 
   1389.50    1389.50    1372.21       75.9       11.1        324        128       1250       1835       8.37       9.15       7.16        457      307.9    1107.78      45.97      67.66       34.0       40.2 
   1390.00    1390.00    1372.67       76.0       11.0        325        128       1272       1846      13.43      12.76       4.47        457      307.7    1108.28      46.00      67.70       34.0       40.2 
   1390.50    1390.50    1373.12       76.1       10.9        325        128       1289       1861      16.44      14.98       3.65        457      307.4    1108.67      46.03      67.72       34.0       40.2 
   1391.00    1391.00    1373.58       76.1       10.9        325        128       1290       1868      17.24      16.45       3.48        457      307.1    1109.18      46.06      67.75       34.0       40.1 
   1391.50    1391.50    1374.04       76.2       10.8        325        128       1300       1875      17.42      17.30       3.45        457      307.0    1109.68      46.09      67.78       34.0       40.1 
   1392.00    1392.00    1374.50       76.0       11.0        326        128       1296       1874      16.05      16.42       3.74        457      306.7    1110.18      46.12      67.81       34.0       40.1 
