~VERSION INFORMATION
VERS.    2.0:   CWLS LOG ASCII STANDARD - VERSION 2.0
WRAP.     NO:   ONE LINE PER STEP
~WELL INFORMATION BLOCK
#MNEM.UNIT      DATA                  DESCRIPTION OF MNEMONIC
#----   --------             ---------------
STRT.m  281.00                   :START DEPTH
STOP.m  1577.00                   :STOP DEPTH
STEP.m  0.50                   :STEP VALUE
NULL.  -999.25                   :NULL VALUE
COMP.   TAG OIL                   :COMPANY NAME
WELL.   CHEAL A-10                   :WELL NAME
FLD .   TARANAKI BASIN                   :FIELD NAME
LOC .   STRATFORD              		 :LOCATION
PROV.   TARANAKI                   :PROVINCE
SRVC.   Geoservices                   :SERVICE COMPANY NAME
DATE.   03-03-2012 15:01:13                   :DATE
UWI .                      :UNIQUE WELL IDENTIFIER
~CURVE INFORMATION
#MNEM.UNIT       API CODE        CURVE DESCRIPTION
#----   -------- ------------------
Bit Depth .m        :Bit Depth
Tot Depth .m        :Tot Depth
TVD Depth .m        :TVD Depth
WOH .klbs        :WOH
WOB .klbs        :WOB
T Revol .krev        :T Revol
RPM .rpm        :RPM
TORQUE .lb*ft        :TORQUE
SPP .psi        :SPP
ROP m/hr .m/h        :ROP m/hr
ROP ins .m/h        :ROP ins
ROP .mn/m        :ROP
FLWpmps .gpm        :FLWpmps
ACTIVE .bbl        :ACTIVE
BitRun .m        :BitRun
BitTim .h        :BitTim
PumpTime .h        :PumpTime
TMP IN .degC        :TMP IN
TMP OUT .degC        :TMP OUT
#
#-----------------------------------------------------------
# Bit Depth (m)   Tot Depth (m)   TVD Depth (m)   WOH (klbs)   WOB (klbs)   T Revol (krev)   RPM (rpm)   TORQUE (lb*ft)   SPP (psi)   ROP m/hr (m/h)   ROP ins (m/h)   ROP (mn/m)   FLWpmps (gpm)   ACTIVE (bbl)   BitRun (m)   BitTim (h)   PumpTime (h)   TMP IN (degC)   TMP OUT (degC)
#-----------------------------------------------------------
~A
# ...
   1548.50    1548.50    1520.84       72.4       25.4        407        125          0       1970      12.14      13.25       4.94        446      315.0    1263.62      56.89      81.77       34.0       50.5 
   1549.00    1549.00    1521.32       76.4       21.5        408        125          0       1980      20.28      20.14       2.96        445      314.5    1264.11      56.91      81.80       34.0       50.3 
   1549.50    1549.50    1521.80       75.1       22.8        408        125       1622       1989      19.73      19.34       3.04        445      313.8    1264.61      56.94      81.82       34.0       50.2 
   1550.00    1550.00    1522.28       75.1       22.7        408        125       1567       1987      18.88      18.67       3.18        445      313.8    1264.91      56.95      81.84       34.0       50.1 
   1550.50    1550.50    1522.76       75.3       22.5        408        124       1557       1981      18.23      18.81       3.29        444      314.0    1265.21      56.97      81.85       34.0       50.0 
   1551.00    1551.00    1523.25       75.3       22.5        408        124       1543       1986      21.10      19.84       2.84        445      313.9    1265.71      56.99      81.88       34.0       49.9 
   1551.50    1551.50    1523.73       75.1       22.7        408        125       1536       1991      20.98      20.90       2.86        445      313.8    1266.21      57.02      81.90       34.0       49.9 
   1552.00    1552.00    1524.21       75.3       22.6        409        124       1520       1988      21.34      20.85       2.81        444      313.6    1266.72      57.04      81.92       34.0       49.8 
   1552.50    1552.50    1524.69       75.3       22.5        409        124       1503       1992      19.88      20.41       3.02        444      313.6    1267.21      57.07      81.95       34.0       49.8 
   1553.00    1553.00    1525.18       75.3       22.5        409        124       1486       1991      21.25      20.11       2.82        445      313.3    1267.71      57.09      81.97       34.0       49.3 
   1553.50    1553.50    1525.66       75.4       22.4        409        124       1492       1996      20.52      20.86       2.92        444      312.7    1268.21      57.12      82.00       34.0       49.1 
   1554.00    1554.00    1526.14       75.7       22.1        409        124       1502       1996      20.80      20.20       2.88        444      312.4    1268.71      57.14      82.02       34.0       49.1 
   1554.50    1554.50    1526.62       75.6       21.9        409        124       1503       1995      20.20      19.90       2.97        444      312.1    1269.21      57.16      82.05       34.0       49.1 
   1555.00    1555.00    1527.10       75.3       18.4        410        124       1476       1988      19.20      19.71       3.13        444      312.1    1269.71      57.19      82.07       34.0       49.1 
   1555.50    1555.50    1527.59       75.3       18.4        410        124       1496       1989      19.03      18.67       3.15        445      311.3    1270.21      57.22      82.10       34.0       49.0 
   1556.00    1556.00    1528.07       75.2       18.5        410        124       1437       1993      20.07      19.17       2.99        444      310.5    1270.71      57.24      82.12       34.0       48.9 
   1556.50    1556.50    1528.55       75.4       18.3        410        124       1444       1993      19.21      19.62       3.12        444      310.6    1271.21      57.27      82.15       34.0       48.9 
   1557.00    1557.00    1529.03       75.7       18.1        410        124       1446       1996      20.78      19.77       2.89        444      310.2    1271.71      57.29      82.17       34.0       48.9 
   1557.50    1557.50    1529.52       76.7       17.1        411        124       1381       1975      16.13      20.81       3.72        443      309.7    1272.21      57.32      82.53       34.0       49.2 
   1558.00    1558.00    1530.00       77.2       16.5        411        123       1512       1960      23.26      26.69       2.58        439      306.6    1272.71      57.34      82.55       34.0       49.7 
   1558.50    1558.50    1530.48       75.1       18.6        411        123       1539       1975      19.53      20.14       3.07        438      305.5    1273.22      57.37      82.57       34.0       49.8 
   1559.00    1559.00    1530.96       74.7       19.1        411        123       1528       1990      19.28      19.38       3.11        439      304.8    1273.71      57.40      82.60       34.0       49.8 
   1559.50    1559.50    1531.44       74.2       19.5        411        123       1531       2000      19.39      19.11       3.09        439      304.4    1274.21      57.42      82.63       34.0       50.0 
   1560.00    1560.00    1531.93       74.3       19.5        412        123       1514       1993      17.95      18.62       3.34        439      302.7    1274.71      57.45      82.65       34.0       50.1 
   1560.50    1560.50    1532.41       73.8       19.9        412        123          0       1969      15.10      20.77       3.97        439      302.7    1275.21      57.48      82.75       34.0       50.2 
   1561.00    1561.00    1532.89       70.7       23.1        412        123          0       1976      13.96      14.41       4.30        439      302.1    1275.71      57.52      82.79       34.0       50.4 
   1561.50    1561.50    1533.37       70.9       22.9        412        123          0       1977      13.84      13.21       4.34        439      301.8    1276.21      57.55      82.82       34.0       50.7 
   1562.00    1562.00    1533.86       70.2       23.6        413        123          0       1976      13.58      13.66       4.42        438      301.9    1276.71      57.59      82.86       34.0       50.9 
   1562.50    1562.50    1534.34       69.9       23.8        413        123          0       1973      13.94      13.72       4.30        438      302.3    1277.21      57.63      82.90       34.0       51.0 
   1563.00    1563.00    1534.82       70.2       23.6        413        123          0       1974      14.40      14.12       4.17        438      301.2    1277.71      57.66      82.93       34.0       51.0 
   1563.50    1563.50    1535.31       70.4       23.3        414        123          0       1977      16.05      14.85       3.74        438      301.7    1278.21      57.69      82.96       34.0       51.1 
   1564.00    1564.00    1535.79       70.3       23.4        414        123          0       1977      16.05      16.16       3.74        439      301.3    1278.72      57.72      83.00       34.0       50.9 
   1564.50    1564.50    1536.28       70.1       23.6        414        123          0       1974      14.38      14.66       4.17        439      300.3    1279.21      57.76      83.03       34.0       51.1 
   1565.00    1565.00    1536.76       69.8       24.0        414        123          0       1972      15.50      15.09       3.87        438      300.5    1279.71      57.79      83.06       34.0       51.2 
   1565.50    1565.50    1537.25       69.7       24.1        414        123          0       1961      14.29      15.10       4.20        438      300.1    1279.86      57.80      83.07       34.0       51.2 
   1566.00    1566.00    1537.73       73.0       20.8        415        123          0       1951      14.38      15.09       4.17        439      300.3    1280.36      57.84      83.16       34.0       51.3 
   1566.50    1566.50    1538.22       76.0       17.8        415        123       1632       1970      19.00      21.30       3.16        438      299.0    1280.86      57.86      83.19       34.0       51.4 
   1567.00    1567.00    1538.70       75.4       18.4        415        123       1564       1976      19.45      19.40       3.08        438      299.2    1281.36      57.89      83.22       34.0       51.4 
   1567.50    1567.50    1539.18       75.3       18.4        415        123       1543       1983      19.81      19.25       3.03        438      299.0    1281.86      57.91      83.24       34.0       51.4 
