~VERSION INFORMATION
VERS.    2.0:   CWLS LOG ASCII STANDARD - VERSION 2.0
WRAP.     NO:   ONE LINE PER STEP
~WELL INFORMATION BLOCK
#MNEM.UNIT      DATA                  DESCRIPTION OF MNEMONIC
#----   --------             ---------------
STRT.m  281.00                   :START DEPTH
STOP.m  1577.00                   :STOP DEPTH
STEP.m  0.50                   :STEP VALUE
NULL.  -999.25                   :NULL VALUE
COMP.   TAG OIL                   :COMPANY NAME
WELL.   CHEAL A-10                   :WELL NAME
FLD .   TARANAKI BASIN                   :FIELD NAME
LOC .   STRATFORD              		 :LOCATION
PROV.   TARANAKI                   :PROVINCE
SRVC.   Geoservices                   :SERVICE COMPANY NAME
DATE.   03-03-2012 15:01:13                   :DATE
UWI .                      :UNIQUE WELL IDENTIFIER
~CURVE INFORMATION
#MNEM.UNIT       API CODE        CURVE DESCRIPTION
#----   -------- ------------------
Bit Depth .m        :Bit Depth
Tot Depth .m        :Tot Depth
TVD Depth .m        :TVD Depth
WOH .klbs        :WOH
WOB .klbs        :WOB
T Revol .krev        :T Revol
RPM .rpm        :RPM
TORQUE .lb*ft        :TORQUE
SPP .psi        :SPP
ROP m/hr .m/h        :ROP m/hr
ROP ins .m/h        :ROP ins
ROP .mn/m        :ROP
FLWpmps .gpm        :FLWpmps
ACTIVE .bbl        :ACTIVE
BitRun .m        :BitRun
BitTim .h        :BitTim
PumpTime .h        :PumpTime
TMP IN .degC        :TMP IN
TMP OUT .degC        :TMP OUT
#
#-----------------------------------------------------------
# Bit Depth (m)   Tot Depth (m)   TVD Depth (m)   WOH (klbs)   WOB (klbs)   T Revol (krev)   RPM (rpm)   TORQUE (lb*ft)   SPP (psi)   ROP m/hr (m/h)   ROP ins (m/h)   ROP (mn/m)   FLWpmps (gpm)   ACTIVE (bbl)   BitRun (m)   BitTim (h)   PumpTime (h)   TMP IN (degC)   TMP OUT (degC)
#-----------------------------------------------------------
~A
# ...
   1119.50    1119.50    1118.35       73.1        3.9        217        118       1248       1436      31.61      31.90       1.90        423      384.9     844.19      32.08      48.80       34.0       38.1 
   1120.00    1120.00    1118.84       73.1        3.8        217        118       1251       1436      31.34      32.00       1.91        422      384.6     844.68      32.10      48.82       34.0       38.1 
   1120.50    1120.50    1119.33       73.2        3.8        217        118       1210       1432      34.60      31.91       1.73        422      384.3     845.18      32.11      48.83       34.0       38.1 
   1121.00    1121.00    1119.82       73.2        3.8        217        118       1208       1433      31.88      32.67       1.88        422      384.0     845.69      32.13      48.85       34.0       38.0 
   1121.50    1121.50    1120.31       73.0        4.0        217        118       1210       1431      32.20      32.31       1.86        422      383.7     846.18      32.14      48.87       34.0       38.0 
   1122.00    1122.00    1120.80       72.8        4.2        217        118       1208       1430      33.35      31.75       1.80        422      383.6     846.68      32.16      48.88       34.0       38.1 
   1122.50    1122.50    1121.29       72.8        4.1        218        118       1206       1433      32.44      32.75       1.85        422      383.6     847.18      32.17      48.90       34.0       38.1 
   1123.00    1123.00    1121.78       72.9        4.1        218        118       1183       1432      33.33      32.46       1.80        422      383.5     847.68      32.19      48.91       34.0       38.2 
   1123.50    1123.50    1122.27       72.9        4.0        218        118       1191       1431      33.94      32.23       1.77        422      383.2     848.19      32.20      48.93       34.0       38.2 
   1124.00    1124.00    1122.76       72.6        4.4        218        118       1179       1427      36.46      34.09       1.65        422      383.0     848.68      32.22      48.94       34.0       38.4 
   1124.50    1124.50    1123.25       72.5        4.5        218        118       1187       1433      35.35      35.59       1.70        422      382.8     849.21      32.23      48.95       34.0       38.4 
   1125.00    1125.00    1123.74       73.1        3.8        218        118       1151       1428      35.57      35.82       1.69        422      382.4     849.68      32.25      48.97       34.0       38.4 
   1125.50    1125.50    1124.23       72.9        4.1        218        118       1153       1431      35.97      35.35       1.67        422      382.3     850.18      32.26      48.98       34.0       38.5 
   1126.00    1126.00    1124.72       72.8        4.2        218        118       1182       1430      36.04      35.66       1.66        422      382.2     850.68      32.27      49.00       34.0       38.6 
   1126.50    1126.50    1125.21       72.2        4.8        218        118       1175       1434      36.58      35.29       1.64        422      382.1     851.19      32.29      49.01       34.0       38.6 
   1127.00    1127.00    1125.70       72.6        4.4        218        118       1173       1436      35.42      35.80       1.69        421      381.9     851.68      32.30      49.02       34.0       38.6 
   1127.50    1127.50    1126.19       72.7        4.3        219        118       1167       1435      36.58      35.30       1.64        421      381.8     852.19      32.32      49.04       34.0       38.6 
   1128.00    1128.00    1126.68       72.8        4.2        219        118       1263       1436      36.27      35.58       1.65        421      381.4     852.70      32.33      49.05       34.0       38.7 
   1128.50    1128.50    1127.17       72.5        4.5        219        118       1271       1439      34.79      35.81       1.72        421      381.2     853.17      32.34      49.06       34.0       38.7 
   1129.00    1129.00    1127.65       72.8        4.2        219        118       1257       1434      36.59      35.37       1.64        421      381.0     853.69      32.36      49.08       34.0       38.7 
   1129.50    1129.50    1128.14       72.4        4.5        219        118       1293       1436      35.73      35.64       1.68        421      380.6     854.18      32.37      49.09       34.0       38.7 
   1130.00    1130.00    1128.63       72.8        4.2        219        118       1262       1433      35.50      35.37       1.69        421      380.3     854.69      32.39      49.11       34.0       38.7 
   1130.50    1130.50    1129.12       69.4        7.6        219        118       1104       1454      24.10      32.95       2.49        421      380.5     855.18      32.41      49.21       34.0       38.4 
   1131.00    1131.00    1129.61       69.8       10.1        219        119          0       1471      16.13      15.01       3.72        425      383.2     855.68      32.44      49.25       34.0       38.2 
   1131.50    1131.50    1130.10       66.8       13.9        220        119          0       1484      14.91      15.61       4.03        424      379.0     856.07      32.46      49.27       34.0       38.1 
   1132.00    1132.00    1130.59       66.3       14.4        220        119          0       1486      14.90      13.98       4.03        424      377.4     856.48      32.49      49.30       34.0       38.1 
   1132.50    1132.50    1131.08       66.6       14.0        220        119          0       1485       8.58       8.70       6.99        424      376.4     856.88      32.54      49.35       34.0       38.0 
   1133.00    1133.00    1131.57       68.7       11.9        220        119          0       1467      32.78      20.35       1.83        424      375.7     857.39      32.55      49.36       34.0       38.0 
   1133.50    1133.50    1132.06       69.8       10.9        220        119          0       1475      29.56      30.18       2.03        424      375.6     857.88      32.57      49.38       34.0       37.9 
   1134.00    1134.00    1132.55       69.3       11.3        221        119          0       1467      35.27      32.61       1.70        424      375.2     858.38      32.58      49.39       34.0       37.9 
   1134.50    1134.50    1133.04       70.2       10.4        221        119          0       1458      32.50      33.13       1.85        424      375.2     858.88      32.60      49.41       34.0       37.9 
   1135.00    1135.00    1133.53       70.4       10.2        221        119          0       1454      31.07      31.69       1.93        424      375.0     859.38      32.61      49.42       34.0       37.9 
   1135.50    1135.50    1134.02       70.1       10.5        221        119          0       1460      31.04      30.99       1.93        424      374.6     859.87      32.63      49.44       34.0       37.9 
   1136.00    1136.00    1134.51       76.1        4.5        221        114          0       1359      16.20      17.01       3.70        407      375.5     860.38      32.66      49.71       34.0       37.7 
   1136.50    1136.50    1134.99       70.6       10.0        221        112       1373       1381      34.89      24.53       1.72        400      374.8     860.89      32.68      49.72       34.0       37.6 
   1137.00    1137.00    1135.48       71.1        9.6        221        112       1307       1371      42.05      36.98       1.43        400      373.9     861.40      32.69      49.73       34.0       37.6 
   1137.50    1137.50    1135.97       72.3        8.3        221        112       1252       1357      31.89      37.64       1.88        400      373.5     861.88      32.70      49.75       34.0       37.6 
   1138.00    1138.00    1136.46       72.9        7.7        221        112       1238       1351      32.72      32.10       1.83        399      373.3     862.38      32.72      49.76       34.0       37.6 
   1138.50    1138.50    1136.94       72.3        8.4        222        112       1245       1359      32.17      31.83       1.86        399      373.0     862.88      32.73      49.78       34.0       37.5 
