~VERSION INFORMATION
VERS.    2.0:   CWLS LOG ASCII STANDARD - VERSION 2.0
WRAP.     NO:   ONE LINE PER STEP
~WELL INFORMATION BLOCK
#MNEM.UNIT      DATA                  DESCRIPTION OF MNEMONIC
#----   --------             ---------------
STRT.m  281.00                   :START DEPTH
STOP.m  1577.00                   :STOP DEPTH
STEP.m  0.50                   :STEP VALUE
NULL.  -999.25                   :NULL VALUE
COMP.   TAG OIL                   :COMPANY NAME
WELL.   CHEAL A-10                   :WELL NAME
FLD .   TARANAKI BASIN                   :FIELD NAME
LOC .   PRAMOD KUMAR                   :LOCATION
PROV.   TARANAKI                   :PROVINCE
SRVC.   Geoservices                   :SERVICE COMPANY NAME
DATE.   03-03-2012 03:20:21                   :DATE
UWI .                      :UNIQUE WELL IDENTIFIER
~CURVE INFORMATION
#MNEM.UNIT       API CODE        CURVE DESCRIPTION
#----   -------- ------------------
Tot Depth .m        :Tot Depth
T GAS main .%        :T GAS main
C1  main .ppm        :C1  main
C2  main .ppm        :C2  main
C3  main .ppm        :C3  main
iC4 main .ppm        :iC4 main
nC4 main .ppm        :nC4 main
iC5 main .ppm        :iC5 main
nC5 main .ppm        :nC5 main
H2S .ppm        :H2S
C02 .ppm        :C02
C1/C2 .....        :C1/C2
C1/C3 .....        :C1/C3
C1/C4 .....        :C1/C4
C1/C5 .....        :C1/C5
GAS WET .....        :GAS WET
L-H RATIO .....        :L-H RATIO
OCQ .....        :OCQ
GRA .....        :GRA
TVD Depth .m        :TVD Depth
#
#-----------------------------------------------------------
# Tot Depth (m)   T GAS main (%)   C1  main (ppm)   C2  main (ppm)   C3  main (ppm)   iC4 main (ppm)   nC4 main (ppm)   iC5 main (ppm)   nC5 main (ppm)   H2S (ppm)   C02 (ppm)   C1/C2 (....)   C1/C3 (....)   C1/C4 (....)   C1/C5 (....)   GAS WET (....)   L-H RATIO (....)   OCQ (....)   GRA (....)   TVD Depth (m)
#-----------------------------------------------------------
~A
# ...
   1391.00       0.95       7744          0          0          0          0          0          0          0          0       0.00       0.00       0.00       0.00       0.00       0.00       0.00       0.00    1373.58 
   1391.50       1.76      13862          0          0          0          0          0          0          0          0       0.00       0.00       0.00       0.00       0.00       0.00       0.00       0.00    1374.04 
   1392.00       1.78      14580          0          0          0          0          0          0          0          0       0.00       0.00       0.00       0.00       0.00       0.00       0.00       0.00    1374.50 
   1392.50       1.53      11103          0          0          0          0          0          0          0          0       0.00       0.00       0.00       0.00       0.00       0.00       0.00       0.00    1374.96 
   1393.00       1.95      15487          0          0          0          0          0          0          0          0       0.00       0.00       0.00       0.00       0.00       0.00       0.00       0.00    1375.42 
   1393.50       1.79      12965          0          0          0          0          0          0          0          0       0.00       0.00       0.00       0.00       0.00       0.00       0.00       0.00    1375.87 
   1394.00       1.16       8266          0          0          0          0          0          0          0          0       0.00       0.00       0.00       0.00       0.00       0.00       0.00       0.00    1376.33 
   1394.50       0.87       8266          0          0          0          0          0          0          0          0       0.00       0.00       0.00       0.00       0.00       0.00       0.00       0.00    1376.79 
   1395.00       0.63       5428          0          0          0          0          0          0          0          0       0.00       0.00       0.00       0.00       0.00       0.00       0.00       0.00    1377.25 
   1395.50       0.56       4432          0          0          0          0          0          0          0          0       0.00       0.00       0.00       0.00       0.00       0.00       0.00       0.00    1377.71 
   1396.00       0.59       4966          0          0          0          0          0          0          0          0       0.00       0.00       0.00       0.00       0.00       0.00       0.00       0.00    1378.17 
   1396.50       0.53       4662          0          0          0          0          0          0          0          0       0.00       0.00       0.00       0.00       0.00       0.00       0.00       0.00    1378.63 
   1397.00       0.53       4399          0          0          0          0          0          0          0          0       0.00       0.00       0.00       0.00       0.00       0.00       0.00       0.00    1379.08 
   1397.50       0.37       3190          0          0          0          0          0          0          0          0       0.00       0.00       0.00       0.00       0.00       0.00       0.00       0.00    1379.54 
   1398.00       0.44       3819          0          0          0          0          0          0          0          0       0.00       0.00       0.00       0.00       0.00       0.00       0.00       0.00    1380.00 
   1398.50       0.49       4139          0          0          0          0          0          0          0          0       0.00       0.00       0.00       0.00       0.00       0.00       0.00       0.00    1380.46 
   1399.00       0.49       4223          0          0          0          0          0          0          0          0       0.00       0.00       0.00       0.00       0.00       0.00       0.00       0.00    1380.92 
   1399.50       0.47       3965          0          0          0          0          0          0          0          0       0.00       0.00       0.00       0.00       0.00       0.00       0.00       0.00    1381.38 
   1400.00       0.46       3965          0          0          0          0          0          0          0          0       0.00       0.00       0.00       0.00       0.00       0.00       0.00       0.00    1381.83 
   1400.50       0.52       4329          0          0          0          0          0          0          0          0       0.00       0.00       0.00       0.00       0.00       0.00       0.00       0.00    1382.29 
   1401.00       0.50       4329          0          0          0          0          0          0          0          0       0.00       0.00       0.00       0.00       0.00       0.00       0.00       0.00    1382.75 
   1401.50       0.57       4513         32          0          0          0          0          0          0          0     139.44       0.00       0.00       0.00       0.71       0.00       0.00       0.00    1383.21 
   1402.00       0.64       5379         71          0          0          0          0          0          0          0      75.74       0.00       0.00       0.00       1.30       0.00       0.00       0.00    1383.67 
   1402.50       0.68       5820         42          0          0          0          0          0          0          0     138.27       0.00       0.00       0.00       0.72       0.00       0.00       0.00    1384.13 
   1403.00       0.67       5380         46          0          0          0          0          0          0          0     116.96       0.00       0.00       0.00       0.85       0.00       0.00       0.00    1384.58 
   1403.50       0.30       2411         20          0          0          0          0          0          0          0     118.35       0.00       0.00       0.00       0.84       0.00       0.00       0.00    1385.04 
   1404.00       0.31       2586         25          0          0          0          0          0          0          0     104.77       0.00       0.00       0.00       0.95       0.00       0.00       0.00    1385.50 
   1404.50       0.35       2884         41          0          0          0          0          0          0          0      70.07       0.00       0.00       0.00       1.41       0.00       0.00       0.00    1385.96 
   1405.00       0.36       3041         40          0          0          0          0          0          0          0      75.96       0.00       0.00       0.00       1.30       0.00       0.00       0.00    1386.42 
   1405.50       0.36       2954         40          0          0          0          0          0          0          0      73.96       0.00       0.00       0.00       1.33       0.00       0.00       0.00    1386.88 
   1406.00       0.51       4267         58          0          0          0          0          0          0          0      73.26       0.00       0.00       0.00       1.35       0.00       0.00       0.00    1387.33 
   1406.50       0.48       4209         55          0          0          0          0          0          0          0      77.07       0.00       0.00       0.00       1.28       0.00       0.00       0.00    1387.79 
   1407.00       0.35       2872         35          0          0          0          0          0          0          0      81.13       0.00       0.00       0.00       1.22       0.00       0.00       0.00    1388.25 
   1407.50       0.33       2789         42          0          0          0          0          0          0          0      66.68       0.00       0.00       0.00       1.48       0.00       0.00       0.00    1388.71 
   1408.00       0.34       2865         40          0          0          0          0          0          0          0      70.89       0.00       0.00       0.00       1.39       0.00       0.00       0.00    1389.16 
   1408.50       0.34       2911         40          0          0          0          0          0          0          0      72.03       0.00       0.00       0.00       1.37       0.00       0.00       0.00    1389.62 
   1409.00       0.40       3266         47          0          0          0          0          0          0          0      69.41       0.00       0.00       0.00       1.42       0.00       0.00       0.00    1390.08 
