~VERSION INFORMATION
VERS.    2.0:   CWLS LOG ASCII STANDARD - VERSION 2.0
WRAP.     NO:   ONE LINE PER STEP
~WELL INFORMATION BLOCK
#MNEM.UNIT      DATA                  DESCRIPTION OF MNEMONIC
#----   --------             ---------------
STRT.m  281.00                   :START DEPTH
STOP.m  1577.00                   :STOP DEPTH
STEP.m  0.50                   :STEP VALUE
NULL.  -999.25                   :NULL VALUE
COMP.   TAG OIL                   :COMPANY NAME
WELL.   CHEAL A-10                   :WELL NAME
FLD .   TARANAKI BASIN                   :FIELD NAME
LOC .   STRATFORD              		 :LOCATION
PROV.   TARANAKI                   :PROVINCE
SRVC.   Geoservices                   :SERVICE COMPANY NAME
DATE.   03-03-2012 15:01:13                   :DATE
UWI .                      :UNIQUE WELL IDENTIFIER
~CURVE INFORMATION
#MNEM.UNIT       API CODE        CURVE DESCRIPTION
#----   -------- ------------------
Bit Depth .m        :Bit Depth
Tot Depth .m        :Tot Depth
TVD Depth .m        :TVD Depth
WOH .klbs        :WOH
WOB .klbs        :WOB
T Revol .krev        :T Revol
RPM .rpm        :RPM
TORQUE .lb*ft        :TORQUE
SPP .psi        :SPP
ROP m/hr .m/h        :ROP m/hr
ROP ins .m/h        :ROP ins
ROP .mn/m        :ROP
FLWpmps .gpm        :FLWpmps
ACTIVE .bbl        :ACTIVE
BitRun .m        :BitRun
BitTim .h        :BitTim
PumpTime .h        :PumpTime
TMP IN .degC        :TMP IN
TMP OUT .degC        :TMP OUT
#
#-----------------------------------------------------------
# Bit Depth (m)   Tot Depth (m)   TVD Depth (m)   WOH (klbs)   WOB (klbs)   T Revol (krev)   RPM (rpm)   TORQUE (lb*ft)   SPP (psi)   ROP m/hr (m/h)   ROP ins (m/h)   ROP (mn/m)   FLWpmps (gpm)   ACTIVE (bbl)   BitRun (m)   BitTim (h)   PumpTime (h)   TMP IN (degC)   TMP OUT (degC)
#-----------------------------------------------------------
~A
# ...
   1217.00    1217.00    1212.61       68.0       19.0        248        125       1479       1687      22.24      23.43       2.70        448      418.1     938.94      36.23      55.40       34.0       42.6 
   1217.50    1217.50    1213.08       68.1       18.9        249        125       1466       1688      22.69      21.99       2.64        448      417.6     939.43      36.26      55.42       34.0       42.6 
   1218.00    1218.00    1213.56       68.0       19.0        249        125       1439       1687      23.67      22.56       2.53        448      417.2     939.93      36.28      55.44       34.0       42.7 
   1218.50    1218.50    1214.03       69.9       17.1        249        125       1376       1673      19.52      19.64       3.07        448      417.0     940.44      36.30      55.47       34.0       42.6 
   1219.00    1219.00    1214.51       69.9       17.1        249        125       1376       1673      19.52      19.64       3.07        448      417.0     940.44      36.30      55.47       34.0       42.7 
   1219.50    1219.50    1214.98       67.9       19.1        249        125       1414       1689      20.78      21.40       2.89        448      416.5     941.43      36.35      55.51       34.0       42.7 
   1220.00    1220.00    1215.46       67.8       19.2        249        125       1415       1691      22.35      21.26       2.68        448      415.9     941.94      36.37      55.53       34.0       42.7 
   1220.50    1220.50    1215.93       68.0       19.0        250        125       1397       1686      20.92      21.01       2.87        448      415.7     942.43      36.40      55.56       34.0       42.7 
   1221.00    1221.00    1216.41       68.0       19.1        250        125       1396       1685      21.32      21.30       2.81        448      415.3     942.94      36.42      55.58       34.0       42.8 
   1221.50    1221.50    1216.88       67.9       19.1        250        125       1361       1687      22.67      21.64       2.65        448      414.6     943.43      36.44      55.60       34.0       42.8 
   1222.00    1222.00    1217.36       68.1       18.9        250        125       1345       1683      22.21      22.21       2.70        448      414.2     943.82      36.46      55.62       34.0       42.8 
   1222.50    1222.50    1217.84       68.2       18.8        250        125       1345       1674      22.81      21.93       2.63        448      414.2     943.92      36.46      55.63       34.0       42.9 
   1223.00    1223.00    1218.31       68.0       19.0        250        125       1335       1684      21.37      21.50       2.81        448      413.8     944.33      36.48      55.64       34.0       42.9 
   1223.50    1223.50    1218.79       68.1       19.0        250        125       1327       1683      21.28      21.35       2.82        448      413.7     944.83      36.50      55.67       34.0       42.9 
   1224.00    1224.00    1219.26       67.8       19.2        251        125       1323       1684      16.04      20.22       3.74        448      413.3     945.32      36.54      55.70       34.0       42.5 
   1224.50    1224.50    1219.74       68.0       19.0        251        125       1344       1695      19.14      14.12       3.13        448      413.0     945.83      36.56      55.73       34.0       42.3 
   1225.00    1225.00    1220.21       70.1       16.9        251        125       1320       1678      20.01      18.05       3.00        448      412.6     946.33      36.59      55.75       34.0       42.4 
   1225.50    1225.50    1220.69       68.1       18.9        251        125       1363       1686      20.96      22.80       2.86        448      411.8     946.83      36.61      55.77       34.0       42.4 
   1226.00    1226.00    1221.16       68.0       19.0        251        125       1344       1685      21.96      20.14       2.73        448      411.6     947.34      36.63      55.80       34.0       42.5 
   1226.50    1226.50    1221.64       68.1       19.0        252        125       1338       1684      21.60      22.00       2.78        448      411.1     947.83      36.66      55.82       34.0       42.4 
   1227.00    1227.00    1222.11       68.0       19.1        252        125       1329       1680      21.65      21.59       2.77        448      410.7     948.33      36.68      55.84       34.0       42.4 
   1227.50    1227.50    1222.59       68.1       19.0        252        126       1361       1677      20.78      20.93       2.89        448      410.4     948.83      36.70      55.87       34.0       42.5 
   1228.00    1228.00    1223.06       67.9       19.1        252        125          0       1680      22.11      20.79       2.71        448      410.1     949.32      36.73      55.89       34.0       42.5 
   1228.50    1228.50    1223.54       71.2       15.8        253        127          0       1675      10.09      14.36       5.94        453      403.5     950.12      36.81      56.19       34.0       42.7 
   1229.00    1229.00    1224.01       67.1       19.9        253        128          0       1716      10.94      10.49       5.48        457      391.2     950.62      36.85      56.23       34.0       42.8 
   1229.50    1229.50    1224.49       67.7       19.3        254        128          0       1718       9.78      10.09       6.14        457      388.0     951.12      36.90      56.28       34.0       42.8 
   1230.00    1230.00    1224.96       66.9       20.1        254        128          0       1718      10.22       9.88       5.87        457      386.8     951.62      36.95      56.33       34.0       43.0 
   1230.50    1230.50    1225.44       68.3       18.7        254        128          0       1719       9.32       9.22       6.44        457      385.8     952.12      37.00      56.39       34.0       43.2 
   1231.00    1231.00    1225.91       67.6       19.4        255        128          0       1719      10.22      10.26       5.87        457      385.4     952.62      37.05      56.43       34.0       43.3 
   1231.50    1231.50    1226.39       68.0       19.0        255        128          0       1719       9.35       9.38       6.42        457      384.9     953.13      37.11      56.49       34.0       43.3 
   1232.00    1232.00    1226.86       68.5       18.6        256        128          0       1720       9.11       9.13       6.59        458      384.9     953.62      37.16      56.54       34.0       43.3 
   1232.50    1232.50    1227.34       69.1       17.9        256        128          0       1718      10.07       9.52       5.96        458      384.5     954.13      37.21      56.59       34.0       43.4 
   1233.00    1233.00    1227.81       68.6       18.4        256        128          0       1719       9.49       9.72       6.32        457      383.9     954.62      37.26      56.65       34.0       43.5 
   1233.50    1233.50    1228.28       68.3       18.7        257        128          0       1718       9.58       9.30       6.26        457      383.5     955.12      37.32      56.70       34.0       43.6 
   1234.00    1234.00    1228.75       69.9       17.1        257        128          0       1702       7.41       9.76       8.10        457      383.0     955.33      37.34      56.78       34.0       43.5 
   1234.50    1234.50    1229.23       69.6       17.4        257        128       1532       1745      20.60      22.62       2.91        457      382.2     955.82      37.37      56.80       34.0       43.4 
   1235.00    1235.00    1229.70       68.4       18.6        258        128       1506       1752      19.35      19.21       3.10        457      381.9     956.33      37.39      56.83       34.0       43.4 
   1235.50    1235.50    1230.17       68.5       18.6        258        128       1437       1745      18.08      18.00       3.32        457      381.5     956.83      37.42      56.86       34.0       43.6 
   1236.00    1236.00    1230.64       68.3       18.7        258        128       1441       1748      17.93      17.76       3.35        456      381.4     957.32      37.45      56.89       34.0       43.6 
