~VERSION INFORMATION
VERS.    2.0:   CWLS LOG ASCII STANDARD - VERSION 2.0
WRAP.     NO:   ONE LINE PER STEP
~WELL INFORMATION BLOCK
#MNEM.UNIT      DATA                  DESCRIPTION OF MNEMONIC
#----   --------             ---------------
STRT.m  281.00                   :START DEPTH
STOP.m  1577.00                   :STOP DEPTH
STEP.m  0.50                   :STEP VALUE
NULL.  -999.25                   :NULL VALUE
COMP.   TAG OIL                   :COMPANY NAME
WELL.   CHEAL A-10                   :WELL NAME
FLD .   TARANAKI BASIN                   :FIELD NAME
LOC .   PRAMOD KUMAR                   :LOCATION
PROV.   TARANAKI                   :PROVINCE
SRVC.   Geoservices                   :SERVICE COMPANY NAME
DATE.   03-03-2012 03:20:21                   :DATE
UWI .                      :UNIQUE WELL IDENTIFIER
~CURVE INFORMATION
#MNEM.UNIT       API CODE        CURVE DESCRIPTION
#----   -------- ------------------
Tot Depth .m        :Tot Depth
T GAS main .%        :T GAS main
C1  main .ppm        :C1  main
C2  main .ppm        :C2  main
C3  main .ppm        :C3  main
iC4 main .ppm        :iC4 main
nC4 main .ppm        :nC4 main
iC5 main .ppm        :iC5 main
nC5 main .ppm        :nC5 main
H2S .ppm        :H2S
C02 .ppm        :C02
C1/C2 .....        :C1/C2
C1/C3 .....        :C1/C3
C1/C4 .....        :C1/C4
C1/C5 .....        :C1/C5
GAS WET .....        :GAS WET
L-H RATIO .....        :L-H RATIO
OCQ .....        :OCQ
GRA .....        :GRA
TVD Depth .m        :TVD Depth
#
#-----------------------------------------------------------
# Tot Depth (m)   T GAS main (%)   C1  main (ppm)   C2  main (ppm)   C3  main (ppm)   iC4 main (ppm)   nC4 main (ppm)   iC5 main (ppm)   nC5 main (ppm)   H2S (ppm)   C02 (ppm)   C1/C2 (....)   C1/C3 (....)   C1/C4 (....)   C1/C5 (....)   GAS WET (....)   L-H RATIO (....)   OCQ (....)   GRA (....)   TVD Depth (m)
#-----------------------------------------------------------
~A
# ...
   1557.50       0.86       7696        135         37          0          0          0          0          0          0      56.95     209.16       0.00       0.00       2.19     212.83       0.00       0.00    1529.52 
   1558.00       0.73       6418        108         29          0          0          0          0          0          0      59.57     223.35       0.00       0.00       2.08     227.10       0.00       0.00    1530.00 
   1558.50       0.71       6265        102         28          0          0          0          0          0          0      61.13     226.09       0.00       0.00       2.04     229.78       0.00       0.00    1530.48 
   1559.00       0.64       5691         94         25          0          0          0          0          0          0      60.75     231.65       0.00       0.00       2.04     235.46       0.00       0.00    1530.96 
   1559.50       0.56       4702         99         19          0          0          0          0          0          0      47.26     253.83       0.00       0.00       2.45     259.20       0.00       0.00    1531.44 
   1560.00       0.54       4578         97         21          0          0          0          0          0          0      47.19     217.65       0.00       0.00       2.51     222.26       0.00       0.00    1531.93 
   1560.50       0.69       5816        137         27          0          0          0          0          0          0      42.50     211.78       0.00       0.00       2.75     216.76       0.00       0.00    1532.41 
   1561.00       0.73       6240         95         28          0          0          0          0          0          0      65.99     225.07       0.00       0.00       1.92     228.47       0.00       0.00    1532.89 
   1561.50       0.79       6759        117         31          0          0          0          0          0          0      57.83     220.91       0.00       0.00       2.14     224.72       0.00       0.00    1533.37 
   1562.00       0.85       7246        124         33          0          0          0          0          0          0      58.34     220.65       0.00       0.00       2.12     224.43       0.00       0.00    1533.84 
   1562.50       0.91       7812        132         36          0          0          0          0          0          0      59.04     217.13       0.00       0.00       2.11     220.81       0.00       0.00    1534.32 
   1563.00       1.09       8913        144         42         10          0          0          0          0          0      61.74     214.45     888.75       0.00       2.15     175.56       0.24       0.00    1534.81 
   1563.50       1.33      11143        185         57         13          0          0          0          0          0      60.08     197.05     832.18       0.00       2.24     161.98       0.24       0.00    1535.29 
   1564.00       1.49      12095        201         63         16          0          0          0          0          0      60.30     193.18     768.40       0.00       2.25     156.93       0.25       0.00    1535.78 
   1564.50       1.50      12424        229         65         18          0          0          0          0          0      54.27     192.46     690.41       0.00       2.45     153.28       0.28       0.00    1536.26 
   1565.00       1.36      11815        189         60         15          0          0          0          0          0      62.41     196.65     773.39       0.00       2.19     159.30       0.25       0.00    1536.74 
   1565.50       1.00       8680        135         43         11          0          0          0          0          0      64.27     201.46     812.15       0.00       2.13     163.93       0.25       0.00    1537.23 
   1566.00       0.92       7656        162         39          0          0          0          0          0          0      47.24     195.59       0.00       0.00       2.56     199.73       0.00       0.00    1537.71 
   1566.50       0.89       7682        139         37          0          0          0          0          0          0      55.22     207.09       0.00       0.00       2.24     210.84       0.00       0.00    1538.20 
   1567.00       0.89       7703        138         36         10          0          0          0          0          0      55.92     211.22     743.40       0.00       2.34     167.42       0.28       0.00    1538.68 
   1567.50       0.89       7741        135         36          0          0          0          0          0          0      57.25     212.31       0.00       0.00       2.17     216.02       0.00       0.00    1539.17 
   1568.00       0.89       7600        135         37         11          0          0          0          0          0      56.25     207.42     693.59       0.00       2.35     162.51       0.30       0.00    1539.65 
   1568.50       0.88       7617        133         38         11          0          0          0          0          0      57.37     199.43     712.55       0.00       2.33     158.53       0.28       0.00    1540.13 
   1569.00       0.89       7682        135         38          0          0          0          0          0          0      56.78     201.13       0.00       0.00       2.21     204.67       0.00       0.00    1540.63 
   1569.50       0.89       7692        135         37         10          0          0          0          0          0      56.86     210.28     740.58       0.00       2.31     166.66       0.28       0.00    1541.11 
   1570.00       0.92       7996        137         37         10          0          0          0          0          0      58.43     216.11     769.83       0.00       2.25     171.63       0.28       0.00    1541.59 
   1570.50       0.91       7996        137         38         11          0          0          0          0          0      58.43     210.08     723.90       0.00       2.27     165.61       0.29       0.00    1542.08 
   1571.00       0.89       7758        131         34          0          0          0          0          0          0      59.40     225.62       0.00       0.00       2.08     229.42       0.00       0.00    1542.56 
   1571.50       0.94       8307        125         38          0          0          0          0          0          0      66.65     221.29       0.00       0.00       1.91     224.61       0.00       0.00    1543.04 
   1572.00       0.98       8489        133         40         11          0          0          0          0          0      63.89     211.70     758.32       0.00       2.12     168.09       0.28       0.00    1543.53 
   1572.50       1.00       8624        128         40         11          0          0          0          0          0      67.14     215.06     779.29       0.00       2.04     171.06       0.28       0.00    1544.01 
   1573.00       1.04       9029        152         42         13          0          0          0          0          0      59.34     213.85     704.12       0.00       2.24     166.79       0.30       0.00    1544.51 
   1573.50       1.13       9598        164         44         11          0          0          0          0          0      58.41     219.71     849.86       0.00       2.23     177.57       0.26       0.00    1544.99 
   1574.00       1.22      10180        175         45         13          0          0          0          0          0      58.12     224.80     757.78       0.00       2.25     176.35       0.30       0.00    1545.48 
   1574.50       1.33      10765        186         51         14          0          0          0          0          0      57.96     209.56     754.19       0.00       2.28     166.82       0.28       0.00    1545.97 
   1575.00       1.40      11593        200         57         17          0          0          0          0          0      57.94     202.10     685.87       0.00       2.31     158.80       0.29       0.00    1546.44 
   1575.50       1.41      11394        205         54         14          0          0          0          0          0      55.68     211.15     811.19       0.00       2.34     170.55       0.26       0.00    1546.93 
