~VERSION INFORMATION
VERS.    2.0:   CWLS LOG ASCII STANDARD - VERSION 2.0
WRAP.     NO:   ONE LINE PER STEP
~WELL INFORMATION BLOCK
#MNEM.UNIT      DATA                  DESCRIPTION OF MNEMONIC
#----   --------             ---------------
STRT.m  281.00                   :START DEPTH
STOP.m  1577.00                   :STOP DEPTH
STEP.m  0.50                   :STEP VALUE
NULL.  -999.25                   :NULL VALUE
COMP.   TAG OIL                   :COMPANY NAME
WELL.   CHEAL A-10                   :WELL NAME
FLD .   TARANAKI BASIN                   :FIELD NAME
LOC .   PRAMOD KUMAR                   :LOCATION
PROV.   TARANAKI                   :PROVINCE
SRVC.   Geoservices                   :SERVICE COMPANY NAME
DATE.   03-03-2012 03:20:21                   :DATE
UWI .                      :UNIQUE WELL IDENTIFIER
~CURVE INFORMATION
#MNEM.UNIT       API CODE        CURVE DESCRIPTION
#----   -------- ------------------
Tot Depth .m        :Tot Depth
T GAS main .%        :T GAS main
C1  main .ppm        :C1  main
C2  main .ppm        :C2  main
C3  main .ppm        :C3  main
iC4 main .ppm        :iC4 main
nC4 main .ppm        :nC4 main
iC5 main .ppm        :iC5 main
nC5 main .ppm        :nC5 main
H2S .ppm        :H2S
C02 .ppm        :C02
C1/C2 .....        :C1/C2
C1/C3 .....        :C1/C3
C1/C4 .....        :C1/C4
C1/C5 .....        :C1/C5
GAS WET .....        :GAS WET
L-H RATIO .....        :L-H RATIO
OCQ .....        :OCQ
GRA .....        :GRA
TVD Depth .m        :TVD Depth
#
#-----------------------------------------------------------
# Tot Depth (m)   T GAS main (%)   C1  main (ppm)   C2  main (ppm)   C3  main (ppm)   iC4 main (ppm)   nC4 main (ppm)   iC5 main (ppm)   nC5 main (ppm)   H2S (ppm)   C02 (ppm)   C1/C2 (....)   C1/C3 (....)   C1/C4 (....)   C1/C5 (....)   GAS WET (....)   L-H RATIO (....)   OCQ (....)   GRA (....)   TVD Depth (m)
#-----------------------------------------------------------
~A
# ...
   1039.50       1.32      11490          0          0          0          0          0          0          0          0       0.00       0.00       0.00       0.00       0.00       0.00       0.00       0.00    1039.31 
   1040.00       1.37      11591          0          0          0          0          0          0          0          0       0.00       0.00       0.00       0.00       0.00       0.00       0.00       0.00    1039.80 
   1040.50       1.45      12491          0          0          0          0          0          0          0          0       0.00       0.00       0.00       0.00       0.00       0.00       0.00       0.00    1040.30 
   1041.00       1.51      12972          0          0          0          0          0          0          0          0       0.00       0.00       0.00       0.00       0.00       0.00       0.00       0.00    1040.80 
   1041.50       1.53      13076          0          0          0          0          0          0          0          0       0.00       0.00       0.00       0.00       0.00       0.00       0.00       0.00    1041.29 
   1042.00       1.56      13195          0          0          0          0          0          0          0          0       0.00       0.00       0.00       0.00       0.00       0.00       0.00       0.00    1041.79 
   1042.50       1.59      13576          0          0          0          0          0          0          0          0       0.00       0.00       0.00       0.00       0.00       0.00       0.00       0.00    1042.29 
   1043.00       1.58      13302          0          0          0          0          0          0          0          0       0.00       0.00       0.00       0.00       0.00       0.00       0.00       0.00    1042.78 
   1043.50       1.52      13302          0          0          0          0          0          0          0          0       0.00       0.00       0.00       0.00       0.00       0.00       0.00       0.00    1043.28 
   1044.00       1.35      11418          0          0          0          0          0          0          0          0       0.00       0.00       0.00       0.00       0.00       0.00       0.00       0.00    1043.78 
   1044.50       1.26      10952          0          0          0          0          0          0          0          0       0.00       0.00       0.00       0.00       0.00       0.00       0.00       0.00    1044.27 
   1045.00       1.58      11676          0          0          0          0          0          0          0          0       0.00       0.00       0.00       0.00       0.00       0.00       0.00       0.00    1044.77 
   1045.50       1.62      13826          0          0          0          0          0          0          0          0       0.00       0.00       0.00       0.00       0.00       0.00       0.00       0.00    1045.27 
   1046.00       1.03       8903          0          0          0          0          0          0          0          0       0.00       0.00       0.00       0.00       0.00       0.00       0.00       0.00    1045.76 
   1046.50       1.20      10584          0          0          0          0          0          0          0          0       0.00       0.00       0.00       0.00       0.00       0.00       0.00       0.00    1046.26 
   1047.00       1.20      10584          0          0          0          0          0          0          0          0       0.00       0.00       0.00       0.00       0.00       0.00       0.00       0.00    1046.76 
   1047.50       1.16       9784          0          0          0          0          0          0          0          0       0.00       0.00       0.00       0.00       0.00       0.00       0.00       0.00    1047.26 
   1048.00       1.02       9784          0          0          0          0          0          0          0          0       0.00       0.00       0.00       0.00       0.00       0.00       0.00       0.00    1047.75 
   1048.50       0.89       7943          0          0          0          0          0          0          0          0       0.00       0.00       0.00       0.00       0.00       0.00       0.00       0.00    1048.25 
   1049.00       0.90       8086          0          0          0          0          0          0          0          0       0.00       0.00       0.00       0.00       0.00       0.00       0.00       0.00    1048.75 
   1049.50       0.90       7846          0          0          0          0          0          0          0          0       0.00       0.00       0.00       0.00       0.00       0.00       0.00       0.00    1049.24 
   1050.00       0.92       8302          0          0          0          0          0          0          0          0       0.00       0.00       0.00       0.00       0.00       0.00       0.00       0.00    1049.74 
   1050.50       0.92       8302          0          0          0          0          0          0          0          0       0.00       0.00       0.00       0.00       0.00       0.00       0.00       0.00    1050.24 
   1051.00       0.95       8360          0          0          0          0          0          0          0          0       0.00       0.00       0.00       0.00       0.00       0.00       0.00       0.00    1050.73 
   1051.50       1.01       9018          0          0          0          0          0          0          0          0       0.00       0.00       0.00       0.00       0.00       0.00       0.00       0.00    1051.23 
   1052.00       1.01       8893          0          0          0          0          0          0          0          0       0.00       0.00       0.00       0.00       0.00       0.00       0.00       0.00    1051.73 
   1052.50       0.97       8893          0          0          0          0          0          0          0          0       0.00       0.00       0.00       0.00       0.00       0.00       0.00       0.00    1052.22 
   1053.00       0.94       8408          0          0          0          0          0          0          0          0       0.00       0.00       0.00       0.00       0.00       0.00       0.00       0.00    1052.72 
   1053.50       0.87       7782          0          0          0          0          0          0          0          0       0.00       0.00       0.00       0.00       0.00       0.00       0.00       0.00    1053.22 
   1054.00       0.45       3935          0          0          0          0          0          0          0          0       0.00       0.00       0.00       0.00       0.00       0.00       0.00       0.00    1053.72 
   1054.50       0.51       4383          0          0          0          0          0          0          0          0       0.00       0.00       0.00       0.00       0.00       0.00       0.00       0.00    1054.21 
   1055.00       0.54       4776          0          0          0          0          0          0          0          0       0.00       0.00       0.00       0.00       0.00       0.00       0.00       0.00    1054.71 
   1055.50       0.49       4304          0          0          0          0          0          0          0          0       0.00       0.00       0.00       0.00       0.00       0.00       0.00       0.00    1055.21 
   1056.00       0.48       4337          0          0          0          0          0          0          0          0       0.00       0.00       0.00       0.00       0.00       0.00       0.00       0.00    1055.70 
   1056.50       0.49       4434          0          0          0          0          0          0          0          0       0.00       0.00       0.00       0.00       0.00       0.00       0.00       0.00    1056.20 
   1057.00       0.50       4431          0          0          0          0          0          0          0          0       0.00       0.00       0.00       0.00       0.00       0.00       0.00       0.00    1056.70 
   1057.50       0.49       4308          0          0          0          0          0          0          0          0       0.00       0.00       0.00       0.00       0.00       0.00       0.00       0.00    1057.19 
