~VERSION INFORMATION
VERS.    2.0:   CWLS LOG ASCII STANDARD - VERSION 2.0
WRAP.     NO:   ONE LINE PER STEP
~WELL INFORMATION BLOCK
#MNEM.UNIT      DATA                  DESCRIPTION OF MNEMONIC
#----   --------             ---------------
STRT.m  281.00                   :START DEPTH
STOP.m  1577.00                   :STOP DEPTH
STEP.m  0.50                   :STEP VALUE
NULL.  -999.25                   :NULL VALUE
COMP.   TAG OIL                   :COMPANY NAME
WELL.   CHEAL A-10                   :WELL NAME
FLD .   TARANAKI BASIN                   :FIELD NAME
LOC .   PRAMOD KUMAR                   :LOCATION
PROV.   TARANAKI                   :PROVINCE
SRVC.   Geoservices                   :SERVICE COMPANY NAME
DATE.   03-03-2012 03:20:21                   :DATE
UWI .                      :UNIQUE WELL IDENTIFIER
~CURVE INFORMATION
#MNEM.UNIT       API CODE        CURVE DESCRIPTION
#----   -------- ------------------
Tot Depth .m        :Tot Depth
T GAS main .%        :T GAS main
C1  main .ppm        :C1  main
C2  main .ppm        :C2  main
C3  main .ppm        :C3  main
iC4 main .ppm        :iC4 main
nC4 main .ppm        :nC4 main
iC5 main .ppm        :iC5 main
nC5 main .ppm        :nC5 main
H2S .ppm        :H2S
C02 .ppm        :C02
C1/C2 .....        :C1/C2
C1/C3 .....        :C1/C3
C1/C4 .....        :C1/C4
C1/C5 .....        :C1/C5
GAS WET .....        :GAS WET
L-H RATIO .....        :L-H RATIO
OCQ .....        :OCQ
GRA .....        :GRA
TVD Depth .m        :TVD Depth
#
#-----------------------------------------------------------
# Tot Depth (m)   T GAS main (%)   C1  main (ppm)   C2  main (ppm)   C3  main (ppm)   iC4 main (ppm)   nC4 main (ppm)   iC5 main (ppm)   nC5 main (ppm)   H2S (ppm)   C02 (ppm)   C1/C2 (....)   C1/C3 (....)   C1/C4 (....)   C1/C5 (....)   GAS WET (....)   L-H RATIO (....)   OCQ (....)   GRA (....)   TVD Depth (m)
#-----------------------------------------------------------
~A
# ...
   1298.50       0.63       6113          0          0          0          0          0          0          0          0       0.00       0.00       0.00       0.00       0.00       0.00       0.00       0.00    1289.18 
   1299.00       0.60       5536          0          0          0          0          0          0          0          0       0.00       0.00       0.00       0.00       0.00       0.00       0.00       0.00    1289.64 
   1299.50       0.57       5312          0          0          0          0          0          0          0          0       0.00       0.00       0.00       0.00       0.00       0.00       0.00       0.00    1290.10 
   1300.00       0.63       5613          0          0          0          0          0          0          0          0       0.00       0.00       0.00       0.00       0.00       0.00       0.00       0.00    1290.56 
   1300.50       0.71       6390          0          0          0          0          0          0          0          0       0.00       0.00       0.00       0.00       0.00       0.00       0.00       0.00    1291.03 
   1301.00       0.73       6724          0          0          0          0          0          0          0          0       0.00       0.00       0.00       0.00       0.00       0.00       0.00       0.00    1291.49 
   1301.50       0.64       3057          0          0          0          0          0          0          0          0       0.00       0.00       0.00       0.00       0.00       0.00       0.00       0.00    1291.95 
   1302.00       0.25       2213          0          0          0          0          0          0          0          0       0.00       0.00       0.00       0.00       0.00       0.00       0.00       0.00    1292.41 
   1302.50       0.57       5322          0          0          0          0          0          0          0          0       0.00       0.00       0.00       0.00       0.00       0.00       0.00       0.00    1292.87 
   1303.00       0.57       5400          0          0          0          0          0          0          0          0       0.00       0.00       0.00       0.00       0.00       0.00       0.00       0.00    1293.34 
   1303.50       0.52       4968          0          0          0          0          0          0          0          0       0.00       0.00       0.00       0.00       0.00       0.00       0.00       0.00    1293.80 
   1304.00       0.58       5570          0          0          0          0          0          0          0          0       0.00       0.00       0.00       0.00       0.00       0.00       0.00       0.00    1294.26 
   1304.50       0.64       5998          0          0          0          0          0          0          0          0       0.00       0.00       0.00       0.00       0.00       0.00       0.00       0.00    1294.72 
   1305.00       0.69       6578          0          0          0          0          0          0          0          0       0.00       0.00       0.00       0.00       0.00       0.00       0.00       0.00    1295.18 
   1305.50       0.71       6740          0          0          0          0          0          0          0          0       0.00       0.00       0.00       0.00       0.00       0.00       0.00       0.00    1295.64 
   1306.00       0.54       5056          0          0          0          0          0          0          0          0       0.00       0.00       0.00       0.00       0.00       0.00       0.00       0.00    1296.11 
   1306.50       0.70       6472          0          0          0          0          0          0          0          0       0.00       0.00       0.00       0.00       0.00       0.00       0.00       0.00    1296.57 
   1307.00       0.82       7674          0          0          0          0          0          0          0          0       0.00       0.00       0.00       0.00       0.00       0.00       0.00       0.00    1297.03 
   1307.50       0.89       8244          0          0          0          0          0          0          0          0       0.00       0.00       0.00       0.00       0.00       0.00       0.00       0.00    1297.49 
   1308.00       0.94       8831          0          0          0          0          0          0          0          0       0.00       0.00       0.00       0.00       0.00       0.00       0.00       0.00    1297.95 
   1308.50       0.99       9067          0          0          0          0          0          0          0          0       0.00       0.00       0.00       0.00       0.00       0.00       0.00       0.00    1298.42 
   1309.00       0.98       9067          0          0          0          0          0          0          0          0       0.00       0.00       0.00       0.00       0.00       0.00       0.00       0.00    1298.88 
   1309.50       0.96       8844          0          0          0          0          0          0          0          0       0.00       0.00       0.00       0.00       0.00       0.00       0.00       0.00    1299.34 
   1310.00       1.07       9708          0          0          0          0          0          0          0          0       0.00       0.00       0.00       0.00       0.00       0.00       0.00       0.00    1299.80 
   1310.50       1.12      10101          0          0          0          0          0          0          0          0       0.00       0.00       0.00       0.00       0.00       0.00       0.00       0.00    1300.26 
   1311.00       1.17      10412          0          0          0          0          0          0          0          0       0.00       0.00       0.00       0.00       0.00       0.00       0.00       0.00    1300.71 
   1311.50       1.20      10756          0          0          0          0          0          0          0          0       0.00       0.00       0.00       0.00       0.00       0.00       0.00       0.00    1301.17 
   1312.00       1.18      10561          0          0          0          0          0          0          0          0       0.00       0.00       0.00       0.00       0.00       0.00       0.00       0.00    1301.63 
   1312.50       1.16      10561          0          0          0          0          0          0          0          0       0.00       0.00       0.00       0.00       0.00       0.00       0.00       0.00    1302.08 
   1313.00       0.77       7279          0          0          0          0          0          0          0          0       0.00       0.00       0.00       0.00       0.00       0.00       0.00       0.00    1302.54 
   1313.50       0.62       5491          0          0          0          0          0          0          0          0       0.00       0.00       0.00       0.00       0.00       0.00       0.00       0.00    1302.99 
   1314.00       0.60       5491          0          0          0          0          0          0          0          0       0.00       0.00       0.00       0.00       0.00       0.00       0.00       0.00    1303.45 
   1314.50       0.55       5251          0          0          0          0          0          0          0          0       0.00       0.00       0.00       0.00       0.00       0.00       0.00       0.00    1303.91 
   1315.00       0.44       3950          0          0          0          0          0          0          0          0       0.00       0.00       0.00       0.00       0.00       0.00       0.00       0.00    1304.36 
   1315.50       0.40       2834          0          0          0          0          0          0          0          0       0.00       0.00       0.00       0.00       0.00       0.00       0.00       0.00    1304.82 
   1316.00       0.46       4145          0          0          0          0          0          0          0          0       0.00       0.00       0.00       0.00       0.00       0.00       0.00       0.00    1305.28 
   1316.50       0.42       4145          0          0          0          0          0          0          0          0       0.00       0.00       0.00       0.00       0.00       0.00       0.00       0.00    1305.73 
