~VERSION INFORMATION
VERS.    2.0:   CWLS LOG ASCII STANDARD - VERSION 2.0
WRAP.     NO:   ONE LINE PER STEP
~WELL INFORMATION BLOCK
#MNEM.UNIT      DATA                  DESCRIPTION OF MNEMONIC
#----   --------             ---------------
STRT.m  281.00                   :START DEPTH
STOP.m  1577.00                   :STOP DEPTH
STEP.m  0.50                   :STEP VALUE
NULL.  -999.25                   :NULL VALUE
COMP.   TAG OIL                   :COMPANY NAME
WELL.   CHEAL A-10                   :WELL NAME
FLD .   TARANAKI BASIN                   :FIELD NAME
LOC .   PRAMOD KUMAR                   :LOCATION
PROV.   TARANAKI                   :PROVINCE
SRVC.   Geoservices                   :SERVICE COMPANY NAME
DATE.   03-03-2012 03:20:21                   :DATE
UWI .                      :UNIQUE WELL IDENTIFIER
~CURVE INFORMATION
#MNEM.UNIT       API CODE        CURVE DESCRIPTION
#----   -------- ------------------
Tot Depth .m        :Tot Depth
T GAS main .%        :T GAS main
C1  main .ppm        :C1  main
C2  main .ppm        :C2  main
C3  main .ppm        :C3  main
iC4 main .ppm        :iC4 main
nC4 main .ppm        :nC4 main
iC5 main .ppm        :iC5 main
nC5 main .ppm        :nC5 main
H2S .ppm        :H2S
C02 .ppm        :C02
C1/C2 .....        :C1/C2
C1/C3 .....        :C1/C3
C1/C4 .....        :C1/C4
C1/C5 .....        :C1/C5
GAS WET .....        :GAS WET
L-H RATIO .....        :L-H RATIO
OCQ .....        :OCQ
GRA .....        :GRA
TVD Depth .m        :TVD Depth
#
#-----------------------------------------------------------
# Tot Depth (m)   T GAS main (%)   C1  main (ppm)   C2  main (ppm)   C3  main (ppm)   iC4 main (ppm)   nC4 main (ppm)   iC5 main (ppm)   nC5 main (ppm)   H2S (ppm)   C02 (ppm)   C1/C2 (....)   C1/C3 (....)   C1/C4 (....)   C1/C5 (....)   GAS WET (....)   L-H RATIO (....)   OCQ (....)   GRA (....)   TVD Depth (m)
#-----------------------------------------------------------
~A
# ...
   1465.00       0.58       4798        111         15          0          0          0          0          0          0      43.21     318.10       0.00       0.00       2.56     325.45       0.00       0.00    1441.66 
   1465.50       0.54       2867         73          0          0          0          0          0          0          0      39.36       0.00       0.00       0.00       2.48       0.00       0.00       0.00    1442.12 
   1466.00       0.42       3450         87         12          0          0          0          0          0          0      39.72     281.51       0.00       0.00       2.79     288.58       0.00       0.00    1442.59 
   1466.50       0.46       3729         95         13          0          0          0          0          0          0      39.19     282.76       0.00       0.00       2.82     289.97       0.00       0.00    1443.06 
   1467.00       0.95       8153        167         17         18          0          0          0          0          0      48.81     492.72     461.79       0.00       2.41     243.26       1.07       0.00    1443.53 
   1467.50       1.09       9139        188         23         20          0         10          0          0          0      48.62     399.81     452.50     895.12       2.68     146.94       1.33       0.00    1444.00 
   1468.00       1.00       8456        171         17         16          0          0          0          0          0      49.51     486.34     538.39       0.00       2.35     260.68       0.90       0.00    1444.47 
   1468.50       0.94       8456        171         17         16          0          0          0          0          0      49.51     486.34     538.39       0.00       2.35     260.68       0.90       0.00    1444.94 
   1469.00       0.79       6259        136         21         12          0          0          0          0          0      45.93     302.40     502.64       0.00       2.64     192.92       0.60       0.00    1445.40 
   1469.50       0.94       7942        160         16         13          0          0          0          0          0      49.65     487.76     634.16       0.00       2.32     281.25       0.77       0.00    1445.87 
   1470.00       1.04       8751        173         20         15          0          0          0          0          0      50.52     436.45     595.64       0.00       2.32     256.87       0.73       0.00    1446.34 
   1470.50       1.05       8888        175         20         15          0          0          0          0          0      50.81     444.50     604.93       0.00       2.30     261.27       0.73       0.00    1446.81 
   1471.00       0.94       7461        149         16         12          0          0          0          0          0      50.21     460.38     617.76       0.00       2.32     269.04       0.75       0.00    1447.28 
   1471.50       0.76       5892        115         10          0          0          0          0          0          0      51.12     588.33       0.00       0.00       2.08     599.81       0.00       0.00    1447.75 
   1472.00       0.62       4992        120         18          0          0          0          0          0          0      41.50     278.71       0.00       0.00       2.69     285.41       0.00       0.00    1448.22 
   1472.50       0.56       4818         92         19          0          0          0          0          0          0      52.44     258.16       0.00       0.00       2.24     263.07       0.00       0.00    1448.68 
   1473.00       0.51       4457        113         18          0          0          0          0          0          0      39.57     248.65       0.00       0.00       2.85     254.93       0.00       0.00    1449.15 
   1473.50       0.49       4024        103         16          0          0          0          0          0          0      38.96     256.31       0.00       0.00       2.87     262.88       0.00       0.00    1449.62 
   1474.00       0.52       4196         91         16          0          0          0          0          0          0      46.13     259.63       0.00       0.00       2.49     265.25       0.00       0.00    1450.09 
   1474.50       0.47       4196        103         16          0          0          0          0          0          0      40.87     259.63       0.00       0.00       2.75     265.98       0.00       0.00    1450.56 
   1475.00       0.42       3597         98         16          0          0          0          0          0          0      36.85     229.81       0.00       0.00       3.05     236.04       0.00       0.00    1451.03 
   1475.50       0.42       3507         89         16          0          0          0          0          0          0      39.32     224.47       0.00       0.00       2.90     230.18       0.00       0.00    1451.50 
   1476.00       0.35       2685         67         10          0          0          0          0          0          0      39.88     256.32       0.00       0.00       2.82     262.74       0.00       0.00    1451.96 
   1476.50       0.40       3350         84         15          0          0          0          0          0          0      40.10     227.87       0.00       0.00       2.85     233.54       0.00       0.00    1452.43 
   1477.00       0.42       3617         94         16          0          0          0          0          0          0      38.47     232.98       0.00       0.00       2.94     239.03       0.00       0.00    1452.90 
   1477.50       0.45       3821        100         17          0          0          0          0          0          0      38.26     218.45       0.00       0.00       2.98     224.16       0.00       0.00    1453.37 
   1478.00       0.46       3932        102          0          0          0          0          0          0          0      38.70       0.00       0.00       0.00       2.52       0.00       0.00       0.00    1453.84 
   1478.50       0.49       4191        110          0          0          0          0          0          0          0      38.17       0.00       0.00       0.00       2.55       0.00       0.00       0.00    1454.31 
   1479.00       0.51       4414        113         13          0          0          0          0          0          0      39.07       0.00       0.00       0.00       2.77     359.89       0.00       0.00    1454.78 
   1479.50       0.51       4429        113         13          0          0          0          0          0          0      39.21     352.16       0.00       0.00       2.76     361.13       0.00       0.00    1455.24 
   1480.00       0.47       3815         97         16          0          0          0          0          0          0      39.32     234.62       0.00       0.00       2.88     240.58       0.00       0.00    1455.71 
   1480.50       0.32       2776         71         14          0          0          0          0          0          0      39.32     199.28       0.00       0.00       2.96     204.34       0.00       0.00    1456.18 
   1481.00       0.33       2776         73         14          0          0          0          0          0          0      38.01     205.09       0.00       0.00       3.02     210.48       0.00       0.00    1456.65 
   1481.50       0.35       2987         71         16          0          0          0          0          0          0      42.14     186.93       0.00       0.00       2.83     191.36       0.00       0.00    1457.12 
   1482.00       0.38       3271         79         16          0          0          0          0          0          0      41.21     204.67       0.00       0.00       2.83     209.63       0.00       0.00    1457.59 
   1482.50       0.39       3372         81          0          0          0          0          0          0          0      41.71       0.00       0.00       0.00       2.34       0.00       0.00       0.00    1458.06 
   1483.00       0.38       3207         72         16          0          0          0          0          0          0      44.83       0.00       0.00       0.00       2.65     208.85       0.00       0.00    1458.53 
