~VERSION INFORMATION
VERS.    2.0:   CWLS LOG ASCII STANDARD - VERSION 2.0
WRAP.     NO:   ONE LINE PER STEP
~WELL INFORMATION BLOCK
#MNEM.UNIT      DATA                  DESCRIPTION OF MNEMONIC
#----   --------             ---------------
STRT.m  281.00                   :START DEPTH
STOP.m  1577.00                   :STOP DEPTH
STEP.m  0.50                   :STEP VALUE
NULL.  -999.25                   :NULL VALUE
COMP.   TAG OIL                   :COMPANY NAME
WELL.   CHEAL A-10                   :WELL NAME
FLD .   TARANAKI BASIN                   :FIELD NAME
LOC .   STRATFORD              		 :LOCATION
PROV.   TARANAKI                   :PROVINCE
SRVC.   Geoservices                   :SERVICE COMPANY NAME
DATE.   03-03-2012 15:01:13                   :DATE
UWI .                      :UNIQUE WELL IDENTIFIER
~CURVE INFORMATION
#MNEM.UNIT       API CODE        CURVE DESCRIPTION
#----   -------- ------------------
Bit Depth .m        :Bit Depth
Tot Depth .m        :Tot Depth
TVD Depth .m        :TVD Depth
WOH .klbs        :WOH
WOB .klbs        :WOB
T Revol .krev        :T Revol
RPM .rpm        :RPM
TORQUE .lb*ft        :TORQUE
SPP .psi        :SPP
ROP m/hr .m/h        :ROP m/hr
ROP ins .m/h        :ROP ins
ROP .mn/m        :ROP
FLWpmps .gpm        :FLWpmps
ACTIVE .bbl        :ACTIVE
BitRun .m        :BitRun
BitTim .h        :BitTim
PumpTime .h        :PumpTime
TMP IN .degC        :TMP IN
TMP OUT .degC        :TMP OUT
#
#-----------------------------------------------------------
# Bit Depth (m)   Tot Depth (m)   TVD Depth (m)   WOH (klbs)   WOB (klbs)   T Revol (krev)   RPM (rpm)   TORQUE (lb*ft)   SPP (psi)   ROP m/hr (m/h)   ROP ins (m/h)   ROP (mn/m)   FLWpmps (gpm)   ACTIVE (bbl)   BitRun (m)   BitTim (h)   PumpTime (h)   TMP IN (degC)   TMP OUT (degC)
#-----------------------------------------------------------
~A
# ...
    963.50     963.50     963.46       60.2       14.2        170        112       1184       1304      29.49      29.02       2.03        401      346.9     691.26      25.39      39.89       34.0       38.3 
    964.00     964.00     963.96       60.1       14.3        170        112       1180       1302      28.55      28.59       2.10        401      346.8     691.76      25.41      39.90       34.0       38.3 
    964.50     964.50     964.46       60.2       14.2        170        112       1185       1305      28.85      28.41       2.08        401      389.9     692.26      25.43      39.92       34.0       38.3 
    965.00     965.00     964.96       60.0       14.3        170        112       1184       1306      29.80      28.62       2.01        401      427.7     692.78      25.44      39.94       34.0       38.3 
    965.50     965.50     965.46       60.5       13.8        170        112       1179       1305      29.69      29.20       2.02        401      427.6     693.26      25.46      39.95       34.0       38.3 
    966.00     966.00     965.96       67.7        6.6        171        113       1152       1241       9.54      18.02       6.29        402      426.3     693.76      25.51      40.06       34.0       38.3 
    966.50     966.50     966.46       60.3       14.0        171        112          0       1285      20.27      16.56       2.96        401      424.8     694.29      25.54      40.08       34.0       38.3 
    967.00     967.00     966.96       59.4       14.9        171        112          0       1294      20.06      20.48       2.99        402      426.0     694.76      25.56      40.11       34.0       38.3 
    967.50     967.50     967.46       58.7       15.7        171        113          0       1300      19.69      20.39       3.05        402      425.3     695.26      25.59      40.13       34.0       38.4 
    968.00     968.00     967.96       59.3       15.1        171        113          0       1300      20.92      18.84       2.87        402      424.6     695.77      25.61      40.16       34.0       38.3 
    968.50     968.50     968.46       59.5       14.8        171        113          0       1298      19.87      20.17       3.02        402      424.6     696.26      25.64      40.18       34.0       38.4 
    969.00     969.00     968.96       58.9       15.5        172        113          0       1301      21.05      20.76       2.85        402      424.2     696.76      25.66      40.20       34.0       38.3 
    969.50     969.50     969.46       64.3       10.1        172        113          0       1265      12.89      17.51       4.66        402      422.8     697.26      25.70      40.27       34.0       38.3 
    970.00     970.00     969.96       63.6       10.8        172        113          0       1282      29.56      16.93       2.03        402      416.3     697.77      25.72      40.29       34.0       38.3 
    970.50     970.50     970.46       60.6       13.7        172        113       1294       1305      30.51      29.20       1.97        402      412.4     698.28      25.73      40.31       34.0       38.2 
    971.00     971.00     970.96       62.1       12.3        172        113       1264       1298      34.56      31.91       1.74        402      409.9     698.78      25.75      40.32       34.0       38.2 
    971.50     971.50     971.46       60.5       13.8        172        113       1275       1306      30.74      33.23       1.95        402      404.2     699.27      25.76      40.34       34.0       38.2 
    972.00     972.00     971.96       60.6       13.7        172        113       1259       1301      31.30      30.53       1.92        402      386.2     699.76      25.78      40.35       34.0       38.2 
    972.50     972.50     972.46       60.1       14.2        173        113       1252       1308      28.65      29.90       2.09        402      380.4     700.27      25.80      40.37       34.0       38.2 
    973.00     973.00     972.96       60.1       14.3        173        113       1256       1310      27.91      27.68       2.15        402      381.2     700.77      25.82      40.39       34.0       38.2 
    973.50     973.50     973.46       60.2       14.1        173        113       1263       1312      29.72      28.64       2.02        402      381.3     701.26      25.83      40.41       34.0       38.2 
    974.00     974.00     973.96       60.0       14.4        173        113       1255       1311      27.56      27.79       2.18        402      380.8     701.77      25.85      40.42       34.0       38.2 
    974.50     974.50     974.46       60.5       13.9        173        113       1302       1312      30.27      28.39       1.98        402      381.2     702.27      25.87      40.44       34.0       38.1 
    975.00     975.00     974.96       60.5       13.9        173        113       1343       1313      29.78      30.44       2.02        402      380.5     702.78      25.88      40.46       34.0       38.1 
    975.50     975.50     975.46       61.1       13.3        173        112       1326       1307      35.72      29.53       1.68        402      380.3     702.97      25.89      40.46       34.0       38.2 
    976.00     976.00     975.96       63.5       10.9        173        113          0       1287      13.86      23.60       4.33        403      390.7     703.47      25.93      40.69       34.0       38.2 
    976.50     976.50     976.46       57.9       16.4        174        114          0       1334       7.93       7.20       7.57        405      383.3     703.98      25.99      40.76       34.0       38.2 
    977.00     977.00     976.96       63.3       11.0        174        114          0       1317      33.03      18.30       1.82        405      400.1     704.47      26.00      40.77       34.0       38.1 
    977.50     977.50     977.46       62.5       11.9        174        113          0       1319      26.09      29.54       2.30        405      400.5     704.97      26.02      40.79       34.0       38.2 
    978.00     978.00     977.96       64.0       10.4        174        113          0       1309      41.51      29.74       1.45        405      400.1     705.46      26.04      40.80       34.0       38.2 
    978.50     978.50     978.46       62.2       12.2        174        113          0       1320      47.82      38.50       1.25        405      399.3     705.96      26.05      40.81       34.0       38.2 
    979.00     979.00     978.95       63.3       11.1        174        113          0       1312      41.06      41.85       1.46        405      396.2     706.46      26.06      40.83       34.0       38.1 
    979.50     979.50     979.45       68.2        6.1        175        113          0       1278      12.33      23.66       4.87        405      396.6     706.96      26.10      40.89       34.0       38.2 
    980.00     980.00     979.95       63.5       10.9        175        113          0       1321      37.38      24.53       1.61        404      404.9     707.46      26.11      40.90       34.0       38.1 
    980.50     980.50     980.45       60.2       14.1        175        113       1306       1350      30.77      34.94       1.95        404      405.4     707.97      26.13      40.92       34.0       38.1 
    981.00     981.00     980.95       61.0       13.3        175        113       1253       1336      35.30      31.85       1.70        404      405.5     708.46      26.14      40.93       34.0       38.1 
    981.50     981.50     981.45       63.3       11.1        175        113       1194       1319      31.86      32.97       1.88        404      405.1     708.96      26.16      40.95       34.0       38.1 
    982.00     982.00     981.95       63.0       11.3        175        113       1175       1318      32.35      31.70       1.85        404      405.1     709.46      26.17      40.96       34.0       38.2 
    982.50     982.50     982.45       61.3       13.0        175        113       1188       1332      32.44      32.63       1.85        404      404.9     709.99      26.19      40.98       34.0       38.2 
