~VERSION INFORMATION
VERS.    2.0:   CWLS LOG ASCII STANDARD - VERSION 2.0
WRAP.     NO:   ONE LINE PER STEP
~WELL INFORMATION BLOCK
#MNEM.UNIT      DATA                  DESCRIPTION OF MNEMONIC
#----   --------             ---------------
STRT.m  281.00                   :START DEPTH
STOP.m  1577.00                   :STOP DEPTH
STEP.m  0.50                   :STEP VALUE
NULL.  -999.25                   :NULL VALUE
COMP.   TAG OIL                   :COMPANY NAME
WELL.   CHEAL A-10                   :WELL NAME
FLD .   TARANAKI BASIN                   :FIELD NAME
LOC .   PRAMOD KUMAR                   :LOCATION
PROV.   TARANAKI                   :PROVINCE
SRVC.   Geoservices                   :SERVICE COMPANY NAME
DATE.   03-03-2012 03:20:21                   :DATE
UWI .                      :UNIQUE WELL IDENTIFIER
~CURVE INFORMATION
#MNEM.UNIT       API CODE        CURVE DESCRIPTION
#----   -------- ------------------
Tot Depth .m        :Tot Depth
T GAS main .%        :T GAS main
C1  main .ppm        :C1  main
C2  main .ppm        :C2  main
C3  main .ppm        :C3  main
iC4 main .ppm        :iC4 main
nC4 main .ppm        :nC4 main
iC5 main .ppm        :iC5 main
nC5 main .ppm        :nC5 main
H2S .ppm        :H2S
C02 .ppm        :C02
C1/C2 .....        :C1/C2
C1/C3 .....        :C1/C3
C1/C4 .....        :C1/C4
C1/C5 .....        :C1/C5
GAS WET .....        :GAS WET
L-H RATIO .....        :L-H RATIO
OCQ .....        :OCQ
GRA .....        :GRA
TVD Depth .m        :TVD Depth
#
#-----------------------------------------------------------
# Tot Depth (m)   T GAS main (%)   C1  main (ppm)   C2  main (ppm)   C3  main (ppm)   iC4 main (ppm)   nC4 main (ppm)   iC5 main (ppm)   nC5 main (ppm)   H2S (ppm)   C02 (ppm)   C1/C2 (....)   C1/C3 (....)   C1/C4 (....)   C1/C5 (....)   GAS WET (....)   L-H RATIO (....)   OCQ (....)   GRA (....)   TVD Depth (m)
#-----------------------------------------------------------
~A
# ...
    373.50       0.01        159          0          0          0          0          0          0          0          0       0.00       0.00       0.00       0.00       0.00       0.00       0.00       0.00     373.48 
    374.00       0.01        159          0          0          0          0          0          0          0          0       0.00       0.00       0.00       0.00       0.00       0.00       0.00       0.00     373.98 
    374.50       0.02        154          0          0          0          0          0          0          0          0       0.00       0.00       0.00       0.00       0.00       0.00       0.00       0.00     374.48 
    375.00       0.02        158          0          0          0          0          0          0          0          0       0.00       0.00       0.00       0.00       0.00       0.00       0.00       0.00     374.98 
    375.50       0.02        175          0          0          0          0          0          0          0          0       0.00       0.00       0.00       0.00       0.00       0.00       0.00       0.00     375.48 
    376.00       0.02        167          0          0          0          0          0          0          0          0       0.00       0.00       0.00       0.00       0.00       0.00       0.00       0.00     375.98 
    376.50       0.00          0          0          0          0          0          0          0          0          0       0.00       0.00       0.00       0.00       0.00       0.00       0.00       0.00     376.48 
    377.00       0.00          0          0          0          0          0          0          0          0          0       0.00       0.00       0.00       0.00       0.00       0.00       0.00       0.00     376.98 
    377.50       0.00          0          0          0          0          0          0          0          0          0       0.00       0.00       0.00       0.00       0.00       0.00       0.00       0.00     377.48 
    378.00       0.00          0          0          0          0          0          0          0          0          0       0.00       0.00       0.00       0.00       0.00       0.00       0.00       0.00     377.98 
    378.50       0.00          0          0          0          0          0          0          0          0          0       0.00       0.00       0.00       0.00       0.00       0.00       0.00       0.00     378.48 
    379.00       0.02         37          0          0          0          0          0          0          0          0       0.00       0.00       0.00       0.00       0.00       0.00       0.00       0.00     378.98 
    379.50       0.03        148          0          0          0          0          0          0          0          0       0.00       0.00       0.00       0.00       0.00       0.00       0.00       0.00     379.48 
    380.00       0.03        173          0          0          0          0          0          0          0          0       0.00       0.00       0.00       0.00       0.00       0.00       0.00       0.00     379.98 
    380.50       0.03        173          0          0          0          0          0          0          0          0       0.00       0.00       0.00       0.00       0.00       0.00       0.00       0.00     380.48 
    381.00       0.03        171          0          0          0          0          0          0          0          0       0.00       0.00       0.00       0.00       0.00       0.00       0.00       0.00     380.98 
    381.50       0.03        137          0          0          0          0          0          0          0          0       0.00       0.00       0.00       0.00       0.00       0.00       0.00       0.00     381.48 
    382.00       0.03        124          0          0          0          0          0          0          0          0       0.00       0.00       0.00       0.00       0.00       0.00       0.00       0.00     381.98 
    382.50       0.03        124          0          0          0          0          0          0          0          0       0.00       0.00       0.00       0.00       0.00       0.00       0.00       0.00     382.48 
    383.00       0.03        120          0          0          0          0          0          0          0          0       0.00       0.00       0.00       0.00       0.00       0.00       0.00       0.00     382.98 
    383.50       0.03        120          0          0          0          0          0          0          0          0       0.00       0.00       0.00       0.00       0.00       0.00       0.00       0.00     383.48 
    384.00       0.02        112          0          0          0          0          0          0          0          0       0.00       0.00       0.00       0.00       0.00       0.00       0.00       0.00     383.98 
    384.50       0.02        113          0          0          0          0          0          0          0          0       0.00       0.00       0.00       0.00       0.00       0.00       0.00       0.00     384.48 
    385.00       0.02        120          0          0          0          0          0          0          0          0       0.00       0.00       0.00       0.00       0.00       0.00       0.00       0.00     384.98 
    385.50       0.03        163          0          0          0          0          0          0          0          0       0.00       0.00       0.00       0.00       0.00       0.00       0.00       0.00     385.48 
    386.00       0.03        173          0          0          0          0          0          0          0          0       0.00       0.00       0.00       0.00       0.00       0.00       0.00       0.00     385.98 
    386.50       0.03        175          0          0          0          0          0          0          0          0       0.00       0.00       0.00       0.00       0.00       0.00       0.00       0.00     386.48 
    387.00       0.02        154          0          0          0          0          0          0          0          0       0.00       0.00       0.00       0.00       0.00       0.00       0.00       0.00     386.98 
    387.50       0.02        166          0          0          0          0          0          0          0          0       0.00       0.00       0.00       0.00       0.00       0.00       0.00       0.00     387.48 
    388.00       0.02        177          0          0          0          0          0          0          0          0       0.00       0.00       0.00       0.00       0.00       0.00       0.00       0.00     387.98 
    388.50       0.03        185          0          0          0          0          0          0          0          0       0.00       0.00       0.00       0.00       0.00       0.00       0.00       0.00     388.48 
    389.00       0.03        184          0          0          0          0          0          0          0          0       0.00       0.00       0.00       0.00       0.00       0.00       0.00       0.00     388.98 
    389.50       0.02        175          0          0          0          0          0          0          0          0       0.00       0.00       0.00       0.00       0.00       0.00       0.00       0.00     389.48 
    390.00       0.02        168          0          0          0          0          0          0          0          0       0.00       0.00       0.00       0.00       0.00       0.00       0.00       0.00     389.98 
    390.50       0.02        168          0          0          0          0          0          0          0          0       0.00       0.00       0.00       0.00       0.00       0.00       0.00       0.00     390.48 
    391.00       0.02        164          0          0          0          0          0          0          0          0       0.00       0.00       0.00       0.00       0.00       0.00       0.00       0.00     390.98 
    391.50       0.02        164          0          0          0          0          0          0          0          0       0.00       0.00       0.00       0.00       0.00       0.00       0.00       0.00     391.48 
