~VERSION INFORMATION
VERS.    2.0:   CWLS LOG ASCII STANDARD - VERSION 2.0
WRAP.     NO:   ONE LINE PER STEP
~WELL INFORMATION BLOCK
#MNEM.UNIT      DATA                  DESCRIPTION OF MNEMONIC
#----   --------             ---------------
STRT.m  281.00                   :START DEPTH
STOP.m  1577.00                   :STOP DEPTH
STEP.m  0.50                   :STEP VALUE
NULL.  -999.25                   :NULL VALUE
COMP.   TAG OIL                   :COMPANY NAME
WELL.   CHEAL A-10                   :WELL NAME
FLD .   TARANAKI BASIN                   :FIELD NAME
LOC .   STRATFORD              		 :LOCATION
PROV.   TARANAKI                   :PROVINCE
SRVC.   Geoservices                   :SERVICE COMPANY NAME
DATE.   03-03-2012 15:01:13                   :DATE
UWI .                      :UNIQUE WELL IDENTIFIER
~CURVE INFORMATION
#MNEM.UNIT       API CODE        CURVE DESCRIPTION
#----   -------- ------------------
Bit Depth .m        :Bit Depth
Tot Depth .m        :Tot Depth
TVD Depth .m        :TVD Depth
WOH .klbs        :WOH
WOB .klbs        :WOB
T Revol .krev        :T Revol
RPM .rpm        :RPM
TORQUE .lb*ft        :TORQUE
SPP .psi        :SPP
ROP m/hr .m/h        :ROP m/hr
ROP ins .m/h        :ROP ins
ROP .mn/m        :ROP
FLWpmps .gpm        :FLWpmps
ACTIVE .bbl        :ACTIVE
BitRun .m        :BitRun
BitTim .h        :BitTim
PumpTime .h        :PumpTime
TMP IN .degC        :TMP IN
TMP OUT .degC        :TMP OUT
#
#-----------------------------------------------------------
# Bit Depth (m)   Tot Depth (m)   TVD Depth (m)   WOH (klbs)   WOB (klbs)   T Revol (krev)   RPM (rpm)   TORQUE (lb*ft)   SPP (psi)   ROP m/hr (m/h)   ROP ins (m/h)   ROP (mn/m)   FLWpmps (gpm)   ACTIVE (bbl)   BitRun (m)   BitTim (h)   PumpTime (h)   TMP IN (degC)   TMP OUT (degC)
#-----------------------------------------------------------
~A
# ...
    359.00     359.00     358.98       48.9        3.7         21        110       1034        805      44.49      57.31       1.35        393      369.4      78.19       3.80      11.65       24.0       27.3 
    359.50     359.50     359.48       49.9        2.7         21        110        991        797      34.34      43.82       1.75        394      369.1      78.68       3.81      11.67       24.0       26.8 
    360.00     360.00     359.98       50.0        2.5         22        110        963        796      35.70      34.43       1.68        393      368.9      79.18       3.83      11.68       24.0       26.9 
    360.50     360.50     360.48       50.4        2.2         22        110        944        796      34.67      34.53       1.73        393      368.5      79.68       3.84      11.70       24.0       27.9 
    361.00     361.00     360.98       50.1        2.4         22        110        933        798      34.66      34.61       1.73        393      368.4      80.17       3.86      11.71       24.0       27.9 
    361.50     361.50     361.48       50.3        2.2         22        110        924        798      34.99      34.57       1.71        393      368.1      80.68       3.87      11.72       24.0       27.9 
    362.00     362.00     361.98       49.9        2.6         22        110        922        802      35.36      34.75       1.70        393      367.7      81.18       3.88      11.74       24.0       27.9 
    362.50     362.50     362.48       50.1        2.5         22        110        945        800      35.00      34.43       1.71        393      367.8      81.68       3.90      11.75       24.0       28.0 
    363.00     363.00     362.98       50.3        2.3         22        110        935        801      35.68      34.39       1.68        393      367.3      82.18       3.91      11.77       24.0       28.0 
    363.50     363.50     363.48       49.9        2.6         22        110        932        803      36.00      35.26       1.67        393      366.8      82.69       3.93      11.78       24.0       28.0 
    364.00     364.00     363.98       49.4        3.2         22        110        925        804      35.01      35.14       1.71        393      366.2      83.18       3.94      11.79       24.0       28.0 
    364.50     364.50     364.48       49.6        3.0         22        110        912        806      35.33      35.12       1.70        393      365.3      83.69       3.96      11.81       24.0       28.0 
    365.00     365.00     364.98       49.5        3.1         22        110        907        809      36.43      35.19       1.65        393      364.5      84.18       3.97      11.82       24.0       28.0 
    365.50     365.50     365.48       49.7        2.9         23        110        913        806      34.34      35.64       1.75        393      363.8      84.68       3.98      11.84       24.0       28.1 
    366.00     366.00     365.98       48.7        3.9         23        110        936        815      33.84      34.53       1.77        393      363.1      85.18       4.00      11.85       24.0       28.1 
    366.50     366.50     366.48       49.2        3.4         23        110        908        811      31.32      32.07       1.92        393      362.5      85.67       4.01      11.87       24.0       28.1 
    367.00     367.00     366.98       49.4        3.2         23        110        909        812      32.70      32.05       1.83        393      361.8      86.18       4.03      11.88       24.0       28.1 
    367.50     367.50     367.48       49.2        3.4         23        110        916        815      33.94      32.12       1.77        393      361.8      86.69       4.04      11.90       24.0       28.1 
    368.00     368.00     367.98       42.7        9.9         23        110       1020        849      25.87      32.62       2.32        393      360.7      87.18       4.06      11.92       24.0       27.7 
    368.50     368.50     368.48       37.3       15.3         23        110       1154        898      28.58      22.93       2.10        393      360.6      87.67       4.08      11.93       24.0       27.7 
    369.00     369.00     368.98       37.8       14.8         23        113       1166        937      36.98      31.99       1.62        402      360.1      88.18       4.09      11.95       24.0       27.8 
    369.50     369.50     369.48       38.3       14.3         23        113       1165        935      38.06      35.38       1.58        403      359.6      88.69       4.11      11.96       24.0       27.9 
    370.00     370.00     369.98       38.3       14.3         23        113       1137        930      39.87      38.24       1.50        402      359.0      89.17       4.12      11.97       24.0       27.8 
    370.50     370.50     370.48       37.7       14.8         24        113       1156        938      34.18      37.36       1.76        402      358.8      89.69       4.14      11.99       24.0       27.9 
    371.00     371.00     370.98       37.8       14.8         24        113       1142        935      37.28      35.15       1.61        402      358.2      90.20       4.15      12.00       24.0       28.0 
    371.50     371.50     371.48       37.7       14.8         24        113       1126        934      35.14      35.48       1.71        403      357.8      90.67       4.16      12.02       24.0       28.1 
    372.00     372.00     371.98       37.9       14.7         24        113       1121        933      35.62      35.59       1.68        403      357.6      91.17       4.18      12.03       24.0       28.0 
    372.50     372.50     372.48       38.1       14.5         24        113       1120        932      38.18      35.92       1.57        403      357.7      91.67       4.19      12.04       24.0       28.1 
    373.00     373.00     372.98       38.0       14.5         24        113       1137        933      35.93      36.57       1.67        403      357.3      92.18       4.20      12.06       24.0       28.1 
    373.50     373.50     373.48       38.0       14.6         24        113       1142        935      39.16      36.48       1.53        403      357.2      92.67       4.22      12.07       24.0       28.1 
    374.00     374.00     373.98       38.0       14.6         24        113       1139        936      36.24      36.92       1.66        403      356.8      93.18       4.23      12.08       24.0       28.1 
    374.50     374.50     374.48       38.1       14.5         24        113       1131        936      37.29      36.85       1.61        403      357.2      93.69       4.24      12.10       24.0       28.2 
    375.00     375.00     374.98       38.4       14.1         24        113       1148        932      38.95      37.49       1.54        403      356.7      94.45       4.26      12.12       24.0       28.2 
    375.50     375.50     375.48       38.7       13.9         25        113       1176        926      35.67      36.86       1.68        403      356.2      95.36       4.29      12.14       24.0       28.2 
    376.00     376.00     375.98       42.0       10.5         25        110       1059        848      22.48      32.53       2.67        394      359.8      95.86       4.31      12.40       24.0       27.7 
    376.50     376.50     376.48       42.8        9.7         25        108       1126        791      26.37      31.61       2.27        385      362.3      96.36       4.33      12.42       24.0       27.6 
    377.00     377.00     376.98       37.7       14.9         25        109       1267        848      37.67      27.95       1.59        390      361.2      96.85       4.34      12.43       24.0       27.6 
    377.50     377.50     377.48       38.7       13.9         25        113       1200        878      37.67      38.47       1.59        403      360.0      97.35       4.36      12.45       24.0       27.7 
    378.00     378.00     377.98       38.8       13.7         25        112       1206        867      37.78      37.47       1.59        400      358.6      97.86       4.37      12.46       24.0       27.8 
