~VERSION INFORMATION
VERS.    2.0:   CWLS LOG ASCII STANDARD - VERSION 2.0
WRAP.     NO:   ONE LINE PER STEP
~WELL INFORMATION BLOCK
#MNEM.UNIT      DATA                  DESCRIPTION OF MNEMONIC
#----   --------             ---------------
STRT.m  281.00                   :START DEPTH
STOP.m  1577.00                   :STOP DEPTH
STEP.m  0.50                   :STEP VALUE
NULL.  -999.25                   :NULL VALUE
COMP.   TAG OIL                   :COMPANY NAME
WELL.   CHEAL A-10                   :WELL NAME
FLD .   TARANAKI BASIN                   :FIELD NAME
LOC .   STRATFORD              		 :LOCATION
PROV.   TARANAKI                   :PROVINCE
SRVC.   Geoservices                   :SERVICE COMPANY NAME
DATE.   03-03-2012 15:01:13                   :DATE
UWI .                      :UNIQUE WELL IDENTIFIER
~CURVE INFORMATION
#MNEM.UNIT       API CODE        CURVE DESCRIPTION
#----   -------- ------------------
Bit Depth .m        :Bit Depth
Tot Depth .m        :Tot Depth
TVD Depth .m        :TVD Depth
WOH .klbs        :WOH
WOB .klbs        :WOB
T Revol .krev        :T Revol
RPM .rpm        :RPM
TORQUE .lb*ft        :TORQUE
SPP .psi        :SPP
ROP m/hr .m/h        :ROP m/hr
ROP ins .m/h        :ROP ins
ROP .mn/m        :ROP
FLWpmps .gpm        :FLWpmps
ACTIVE .bbl        :ACTIVE
BitRun .m        :BitRun
BitTim .h        :BitTim
PumpTime .h        :PumpTime
TMP IN .degC        :TMP IN
TMP OUT .degC        :TMP OUT
#
#-----------------------------------------------------------
# Bit Depth (m)   Tot Depth (m)   TVD Depth (m)   WOH (klbs)   WOB (klbs)   T Revol (krev)   RPM (rpm)   TORQUE (lb*ft)   SPP (psi)   ROP m/hr (m/h)   ROP ins (m/h)   ROP (mn/m)   FLWpmps (gpm)   ACTIVE (bbl)   BitRun (m)   BitTim (h)   PumpTime (h)   TMP IN (degC)   TMP OUT (degC)
#-----------------------------------------------------------
~A
# ...
   1470.50    1470.50    1446.81       75.8       13.7        367        125       1529       1896      16.57      15.26       3.62        445      328.7    1186.97      51.64      74.74       34.0       41.6 
   1471.00    1471.00    1447.28       74.8       14.7        367        125       1531       1892      19.71      20.39       3.04        445      328.4    1187.46      51.67      74.77       34.0       41.6 
   1471.50    1471.50    1447.75       75.2       14.3        367        125       1519       1895      22.23      20.94       2.70        445      327.8    1187.96      51.69      74.79       34.0       41.6 
   1472.00    1472.00    1448.22       74.7       14.7        368        124       1493       1894      18.62      19.60       3.22        444      327.6    1188.46      51.72      74.82       34.0       41.6 
   1472.50    1472.50    1448.68       74.7       14.7        368        124       1489       1896      17.93      17.61       3.35        444      327.0    1188.96      51.75      74.84       34.0       41.6 
   1473.00    1473.00    1449.15       74.6       14.9        368        124       1469       1892      17.95      17.94       3.34        444      326.7    1189.45      51.77      74.87       34.0       41.6 
   1473.50    1473.50    1449.62       74.8       14.6        368        124       1443       1893      19.12      18.00       3.14        444      326.6    1189.96      51.80      74.90       34.0       41.6 
   1474.00    1474.00    1450.09       74.6       14.8        368        124       1431       1892      18.84      18.82       3.18        444      326.5    1190.47      51.83      74.93       34.0       41.6 
   1474.50    1474.50    1450.56       74.7       14.8        369        124       1433       1891      19.37      19.21       3.10        444      326.0    1190.97      51.85      74.95       34.0       41.7 
   1475.00    1475.00    1451.03       74.6       14.9        369        124       1378       1893      16.93      17.97       3.54        444      325.3    1191.46      51.88      74.98       34.0       41.7 
   1475.50    1475.50    1451.50       74.8       14.6        369        124       1406       1891      20.05      17.96       2.99        444      324.8    1191.96      51.91      75.01       34.0       41.8 
   1476.00    1476.00    1451.96       74.7       14.7        369        124       1378       1889      15.62      16.94       3.84        444      324.8    1192.46      51.94      75.04       34.0       42.1 
   1476.50    1476.50    1452.43       75.7       13.7        370        125       1373       1898      17.66      16.71       3.40        445      324.6    1192.97      51.97      75.07       34.0       42.1 
   1477.00    1477.00    1452.90       75.0       14.4        370        125       1402       1896      18.49      18.32       3.25        445      324.2    1193.46      51.99      75.09       34.0       42.1 
   1477.50    1477.50    1453.37       75.3       14.1        370        124       1415       1894      18.07      17.49       3.32        444      323.7    1193.96      52.02      75.12       34.0       42.2 
   1478.00    1478.00    1453.84       75.0       14.5        370        124       1436       1897      17.59      17.67       3.41        444      323.4    1194.46      52.05      75.15       34.0       42.3 
   1478.50    1478.50    1454.31       74.9       14.6        370        125       1406       1895      18.21      18.08       3.29        445      323.0    1194.96      52.08      75.18       34.0       42.4 
   1479.00    1479.00    1454.78       74.9       14.6        370        125       1487       1898      17.04      17.20       3.52        445      322.5    1195.29      52.10      75.20       34.0       42.5 
   1479.50    1479.50    1455.24       75.6       13.9        371        124       1482       1899      14.95      15.63       4.01        445      322.3    1195.78      52.13      75.23       34.0       42.5 
   1480.00    1480.00    1455.71       76.9       14.7        371        125       1362       1892      13.42      15.45       4.47        445      321.6    1196.28      52.17      75.54       34.0       42.9 
   1480.50    1480.50    1456.18       77.1       17.0        371        126       1432       1919      14.90      17.51       4.03        449      318.0    1196.78      52.20      75.57       34.0       43.1 
   1481.00    1481.00    1456.65       76.9       17.6        372        126       1438       1918      14.64      14.62       4.10        448      316.0    1197.28      52.23      75.61       34.0       43.2 
   1481.50    1481.50    1457.12       76.8       17.7        372        126       1439       1925      14.89      14.89       4.03        449      315.2    1197.78      52.27      75.64       34.0       43.3 
   1482.00    1482.00    1457.59       76.8       17.8        372        126       1441       1932      14.98      14.65       4.01        449      314.6    1198.28      52.30      75.67       34.0       43.3 
   1482.50    1482.50    1458.06       77.0       17.5        372        126       1436       1927      14.88      14.56       4.03        449      314.1    1198.78      52.33      75.71       34.0       43.3 
   1483.00    1483.00    1458.53       77.0       17.5        373        126       1427       1939      13.76      14.37       4.36        449      314.0    1199.28      52.37      75.74       34.0       43.3 
   1483.50    1483.50    1458.99       77.0       17.5        373        126       1427       1939      13.76      14.37       4.36        449      314.0    1199.28      52.37      75.74       34.0       43.4 
   1484.00    1484.00    1459.46       78.5       16.1        373        126       1254       1878       8.99      10.74       6.67        448      312.7    1200.28      52.46      75.92       34.0       43.4 
   1484.50    1484.50    1459.93       75.4       19.2        374        125          0       1878       8.90       8.88       6.74        448      312.0    1200.78      52.52      75.97       34.0       43.5 
   1485.00    1485.00    1460.40       73.3       19.8        374        125          0       1902      11.91      10.79       5.04        448      311.5    1201.28      52.56      76.02       34.0       43.6 
   1485.50    1485.50    1460.87       71.4       19.9        374        125          0       1918      11.96      12.08       5.02        447      311.3    1201.78      52.60      76.06       34.0       43.6 
   1486.00    1486.00    1461.35       71.5       19.9        375        125          0       1914      13.83      12.54       4.34        447      311.1    1202.12      52.62      76.08       34.0       43.7 
   1486.50    1486.50    1461.82       71.5       19.9        375        125          0       1913      13.64      13.99       4.40        447      310.6    1202.62      52.66      76.12       34.0       43.9 
   1487.00    1487.00    1462.29       71.4       20.0        375        125          0       1908      12.96      13.20       4.63        447      310.0    1203.12      52.70      76.16       34.0       44.4 
   1487.50    1487.50    1462.76       71.4       20.0        375        125          0       1908      13.21      12.93       4.54        447      309.7    1203.63      52.74      76.20       34.0       44.9 
   1488.00    1488.00    1463.24       77.1       14.3        376        125          0       1899      11.66      10.22       5.15        447      309.3    1204.13      52.78      76.29       34.0       46.0 
   1488.50    1488.50    1463.71       77.1       14.3        376        125       1422       1923      16.63      17.04       3.61        447      309.1    1204.62      52.81      76.32       34.0       46.4 
   1489.00    1489.00    1464.18       77.2       14.2        376        125       1385       1920      15.48      15.96       3.88        447      308.7    1205.13      52.84      76.35       34.0       46.4 
   1489.50    1489.50    1464.65       77.2       14.2        377        125       1390       1926      16.76      16.01       3.58        447      308.7    1205.63      52.87      76.38       34.0       46.6 
