~VERSION INFORMATION
VERS.    2.0:   CWLS LOG ASCII STANDARD - VERSION 2.0
WRAP.     NO:   ONE LINE PER STEP
~WELL INFORMATION BLOCK
#MNEM.UNIT      DATA                  DESCRIPTION OF MNEMONIC
#----   --------             ---------------
STRT.m  281.00                   :START DEPTH
STOP.m  1577.00                   :STOP DEPTH
STEP.m  0.50                   :STEP VALUE
NULL.  -999.25                   :NULL VALUE
COMP.   TAG OIL                   :COMPANY NAME
WELL.   CHEAL A-10                   :WELL NAME
FLD .   TARANAKI BASIN                   :FIELD NAME
LOC .   STRATFORD              		 :LOCATION
PROV.   TARANAKI                   :PROVINCE
SRVC.   Geoservices                   :SERVICE COMPANY NAME
DATE.   03-03-2012 15:01:13                   :DATE
UWI .                      :UNIQUE WELL IDENTIFIER
~CURVE INFORMATION
#MNEM.UNIT       API CODE        CURVE DESCRIPTION
#----   -------- ------------------
Bit Depth .m        :Bit Depth
Tot Depth .m        :Tot Depth
TVD Depth .m        :TVD Depth
WOH .klbs        :WOH
WOB .klbs        :WOB
T Revol .krev        :T Revol
RPM .rpm        :RPM
TORQUE .lb*ft        :TORQUE
SPP .psi        :SPP
ROP m/hr .m/h        :ROP m/hr
ROP ins .m/h        :ROP ins
ROP .mn/m        :ROP
FLWpmps .gpm        :FLWpmps
ACTIVE .bbl        :ACTIVE
BitRun .m        :BitRun
BitTim .h        :BitTim
PumpTime .h        :PumpTime
TMP IN .degC        :TMP IN
TMP OUT .degC        :TMP OUT
#
#-----------------------------------------------------------
# Bit Depth (m)   Tot Depth (m)   TVD Depth (m)   WOH (klbs)   WOB (klbs)   T Revol (krev)   RPM (rpm)   TORQUE (lb*ft)   SPP (psi)   ROP m/hr (m/h)   ROP ins (m/h)   ROP (mn/m)   FLWpmps (gpm)   ACTIVE (bbl)   BitRun (m)   BitTim (h)   PumpTime (h)   TMP IN (degC)   TMP OUT (degC)
#-----------------------------------------------------------
~A
# ...
    456.50     456.50     456.48       49.1        3.4         43        115       1011        901      34.35      36.41       1.75        412      347.9     178.00       6.99      16.33       24.0       29.7 
    457.00     457.00     456.98       42.8        9.8         43        115       1135        949      36.02      34.57       1.67        412      348.3     178.51       7.00      16.34       24.0       29.7 
    457.50     457.50     457.48       42.5       10.0         43        115       1146        952      34.01      34.92       1.76        412      348.1     179.00       7.01      16.36       24.0       29.8 
    458.00     458.00     457.98       49.1        3.5         44        115       1031        906      37.09      34.17       1.62        412      348.1     179.51       7.03      16.37       24.0       29.8 
    458.50     458.50     458.48       52.6        0.1         44        115        926        871      33.09      34.61       1.81        412      348.3     180.01       7.04      16.39       24.0       29.8 
    459.00     459.00     458.98       52.0        0.5         44        115        952        882      37.19      34.45       1.61        412      348.3     180.50       7.06      16.40       24.0       29.8 
    459.50     459.50     459.48       51.7        0.9         44        115        970        882      33.08      34.62       1.81        412      348.1     181.00       7.07      16.42       24.0       29.8 
    460.00     460.00     459.98       51.7        0.8         44        115        955        881      36.36      34.59       1.65        412      347.9     181.51       7.09      16.43       24.0       29.8 
    460.50     460.50     460.48       52.0        0.9         44        115        943        878      35.36      34.72       1.70        412      347.8     182.00       7.10      16.44       24.0       29.8 
    461.00     461.00     460.98       43.6        9.0         44        115       1107        933      31.62      35.37       1.90        411      347.2     182.49       7.11      16.46       24.0       29.8 
    461.50     461.50     461.48       41.5       11.1         44        115       1154        949      39.56      31.69       1.52        411      346.9     182.99       7.13      16.47       24.0       29.7 
    462.00     462.00     461.98       40.9       11.7         44        115       1229        965      35.69      37.66       1.68        411      346.8     183.49       7.14      16.49       24.0       29.7 
    462.50     462.50     462.48       43.7        8.9         44        115       1152        942      36.00      35.10       1.67        411      346.2     184.00       7.16      16.50       24.0       29.8 
    463.00     463.00     462.98       51.1        1.5         45        115        972        881      33.85      35.75       1.77        412      343.6     184.50       7.17      16.51       24.0       29.8 
    463.50     463.50     463.48       50.8        1.8         45        115        995        883      31.60      33.14       1.90        411      340.0     184.99       7.19      16.53       24.0       29.8 
    464.00     464.00     463.98       50.8        1.8         45        115        974        883      33.64      31.65       1.78        411      340.0     185.49       7.20      16.55       24.0       29.9 
    464.50     464.50     464.48       42.6       10.0         45        115       1095        936      23.79      28.53       2.52        411      342.2     185.99       7.22      16.57       24.0       29.9 
    465.00     465.00     464.98       41.0       11.6         45        115       1160        955      35.18      26.43       1.71        411      343.2     186.51       7.24      16.58       24.0       29.9 
    465.50     465.50     465.48       40.8       11.8         45        115       1198        969      32.77      33.44       1.83        411      343.8     186.99       7.25      16.60       24.0       29.9 
    466.00     466.00     465.98       40.8       11.8         45        115       1190        966      33.61      33.24       1.79        411      344.0     187.50       7.27      16.61       24.0       30.0 
    466.50     466.50     466.48       40.3       12.2         45        115       1153        958      25.59      30.18       2.34        411      344.0     188.00       7.29      16.63       24.0       30.1 
    467.00     467.00     466.98       41.3       11.3         45        115       1140        958      37.53      27.07       1.60        411      343.9     188.49       7.30      16.64       24.0       30.2 
    467.50     467.50     467.48       41.5       11.0         46        115       1132        954      37.09      36.01       1.62        411      343.6     188.99       7.31      16.66       24.0       30.2 
    468.00     468.00     467.98       41.4       11.2         46        115       1124        954      36.55      36.49       1.64        411      343.5     189.50       7.33      16.67       24.0       30.3 
    468.50     468.50     468.48       41.3       11.3         46        115       1127        953      36.65      36.11       1.64        411      343.5     190.01       7.34      16.68       24.0       30.3 
    469.00     469.00     468.98       41.4       11.1         46        115       1125        955      36.00      36.30       1.67        411      343.1     190.79       7.36      16.71       24.0       30.3 
    469.50     469.50     469.48       41.4       11.2         46        115       1107        955      38.32      36.17       1.57        411      343.0     191.28       7.37      16.72       24.0       30.2 
    470.00     470.00     469.98       41.4       11.2         46        115       1107        957      36.34      37.04       1.65        411      343.0     191.78       7.39      16.73       24.0       30.3 
    470.50     470.50     470.48       41.4       11.2         46        115       1104        957      37.73      36.28       1.59        411      342.1     192.29       7.40      16.75       24.0       30.2 
    471.00     471.00     470.98       42.1       10.5         46        115       1079        952      39.17      37.07       1.53        411      342.5     192.81       7.42      16.76       24.0       30.2 
    471.50     471.50     471.48       42.1       10.4         46        115       1082        950      37.31      38.49       1.61        411      342.1     193.29       7.43      16.77       24.0       30.2 
    472.00     472.00     471.98       41.6       10.9         46        115       1113        952      39.87      38.51       1.51        411      342.1     193.79       7.44      16.79       24.0       30.2 
    472.50     472.50     472.48       43.7        8.9         47        113       1107        922      30.01      27.65       2.00        404      343.0     195.31       7.48      17.01       24.0       29.9 
    473.00     473.00     472.98       49.2        4.3         47        113       1027        882      15.04      21.11       3.99        402      340.8     195.80       7.52      17.04       24.0       29.8 
    473.50     473.50     473.48       41.1       11.4         47        112       1193        944      35.46      22.15       1.69        401      339.8     196.29       7.53      17.06       24.0       29.9 
    474.00     474.00     473.98       40.3       12.3         47        112       1217        954      36.54      35.24       1.64        401      339.5     196.80       7.55      17.07       24.0       29.8 
    474.50     474.50     474.48       40.6       11.9         47        112       1224        963      53.93      38.04       1.11        401      338.8     197.28       7.55      17.08       24.0       29.9 
    475.00     475.00     474.98       40.1       12.4         47        112       1190        959      33.70      44.06       1.78        401      338.5     197.78       7.57      17.09       24.0       29.9 
    475.50     475.50     475.48       41.1       11.5         48        112       1231        950      35.29      33.91       1.70        401      338.0     198.32       7.58      17.11       24.0       29.9 
