~VERSION INFORMATION
VERS.    2.0:   CWLS LOG ASCII STANDARD - VERSION 2.0
WRAP.     NO:   ONE LINE PER STEP
~WELL INFORMATION BLOCK
#MNEM.UNIT      DATA                  DESCRIPTION OF MNEMONIC
#----   --------             ---------------
STRT.m  281.00                   :START DEPTH
STOP.m  1577.00                   :STOP DEPTH
STEP.m  0.50                   :STEP VALUE
NULL.  -999.25                   :NULL VALUE
COMP.   TAG OIL                   :COMPANY NAME
WELL.   CHEAL A-10                   :WELL NAME
FLD .   TARANAKI BASIN                   :FIELD NAME
LOC .   STRATFORD              		 :LOCATION
PROV.   TARANAKI                   :PROVINCE
SRVC.   Geoservices                   :SERVICE COMPANY NAME
DATE.   03-03-2012 15:01:13                   :DATE
UWI .                      :UNIQUE WELL IDENTIFIER
~CURVE INFORMATION
#MNEM.UNIT       API CODE        CURVE DESCRIPTION
#----   -------- ------------------
Bit Depth .m        :Bit Depth
Tot Depth .m        :Tot Depth
TVD Depth .m        :TVD Depth
WOH .klbs        :WOH
WOB .klbs        :WOB
T Revol .krev        :T Revol
RPM .rpm        :RPM
TORQUE .lb*ft        :TORQUE
SPP .psi        :SPP
ROP m/hr .m/h        :ROP m/hr
ROP ins .m/h        :ROP ins
ROP .mn/m        :ROP
FLWpmps .gpm        :FLWpmps
ACTIVE .bbl        :ACTIVE
BitRun .m        :BitRun
BitTim .h        :BitTim
PumpTime .h        :PumpTime
TMP IN .degC        :TMP IN
TMP OUT .degC        :TMP OUT
#
#-----------------------------------------------------------
# Bit Depth (m)   Tot Depth (m)   TVD Depth (m)   WOH (klbs)   WOB (klbs)   T Revol (krev)   RPM (rpm)   TORQUE (lb*ft)   SPP (psi)   ROP m/hr (m/h)   ROP ins (m/h)   ROP (mn/m)   FLWpmps (gpm)   ACTIVE (bbl)   BitRun (m)   BitTim (h)   PumpTime (h)   TMP IN (degC)   TMP OUT (degC)
#-----------------------------------------------------------
~A
    281.00     281.00     281.00       46.8        2.0          0         80        586        451      31.84      25.23       1.88        287      420.9       0.06       6.28       6.65       24.0       24.4 
    281.50     281.50     281.50       47.1        1.7          0         80        579        451      13.24      15.97       4.53        287      420.4       0.56       0.04       6.69       24.0       24.4 
    282.00     282.00     282.00       43.5        5.1          0         80        633        473      14.07      18.42       4.26        287      420.1       1.06       0.08       6.72       24.0       24.4 
    282.50     282.50     282.50       42.6        5.4          1         82        643        492       9.64      12.76       6.22        293      420.6       1.56       0.13       6.89       24.0       24.2 
    283.00     283.00     283.01       41.7        6.2          1         86        682        540      12.29      12.26       4.88        308      420.8       2.07       0.17       6.94       24.0       24.5 
    283.50     283.50     283.50       41.7        6.3          1         86        690        542      11.60      11.80       5.17        307      419.7       2.56       0.21       6.98       24.0       24.6 
    284.00     284.00     284.01       41.8        6.1          1         86        682        542      12.91      12.08       4.65        307      419.5       3.07       0.25       7.02       24.0       24.6 
    284.50     284.50     284.51       41.7        6.3          2         86        687        543      12.77      12.56       4.70        306      419.3       3.57       0.29       7.06       24.0       24.7 
    285.00     285.00     285.00       41.7        6.2          2         86        694        544      14.16      13.95       4.24        306      419.2       4.06       0.32       7.09       24.0       24.7 
    285.50     285.50     285.50       41.7        6.2          2         86        686        543      13.39      13.55       4.48        306      419.1       4.46       0.35       7.12       24.0       24.7 
    286.00     286.00     286.00       41.6        6.3          2         86        676        537      12.24      12.09       4.90        306      419.1       4.96       0.39       7.16       24.0       24.7 
    286.50     286.50     286.51       41.5        6.5          2         85        685        541      14.07      13.39       4.26        305      419.0       5.47       0.43       7.20       24.0       24.7 
    287.00     287.00     287.01       41.5        6.5          2         85        674        539      14.16      14.11       4.24        305      418.9       5.87       0.46       7.23       24.0       24.7 
    287.50     287.50     287.51       41.5        6.5          3         85        673        537      14.51      14.48       4.14        305      419.1       6.36       0.49       7.26       24.0       24.6 
    288.00     288.00     288.00       41.5        6.5          3         85        732        536      14.38      13.98       4.17        305      418.9       6.86       0.53       7.30       24.0       24.7 
    288.50     288.50     288.50       41.6        6.4          3         85        958        535      14.51      14.25       4.14        305      419.0       7.36       0.56       7.33       24.0       24.6 
    289.00     289.00     289.01       41.4        6.5          3         85        986        536      15.63      15.14       3.84        305      418.9       7.86       0.59       7.36       24.0       24.7 
    289.50     289.50     289.49       41.5        6.4          3         85        983        537      16.95      16.42       3.54        305      418.8       8.36       0.62       7.39       24.0       24.8 
    290.00     290.00     289.99       41.5        6.4          3         85        978        537      15.91      16.11       3.77        304      418.8       8.86       0.65       7.42       24.0       24.8 
    290.50     290.50     290.49       41.4        6.5          3         85        975        538      17.05      16.44       3.52        304      418.8       9.16       0.67       7.44       24.0       24.9 
    291.00     291.00     290.99       41.5        6.5          4         85        965        539      16.04      16.14       3.74        304      418.8       9.66       0.70       7.47       24.0       24.9 
    291.50     291.50     291.49       41.4        6.5          4         85        959        539      17.27      16.61       3.47        304      418.6      10.16       0.73       7.50       24.0       24.8 
    292.00     292.00     291.99       41.5        6.5          4         85        958        540      18.60      17.56       3.23        304      418.1      10.57       0.75       7.52       24.0       24.8 
    292.50     292.50     292.49       41.5        6.5          4         85        950        539      16.81      17.22       3.57        304      412.7      11.06       0.78       7.55       24.0       24.7 
    293.00     293.00     292.99       41.5        6.4          4         85        956        539      17.46      17.19       3.44        304      404.8      11.56       0.81       7.58       24.0       24.7 
    293.50     293.50     293.49       41.5        6.4          4         85        956        539      17.26      17.08       3.48        304      399.4      12.06       0.84       7.61       24.0       24.8 
    294.00     294.00     293.99       41.5        6.4          5         85        957        538      16.93      16.79       3.54        304      400.2      12.56       0.87       7.64       24.0       24.7 
    294.50     294.50     294.49       41.4        6.5          5         85        948        536      16.63      16.27       3.61        304      401.5      13.06       0.90       7.67       24.0       24.9 
    295.00     295.00     294.99       41.4        6.5          5         85        948        537      17.23      16.98       3.48        304      401.6      13.56       0.93       7.70       24.0       25.0 
    295.50     295.50     295.49       41.5        6.4          5         85        948        536      16.95      17.09       3.54        304      402.4      14.06       0.96       7.73       24.0       25.1 
    296.00     296.00     295.99       41.5        6.5          5         85        949        535      16.04      16.15       3.74        304      402.8      14.46       0.98       7.75       24.0       25.1 
    296.50     296.50     296.49       41.5        6.4          5         85       1013        534      17.86      16.68       3.36        304      402.6      14.98       1.01       7.78       24.0       24.9 
    297.00     297.00     296.99       41.4        6.5          5         85       1021        534      17.14      17.40       3.50        304      402.6      15.47       1.04       7.81       24.0       24.9 
    297.50     297.50     297.49       41.4        6.5          6         85        995        533      16.80      16.69       3.57        304      402.6      15.96       1.07       7.84       24.0       25.0 
    298.00     298.00     297.99       41.5        6.5          6         85        995        532      17.95      17.11       3.34        303      402.9      16.46       1.10       7.87       24.0       24.9 
    298.50     298.50     298.49       42.3        5.6          6         85        896        529      13.15      13.75       4.56        304      406.0      17.33       1.17       8.06       24.0       24.4 
    299.00     299.00     298.99       42.9        5.1          7         86        924        533      13.05      12.65       4.60        305      402.8      18.33       1.24       8.14       24.0       24.7 
    299.50     299.50     299.49       42.9        5.1          7         86        924        533      13.05      12.65       4.60        305      402.8      18.33       1.24       8.14       24.0       24.7 
    300.00     300.00     299.99       42.9        5.1          7         85        920        533      13.32      12.94       4.51        305      402.5      18.83       1.28       8.18       24.0       24.8 
