~VERSION INFORMATION
VERS.    2.0:   CWLS LOG ASCII STANDARD - VERSION 2.0
WRAP.     NO:   ONE LINE PER STEP
~WELL INFORMATION BLOCK
#MNEM.UNIT      DATA                  DESCRIPTION OF MNEMONIC
#----   --------             ---------------
STRT.m  281.00                   :START DEPTH
STOP.m  1577.00                   :STOP DEPTH
STEP.m  0.50                   :STEP VALUE
NULL.  -999.25                   :NULL VALUE
COMP.   TAG OIL                   :COMPANY NAME
WELL.   CHEAL A-10                   :WELL NAME
FLD .   TARANAKI BASIN                   :FIELD NAME
LOC .   STRATFORD              		 :LOCATION
PROV.   TARANAKI                   :PROVINCE
SRVC.   Geoservices                   :SERVICE COMPANY NAME
DATE.   03-03-2012 15:01:13                   :DATE
UWI .                      :UNIQUE WELL IDENTIFIER
~CURVE INFORMATION
#MNEM.UNIT       API CODE        CURVE DESCRIPTION
#----   -------- ------------------
Bit Depth .m        :Bit Depth
Tot Depth .m        :Tot Depth
TVD Depth .m        :TVD Depth
WOH .klbs        :WOH
WOB .klbs        :WOB
T Revol .krev        :T Revol
RPM .rpm        :RPM
TORQUE .lb*ft        :TORQUE
SPP .psi        :SPP
ROP m/hr .m/h        :ROP m/hr
ROP ins .m/h        :ROP ins
ROP .mn/m        :ROP
FLWpmps .gpm        :FLWpmps
ACTIVE .bbl        :ACTIVE
BitRun .m        :BitRun
BitTim .h        :BitTim
PumpTime .h        :PumpTime
TMP IN .degC        :TMP IN
TMP OUT .degC        :TMP OUT
#
#-----------------------------------------------------------
# Bit Depth (m)   Tot Depth (m)   TVD Depth (m)   WOH (klbs)   WOB (klbs)   T Revol (krev)   RPM (rpm)   TORQUE (lb*ft)   SPP (psi)   ROP m/hr (m/h)   ROP ins (m/h)   ROP (mn/m)   FLWpmps (gpm)   ACTIVE (bbl)   BitRun (m)   BitTim (h)   PumpTime (h)   TMP IN (degC)   TMP OUT (degC)
#-----------------------------------------------------------
~A
# ...
    788.00     788.00     787.96       53.5       14.0        123        110       1177       1151      22.59      22.29       2.66        392      380.2     521.92      18.58      30.45       24.0       35.0 
    788.50     788.50     788.46       53.5       13.9        123        110       1181       1153      24.00      22.95       2.50        392      377.8     522.41      18.60      30.47       24.0       34.9 
    789.00     789.00     788.96       53.5       14.0        123        110       1181       1154      24.20      23.27       2.48        392      378.3     522.91      18.62      30.49       24.0       34.9 
    789.50     789.50     789.46       53.8       13.6        123        110       1180       1155      27.73      25.18       2.16        392      380.0     523.41      18.64      30.51       24.0       34.9 
    790.00     790.00     789.96       53.9       13.5        123        110       1184       1151      30.01      28.79       2.00        392      377.2     523.92      18.65      30.52       24.0       34.9 
    790.50     790.50     790.46       53.7       13.7        123        110       1176       1153      27.09      28.53       2.22        392      385.1     524.42      18.67      30.54       24.0       35.0 
    791.00     791.00     790.96       53.8       13.7        123        110       1165       1152      27.08      26.91       2.22        392      382.4     524.91      18.69      30.56       24.0       35.0 
    791.50     791.50     791.46       53.8       13.7        124        110       1170       1151      27.16      26.82       2.21        392      383.1     525.42      18.71      30.58       24.0       35.1 
    792.00     792.00     791.96       53.9       13.6        124        110       1184       1151      28.65      27.34       2.09        392      382.0     525.93      18.73      30.60       24.0       35.1 
    792.50     792.50     792.46       53.7       13.7        124        110       1174       1153      27.81      27.46       2.16        392      385.4     526.41      18.74      30.61       24.0       35.1 
    793.00     793.00     792.96       53.6       13.8        124        110       1180       1154      24.86      26.30       2.41        391      385.0     526.91      18.76      30.63       24.0       35.1 
    793.50     793.50     793.46       54.0       13.5        124        110       1164       1148      29.27      26.77       2.05        392      385.0     527.41      18.78      30.65       24.0       35.1 
    794.00     794.00     793.96       53.9       13.5        124        110       1160       1149      29.30      28.85       2.05        392      384.7     527.92      18.80      30.67       24.0       35.1 
    794.50     794.50     794.46       53.8       13.6        124        110       1156       1147      28.56      29.02       2.10        392      384.2     528.41      18.81      30.68       24.0       35.1 
    795.00     795.00     794.96       53.8       13.6        124        110       1158       1150      28.60      27.99       2.10        392      384.3     528.91      18.83      30.70       24.0       35.1 
    795.50     795.50     795.46       53.9       13.6        124        110       1168       1149      28.41      27.62       2.11        391      385.3     529.42      18.85      30.72       24.0       35.1 
    796.00     796.00     795.96       53.9       13.6        125        110       1163       1148      28.56      28.10       2.10        392      386.1     529.92      18.87      30.74       24.0       35.1 
    796.50     796.50     796.46       54.0       13.5        125        110       1156       1145      29.75      29.23       2.02        391      386.6     530.41      18.88      30.75       25.6       35.0 
    797.00     797.00     796.96       53.9       13.6        125        110       1156       1147      29.34      28.95       2.05        391      386.8     530.93      18.90      30.77       34.0       35.1 
    797.50     797.50     797.46       54.2       13.2        125        109       1192       1142      30.23      29.46       1.98        391      386.8     531.42      18.92      30.79       34.0       35.1 
    798.00     798.00     797.96       53.9       13.6        125        109       1301       1143      29.75      29.98       2.02        391      386.6     531.92      18.93      30.80       34.0       35.1 
    798.50     798.50     798.46       54.0       13.5        125        109       1282       1143      28.84      28.76       2.08        391      386.5     532.43      18.95      30.82       34.0       35.0 
    799.00     799.00     798.96       53.4       14.1        125        110       1308       1150      18.42      26.00       3.26        393      386.5     532.91      18.98      30.85       34.0       35.0 
    799.50     799.50     799.46       54.9       12.6        125        112       1292       1177      28.86      16.29       2.08        399      385.9     533.42      19.00      30.87       34.0       35.0 
    800.00     800.00     799.96       54.3       13.2        126        112       1161       1177      32.12      30.58       1.87        400      385.5     533.92      19.01      30.88       34.0       35.0 
    800.50     800.50     800.46       54.3       13.2        126        112       1161       1177      32.12      30.58       1.87        400      385.5     533.92      19.01      30.88       34.0       35.0 
    801.00     801.00     800.96       54.9       12.6        125        112       1292       1177      28.86      16.29       2.08        399      385.9     533.42      19.00      30.87       34.0       35.0 
    801.50     801.50     801.46       54.2       13.2        126        113       1190       1188      21.90      26.81       2.74        402      394.3     534.20      19.02      31.12       34.0       35.0 
    802.00     802.00     801.96       57.3       10.1        126        113       1209       1188      22.25      21.20       2.70        405      403.8     534.70      19.05      31.14       34.0       35.0 
    802.50     802.50     802.46       55.3       12.4        126        113       1253       1208      27.20      26.34       2.21        405      397.2     535.19      19.07      31.16       34.0       35.0 
    803.00     803.00     802.96       55.1       14.0        126        113       1241       1213      26.54      26.93       2.26        405      391.3     535.69      19.08      31.18       34.0       35.1 
    803.50     803.50     803.46       54.7       14.4        126        113       1239       1218      26.02      25.51       2.31        405      385.1     536.20      19.10      31.20       34.0       35.1 
    804.00     804.00     803.96       54.7       14.4        126        113       1215       1219      26.47      26.66       2.27        405      380.3     536.69      19.12      31.21       34.0       35.2 
    804.50     804.50     804.46       54.5       14.6        126        113       1216       1222      27.93      26.14       2.15        405      377.7     537.19      19.14      31.23       34.0       35.1 
    805.00     805.00     804.96       54.4       14.7        127        113       1220       1219      24.86      26.50       2.41        405      376.6     537.69      19.16      31.25       34.0       35.1 
    805.50     805.50     805.46       54.3       14.7        127        113       1225       1220      24.41      24.67       2.46        405      376.1     538.19      19.18      31.27       34.0       35.1 
    806.00     806.00     805.96       54.6       14.5        127        113       1220       1220      27.32      24.49       2.20        405      375.9     538.70      19.20      31.29       34.0       35.2 
    806.50     806.50     806.46       54.8       14.2        127        113       1203       1218      29.53      28.33       2.03        405      375.9     539.20      19.22      31.31       34.0       35.1 
    807.00     807.00     806.96       54.7       14.3        127        113       1199       1217      30.50      28.59       1.97        405      375.6     539.69      19.23      31.32       34.0       35.1 
