~VERSION INFORMATION
VERS  .       2.0                       : CWLS LOG ASCII STANDARD - VERSION 2.0
WRAP  .       NO                        : One line per depth step
~WELL INFORMATION
#MNEM .UNIT   DATA                      : DESCRIPTION OF MNEMONIC
#-----.----   ----                      : -----------------------
STRT  .m         0.0000                 : Start
STOP  .m      1565.6052                 : Stop
STEP  .m         0.1524                 : Step increment
NULL  .       -999.2500                 : Null value
COMP  .       TAG OIL                   : Company
WELL  .       CHEAL A-10                : Well
FLD   .       Cheal                     : Field
LOC   .                                 : Location
SRVC  .                                 : Service company
DATE  .       3/2/2012                  : Logging date
CNTY  .       STRATFORD                 : County
STAT  .       TARANAKI                  : State
CTRY  .       NEW ZEALAND               : Country
API   .                                 : API number
~CURVE INFORMATION
#MNEM .UNIT   API CODE                  : CURVE DESCRIPTION
#-----.----   --------                  : -----------------
DEPT  .m                                : Measured Depth
T-TEMP.°C                               : Tool Temperature
GR    .aapi                             : Gamma Ray
ROP   .m/hr                             : Rate of Penetration
~PARAMETER INFORMATION
#MNEM .UNIT   VALUE                     : DESCRIPTION
#-----.----   -----                     : -----------
~OTHER INFORMATION
MEMORY LOG
~A  DEPT     T-TEMP         GR        ROP   
# ...
 1437.7416    40.2055    94.9767    17.5851 
 1437.8940    40.2048    94.0333    17.9342 
 1438.0464    40.2036    93.7933    18.2600 
 1438.1988    40.2102    93.3624    17.8134 
 1438.3512    40.2124    93.3363    17.5431 
 1438.5036    40.2249    93.1534    17.1543 
 1438.6560    40.2349    93.1900    16.4311 
 1438.8084    40.2398    93.6685    16.3016 
 1438.9608    40.2487    94.4523    16.2241 
 1439.1132    40.2563    94.7725    15.9580 
 1439.2656    40.2570    94.1473    15.8573 
 1439.4180    40.2570    94.5881    16.1406 
 1439.5704    40.2599    92.9590    16.6725 
 1439.7228    40.2659    91.3647    16.9960 
 1439.8752    40.2722    91.8603    17.5398 
 1440.0276    40.2722    91.1879    17.5078 
 1440.1800    40.2760    91.4169    17.4242 
 1440.3324    40.2760    90.7636    17.9125 
 1440.4848    40.2760    89.4257    18.1400 
 1440.6372    40.2799    89.4636    17.6606 
 1440.7896    40.2847    87.2264    17.4028 
 1440.9420    40.2922    85.4417    17.4624 
 1441.0944    40.2947    83.5899    16.0914 
 1441.2468    40.2913    80.2017    13.4563 
 1441.3992    40.2938    80.3109    11.3875 
 1441.5516    40.2963    82.4625    10.9420 
 1441.7040    40.2973    85.0797    12.2276 
 1441.8564    40.2986    87.8723    15.4332 
 1442.0088    40.2951    88.3982    20.9980 
 1442.1612    40.2955    88.7782    23.6792 
 1442.3136    40.3042    88.5923    25.6198 
 1442.4660    40.3062    87.4075    28.4735 
 1442.6184    40.3158    88.5899    29.6640 
 1442.7708    40.3219    88.4039    29.2199 
 1442.9232    40.3286    89.3879    28.3912 
 1443.0756    40.3294    88.6824    27.5315 
 1443.2280    40.3294    87.9178    25.9002 
 1443.3804    40.3285    88.8628    24.5482 
 1443.5328    40.3250    89.4955    23.7839 
 1443.6852    40.3218    90.4872    22.6432 
 1443.8376    40.3243    91.3289    22.6118 
 1443.9900    40.3274    90.1836    22.0842 
 1444.1424    40.3318    86.0954    18.1201 
 1444.2948    40.3294    83.0995    13.4931 
 1444.4472    40.3269    79.8278     8.7336 
 1444.5996    40.3250    81.1195     5.0624 
 1444.7520    40.3224    83.5430     4.7668 
 1444.9044    40.3327    88.1986     8.1201 
 1445.0568    40.3397    89.6233     9.9083 
 1445.2092    40.3447    91.0153    11.3755 
 1445.3616    40.2571    92.9237    11.3881 
 1445.5140    40.1579    92.7652    10.3992 
 1445.6664    40.1169    93.2475    10.5784 
 1445.8188    40.1169    93.7997    10.2986 
 1445.9712    40.0831    92.1177     9.9725 
 1446.1236    40.0195    92.6268     9.6168 
 1446.2760    39.9560    95.0007     9.0650 
 1446.4284    39.9289    95.2777     8.6965 
 1446.5808    39.9289    96.1558     8.8068 
 1446.7332    39.9393    95.2874     8.7254 
 1446.8856    39.9497    93.2728     8.7886 
 1447.0380    39.9559    93.6729     8.7091 
 1447.1904    39.9619    93.7401     8.7705 
 1447.3428    39.9680    92.3862     9.1268 
 1447.4952    39.9720    93.5459     9.3291 
 1447.6476    39.9812    93.3729     9.4809 
 1447.8000    39.9904    94.0138     9.6289 
 1447.9524    39.9954    94.6370     9.5001 
 1448.1048    40.0024    93.6174     8.9697 
 1448.2572    40.0090    92.9149     8.8080 
 1448.4096    40.0154    92.0729     8.3071 
 1448.5620    40.0249    91.4596     7.9059 
 1448.7144    40.0319    92.6344     7.8166 
 1448.8668    40.0495    93.8205     7.7744 
 1449.0192    40.0749    94.9725     7.6801 
 1449.1716    40.0981    95.8994     7.5586 
 1449.3240    40.1118    94.3503     7.3436 
 1449.4764    40.1214    94.2203     7.3275 
 1449.6288    40.1301    91.9889     7.3150 
 1449.7812    40.1333    91.7501     7.2668 
 1449.9336    40.1356    93.3231     7.5005 
 1450.0860    40.1352    93.1245     7.3146 
 1450.2384    40.1349    93.7978     6.9810 
 1450.3908    40.1326    93.5259    10.0846 
 1450.5432    40.1336    93.3901    11.8155 
 1450.6956    40.1390    92.5633    13.7101 
 1450.8480    40.1435    92.9433    15.5078 
 1451.0004    40.1448    92.4504    15.4588 
 1451.1528    40.1476    92.6230    15.1317 
 1451.3052    40.1491    93.2916    15.4353 
 1451.4576    40.1504    93.0365    15.6052 
 1451.6100    40.1531    92.7457    15.8268 
 1451.7624    40.1577    92.6347    15.7905 
 1451.9148    40.1618    93.2242    15.2999 
 1452.0672    40.1665    93.1426    15.6928 
 1452.2196    40.1759    93.5166    15.6016 
 1452.3720    40.1863    94.4411    15.7592 
 1452.5244    40.1924    93.9067    16.1063 
 1452.6768    40.2038    94.9848    16.1677 
 1452.8292    40.2107    95.5755    16.0321 
 1452.9816    40.2139    95.0884    15.8029 
 1453.1340    40.2171    95.8373    15.7917 
 1453.2864    40.2221    94.1466    15.0404 
 1453.4388    40.2247    94.3785    15.2303 
 1453.5912    40.2281    95.5423    15.6473 
 1453.7436    40.2404    93.2810    15.8541 
 1453.8960    40.2525    91.7549    16.2828 
 1454.0484    40.2571    89.7999    16.6908 
 1454.2008    40.2631    89.3262    16.4586 
 1454.3532    40.2724    89.4000    16.6004 
 1454.5056    40.2849    90.5433    16.4646 
 1454.6580    40.2972    91.7261    16.4233 
 1454.8104    40.3065    90.6630    16.3124 
 1454.9628    40.3175    90.7323    16.4349 
 1455.1152    40.3299    89.7306    17.3213 
 1455.2676    40.3482    89.4467    18.0440 
 1455.4200    40.3567    90.2644    18.8230 
 1455.5724    40.3722    91.0259    19.0049 
 1455.7248    40.3828    92.1502    18.7841 
 1455.8772    40.3867    91.1839    18.3354 
 1456.0296    40.3992    91.9494    18.2936 
 1456.1820    40.4123    91.8048    18.0702 
 1456.3344    40.4210    92.0053    17.4128 
 1456.4868    40.4305    92.3020    17.3427 
 1456.6392    40.4408    92.0539    17.1900 
 1456.7916    40.4466    90.9033    17.1376 
 1456.9440    40.4551    90.2200    19.2084 
 1457.0964    40.4635    90.6425    21.5357 
 1457.2488    40.4722    88.7674    23.2423 
 1457.4012    40.4920    89.0247    23.1751 
 1457.5536    40.5100    89.0112    23.0799 
 1457.7060    40.5163    89.0351    20.6441 
 1457.8584    40.5275    88.9822    19.3772 
 1458.0108    40.5354    89.2633    19.5592 
 1458.1632    40.5431    89.1155    19.7797 
 1458.3156    40.5520    87.0313    18.6481 
 1458.4680    40.5613    87.8649    19.7095 
 1458.6204    40.5849    88.0227    20.7430 
 1458.7728    40.5900    89.9746    20.6809 
 1458.9252    40.5988    90.4469    20.3644 
 1459.0776    40.6037    90.3790    19.8929 
 1459.2300    40.6228    89.3006    17.9464 
 1459.3824    40.6332    88.6213    17.1178 
 1459.5348    40.6462    88.4628    17.6895 
 1459.6872    40.6543    89.0669    18.2471 
 1459.8396    40.6567    88.6706    19.9256 
 1459.9920    40.6648    88.0220    20.7652 
 1460.1444    40.6718    88.9570    20.0799 
 1460.2968    40.6918    89.2539    17.8506 
 1460.4492    40.6918    89.7019    16.0421 
 1460.6016    40.7037    90.7732    16.8071 
 1460.7540    40.7163    90.7726    20.6588 
 1460.9064    40.7289    90.5413    24.5941 
 1461.0588    40.7395    89.8107    27.9324 
 1461.2112    40.7426    89.0267    27.6830 
 1461.3636    40.7614    89.1916    25.3374 
 1461.5160    40.7710    88.6445    23.9348 
 1461.6684    40.7779    88.2678    23.0133 
 1461.8208    40.7820    88.8502    22.5145 
 1461.9732    40.7871    89.5274    21.8471 
 1462.1256    40.8013    89.7191    22.0512 
 1462.2780    40.8122    90.8035    22.0126 
 1462.4304    40.8234    92.1205    22.1145 
 1462.5828    40.8253    91.8233    21.6323 
 1462.7352    40.8273    91.6107    21.0511 
 1462.8876    40.8431    90.5222    20.8106 
 1463.0400    40.8507    90.8904    21.1424 
 1463.1924    40.8635    92.2418    20.8375 
 1463.3448    40.8635    92.9637    20.4549 
 1463.4972    40.8776    93.7552    20.6230 
 1463.6496    40.8853    93.6553    19.3442 
 1463.8020    40.9018    93.8174    16.0917 
 1463.9544    40.9035    90.3969    16.0458 
 1464.1068    40.9103    87.9098    15.8368 
 1464.2592    40.9173    84.0779    17.1936 
 1464.4116    40.9269    80.4558    23.2906 
 1464.5640    40.9352    79.2380    29.8331 
 1464.7164    40.9492    79.0807    33.2647 
