~VERSION INFORMATION
VERS  .       2.0                       : CWLS LOG ASCII STANDARD - VERSION 2.0
WRAP  .       NO                        : One line per depth step
~WELL INFORMATION
#MNEM .UNIT   DATA                      : DESCRIPTION OF MNEMONIC
#-----.----   ----                      : -----------------------
STRT  .m         0.0000                 : Start
STOP  .m      1565.6052                 : Stop
STEP  .m         0.1524                 : Step increment
NULL  .       -999.2500                 : Null value
COMP  .       TAG OIL                   : Company
WELL  .       CHEAL A-10                : Well
FLD   .       Cheal                     : Field
LOC   .                                 : Location
SRVC  .                                 : Service company
DATE  .       3/2/2012                  : Logging date
CNTY  .       STRATFORD                 : County
STAT  .       TARANAKI                  : State
CTRY  .       NEW ZEALAND               : Country
API   .                                 : API number
~CURVE INFORMATION
#MNEM .UNIT   API CODE                  : CURVE DESCRIPTION
#-----.----   --------                  : -----------------
DEPT  .m                                : Measured Depth
T-TEMP.°C                               : Tool Temperature
GR    .aapi                             : Gamma Ray
ROP   .m/hr                             : Rate of Penetration
~PARAMETER INFORMATION
#MNEM .UNIT   VALUE                     : DESCRIPTION
#-----.----   -----                     : -----------
~OTHER INFORMATION
MEMORY LOG
~A  DEPT     T-TEMP         GR        ROP   
# ...
  108.5088    25.0836    53.0064     0.0000 
  108.6612    25.0778    52.9729     0.0000 
  108.8136    25.0720    52.9394     0.0000 
  108.9660    25.0662    52.9059     0.0000 
  109.1184    25.0604    52.8724     0.0000 
  109.2708    25.0547    52.8389     0.0000 
  109.4232    25.0489    52.8054     0.0000 
  109.5756    25.0431    52.7719     0.0000 
  109.7280    25.0373    52.7384     0.0000 
  109.8804    25.0315    52.7050     0.0000 
  110.0328    25.0257    52.6715     0.0000 
  110.1852    25.0199    52.6380     0.0000 
  110.3376    25.0142    52.6045     0.0000 
  110.4900    25.0084    52.5710     0.0000 
  110.6424    25.0026    52.5375     0.0000 
  110.7948    24.9968    52.5040     0.0000 
  110.9472    24.9910    52.4705     0.0000 
  111.0996    24.9852    52.4370     0.0000 
  111.2520    24.9795    52.4036     0.0000 
  111.4044    24.9737    52.3701     0.0000 
  111.5568    24.9679    52.3366     0.0000 
  111.7092    24.9621    52.3031     0.0000 
  111.8616    24.9563    52.2696     0.0000 
  112.0140    24.9505    52.2361     0.0000 
  112.1664    24.9447    52.2026     0.0000 
  112.3188    24.9390    52.1691     0.0000 
  112.4712    24.9332    52.1357     0.0000 
  112.6236    24.9274    52.1022     0.0000 
  112.7760    24.9216    52.0687     0.0000 
  112.9284    24.9158    52.0352     0.0000 
  113.0808    24.9100    52.0017     0.0000 
  113.2332    24.9043    51.9682     0.0000 
  113.3856    24.8985    51.9347     0.0000 
  113.5380    24.8927    51.9012     0.0000 
  113.6904    24.8869    51.8677     0.0000 
  113.8428    24.8811    51.8343     0.0000 
  113.9952    24.8753    51.8008     0.0000 
  114.1476    24.8695    51.7673     0.0000 
  114.3000    24.8638    51.7338     0.0000 
  114.4524    24.8580    51.7003     0.0000 
  114.6048    24.8522    51.6668     0.0000 
  114.7572    24.8464    51.6333     0.0000 
  114.9096    24.8406    51.5998     0.0000 
  115.0620    24.8348    51.5663     0.0000 
  115.2144    24.8291    51.5329     0.0000 
  115.3668    24.8233    51.4994     0.0000 
  115.5192    24.8175    51.4659     0.0000 
  115.6716    24.8117    51.4324     0.0000 
  115.8240    24.8059    51.3989     0.0000 
  115.9764    24.8001    51.3654     0.0000 
  116.1288    24.7943    51.3319     0.0000 
  116.2812    24.7886    51.2984     0.0000 
  116.4336    24.7828    51.2650     0.0000 
  116.5860    24.7770    51.2315     0.0000 
  116.7384    24.7712    51.1980     0.0000 
  116.8908    24.7654    51.1645     0.0000 
  117.0432    24.7596    51.1310     0.0000 
  117.1956    24.7539    51.0975     0.0000 
  117.3480    24.7481    51.0640     0.0000 
  117.5004    24.7423    51.0305     0.0000 
  117.6528    24.7365    50.9970     0.0000 
  117.8052    24.7307    50.9636     0.0000 
  117.9576    24.7249    50.9301     0.0000 
  118.1100    24.7191    50.8966     0.0000 
  118.2624    24.7134    50.8631     0.0000 
  118.4148    24.7076    50.8296     0.0000 
  118.5672    24.7018    50.7961     0.0000 
  118.7196    24.6960    50.7626     0.0000 
  118.8720    24.6902    50.7291     0.0000 
  119.0244    24.6844    50.6957     0.0000 
  119.1768    24.6787    50.6622     0.0000 
  119.3292    24.6729    50.6287     0.0000 
  119.4816    24.6671    50.5952     0.0000 
  119.6340    24.6613    50.5617     0.0000 
  119.7864    24.6555    50.5282     0.0000 
  119.9388    24.6497    50.4947     0.0000 
  120.0912    24.6439    50.4612     0.0000 
  120.2436    24.6382    50.4277     0.0000 
  120.3960    24.6324    50.3943     0.0000 
  120.5484    24.6266    50.3608     0.0000 
  120.7008    24.6208    50.3273     0.0000 
  120.8532    24.6150    50.2938     0.0000 
  121.0056    24.6092    50.2603     0.0000 
  121.1580    24.6035    50.2268     0.0000 
  121.3104    24.5977    50.1933     0.0000 
  121.4628    24.5919    50.1598     0.0000 
  121.6152    24.5861    50.1263     0.0000 
  121.7676    24.5803    50.0929     0.0000 
  121.9200    24.5745    50.0594     0.0000 
  122.0724    24.5687    50.0259     0.0000 
  122.2248    24.5630    49.9924     0.0000 
  122.3772    24.5572    49.9589     0.0000 
  122.5296    24.5514    49.9254     0.0000 
  122.6820    24.5456    49.8919     0.0000 
  122.8344    24.5398    49.8584     0.0000 
  122.9868    24.5340    49.8250     0.0000 
  123.1392    24.5283    49.7915     0.0000 
  123.2916    24.5225    49.7580     0.0000 
  123.4440    24.5167    49.7245     0.0000 
  123.5964    24.5109    49.6910     0.0000 
  123.7488    24.5051    49.6575     0.0000 
  123.9012    24.4993    49.6240     0.0000 
  124.0536    24.4935    49.5905     0.0000 
  124.2060    24.4878    49.5570     0.0000 
  124.3584    24.4820    49.5236     0.0000 
  124.5108    24.4762    49.4901     0.0000 
  124.6632    24.4704    49.4566     0.0000 
  124.8156    24.4646    49.4231     0.0000 
  124.9680    24.4588    49.3896     0.0000 
  125.1204    24.4531    49.3561     0.0000 
  125.2728    24.4473    49.3226     0.0000 
  125.4252    24.4415    49.2891     0.0000 
  125.5776    24.4357    49.2556     0.0000 
  125.7300    24.4299    49.2222     0.0000 
  125.8824    24.4241    49.1887     0.0000 
  126.0348    24.4183    49.1552     0.0000 
  126.1872    24.4126    49.1217     0.0000 
  126.3396    24.4068    49.0882     0.0000 
  126.4920    24.4010    49.0547     0.0000 
  126.6444    24.3952    49.0212     0.0000 
  126.7968    24.3894    48.9877     0.0000 
  126.9492    24.3836    48.9543     0.0000 
  127.1016    24.3779    48.9208     0.0000 
  127.2540    24.3721    48.8873     0.0000 
  127.4064    24.3663    48.8538     0.0000 
  127.5588    24.3605    48.8203     0.0000 
  127.7112    24.3547    48.7868     0.0000 
  127.8636    24.3489    48.7533     0.0000 
  128.0160    24.3431    48.7198     0.0000 
  128.1684    24.3374    48.6863     0.0000 
  128.3208    24.3316    48.6529     0.0000 
  128.4732    24.3258    48.6194     0.0000 
  128.6256    24.3200    48.5859     0.0000 
  128.7780    24.3142    48.5524     0.0000 
  128.9304    24.3084    48.5189     0.0000 
  129.0828    24.3027    48.4854     0.0000 
  129.2352    24.2969    48.4519     0.0000 
  129.3876    24.2911    48.4184     0.0000 
  129.5400    24.2853    48.3850     0.0000 
  129.6924    24.2795    48.3515     0.0000 
  129.8448    24.2737    48.3180     0.0000 
  129.9972    24.2679    48.2845     0.0000 
  130.1496    24.2622    48.2510     0.0000 
  130.3020    24.2564    48.2175     0.0000 
  130.4544    24.2506    48.1840     0.0000 
  130.6068    24.2448    48.1505     0.0000 
  130.7592    24.2390    48.1170     0.0000 
  130.9116    24.2332    48.0836     0.0000 
  131.0640    24.2275    48.0501     0.0000 
  131.2164    24.2217    48.0166     0.0000 
  131.3688    24.2159    47.9831     0.0000 
  131.5212    24.2101    47.9496     0.0000 
  131.6736    24.2043    47.9161     0.0000 
  131.8260    24.1985    47.8826     0.0000 
  131.9784    24.1927    47.8491     0.0000 
  132.1308    24.1870    47.8156     0.0000 
  132.2832    24.1812    47.7822     0.0000 
  132.4356    24.1754    47.7487     0.0000 
  132.5880    24.1696    47.7152     0.0000 
  132.7404    24.1638    47.6817     0.0000 
  132.8928    24.1580    47.6482     0.0000 
  133.0452    24.1523    47.6147     0.0000 
  133.1976    24.1465    47.5812     0.0000 
  133.3500    24.1407    47.5477     0.0000 
  133.5024    24.1349    47.5143     0.0000 
  133.6548    24.1291    47.4808     0.0000 
  133.8072    24.1233    47.4473     0.0000 
  133.9596    24.1175    47.4138     0.0000 
  134.1120    24.1118    47.3803     0.0000 
  134.2644    24.1060    47.3468     0.0000 
  134.4168    24.1002    47.3133     0.0000 
  134.5692    24.0944    47.2798     0.0000 
  134.7216    24.0886    47.2463     0.0000 
  134.8740    24.0828    47.2129     0.0000 
  135.0264    24.0771    47.1794     0.0000 
  135.1788    24.0713    47.1459     0.0000 
  135.3312    24.0655    47.1124     0.0000 
  135.4836    24.0597    47.0789     0.0000 
