~VERSION INFORMATION
VERS  .       2.0                       : CWLS LOG ASCII STANDARD - VERSION 2.0
WRAP  .       NO                        : One line per depth step
~WELL INFORMATION
#MNEM .UNIT   DATA                      : DESCRIPTION OF MNEMONIC
#-----.----   ----                      : -----------------------
STRT  .m         0.0000                 : Start
STOP  .m      1565.6052                 : Stop
STEP  .m         0.1524                 : Step increment
NULL  .       -999.2500                 : Null value
COMP  .       TAG OIL                   : Company
WELL  .       CHEAL A-10                : Well
FLD   .       Cheal                     : Field
LOC   .                                 : Location
SRVC  .                                 : Service company
DATE  .       3/2/2012                  : Logging date
CNTY  .       STRATFORD                 : County
STAT  .       TARANAKI                  : State
CTRY  .       NEW ZEALAND               : Country
API   .                                 : API number
~CURVE INFORMATION
#MNEM .UNIT   API CODE                  : CURVE DESCRIPTION
#-----.----   --------                  : -----------------
DEPT  .m                                : Measured Depth
T-TEMP.°C                               : Tool Temperature
GR    .aapi                             : Gamma Ray
ROP   .m/hr                             : Rate of Penetration
~PARAMETER INFORMATION
#MNEM .UNIT   VALUE                     : DESCRIPTION
#-----.----   -----                     : -----------
~OTHER INFORMATION
MEMORY LOG
~A  DEPT     T-TEMP         GR        ROP   
# ...
  813.8160    33.7530    79.8831    27.6913 
  813.9684    33.7589    79.8909    27.2148 
  814.1208    33.7606    80.1389    26.3724 
  814.2732    33.7606    80.9547    26.3660 
  814.4256    33.7606    80.2422    26.3989 
  814.5780    33.7606    80.1509    26.4399 
  814.7304    33.7606    80.7392    26.8861 
  814.8828    33.7636    79.9188    27.0167 
  815.0352    33.7694    79.9932    27.0031 
  815.1876    33.7751    80.4585    26.6445 
  815.3400    33.7808    81.5552    26.8393 
  815.4924    33.7835    83.1047    26.9479 
  815.6448    33.7872    85.6581    25.8303 
  815.7972    33.7911    85.3504    25.9545 
  815.9496    33.7950    82.0168    25.8401 
  816.1020    33.7988    79.7620    25.2395 
  816.2544    33.8005    78.8113    25.1016 
  816.4068    33.8045    77.1285    25.0934 
  816.5592    33.8085    76.8321    25.1649 
  816.7116    33.8125    78.7681    25.6953 
  816.8640    33.8141    78.3019    26.3669 
  817.0164    33.8177    79.4260    26.9696 
  817.1688    33.8213    80.7784    26.7073 
  817.3212    33.8249    83.2310    26.6224 
  817.4736    33.8278    84.8886    25.3006 
  817.6260    33.8304    84.8669    25.0767 
  817.7784    33.8407    85.0887    25.0198 
  817.9308    33.8498    84.6996    25.3413 
  818.0832    33.8553    84.7493    26.1291 
  818.2356    33.8600    84.5923    25.7570 
  818.3880    33.8647    83.1213    21.2804 
  818.5404    33.8674    79.8822    18.6164 
  818.6928    33.8674    78.7167    17.5812 
  818.8452    33.8674    77.8984    18.2342 
  818.9976    33.8674    77.6734    21.6863 
  819.1500    33.8674    77.6278    28.7185 
  819.3024    33.8694    78.6666    32.0607 
  819.4548    33.8778    79.0632    32.9706 
  819.6072    33.8862    80.0602    33.3140 
  819.7596    33.8945    80.3536    33.5522 
  819.9120    33.8979    81.3434    33.1682 
  820.0644    33.8960    76.7737    33.1996 
  820.2168    33.8941    74.5573    32.6192 
  820.3692    33.8921    73.0779    32.0554 
  820.5216    33.8903    73.9916    31.7000 
  820.6740    33.8903    76.9354    28.7512 
  820.8264    33.8903    81.1286    27.4703 
  820.9788    33.8903    82.3774    25.7959 
  821.1312    33.8903    82.2716    26.7727 
  821.2836    33.8903    81.9795    29.6991 
  821.4360    33.8925    81.7846    30.8251 
  821.5884    33.8947    81.6916    35.2269 
  821.7408    33.8969    82.6431    34.4151 
  821.8932    33.8980    83.0849    33.1020 
  822.0456    33.9000    81.1958    34.0767 
  822.1980    33.9021    81.7448    35.9085 
  822.3504    33.9042    82.4817    37.9899 
  822.5028    33.9056    80.8690    39.7737 
  822.6552    33.9071    82.3585    37.5236 
  822.8076    33.9093    82.8538    34.4754 
  822.9600    33.9115    80.1912    33.4081 
  823.1124    33.9132    77.9365    32.4691 
  823.2648    33.9132    76.0826    33.8403 
  823.4172    33.9132    74.8645    35.6352 
  823.5696    33.9132    76.0049    36.3398 
  823.7220    33.9132    75.9631    37.9277 
  823.8744    33.9154    75.7064    37.6881 
  824.0268    33.9181    76.5998    38.3832 
  824.1792    33.9228    76.4821    39.5307 
  824.3316    33.9276    76.9400    39.8860 
  824.4840    33.9324    79.5487    39.5736 
  824.6364    33.9361    78.9019    39.6936 
  824.7888    33.9394    79.4422    38.4352 
  824.9412    33.9442    80.3329    35.6033 
  825.0936    33.9491    81.8024    34.3073 
  825.2460    33.9514    82.8602    33.8500 
  825.3984    33.9495    83.6383    33.2812 
  825.5508    33.9490    82.4543    34.8939 
  825.7032    33.9192    81.0610    38.2228 
  825.8556    33.9054    81.9617    41.0769 
  826.0080    33.8939    80.0547    41.6591 
  826.1604    33.8753    80.5643    40.7010 
  826.3128    33.8616    82.8390    40.6027 
  826.4652    33.8560    82.6210    40.6713 
  826.6176    33.8550    82.5502    42.2329 
  826.7700    33.8539    82.9425    41.7907 
  826.9224    33.8529    80.3486    41.0751 
  827.0748    33.8522    78.2499    38.7001 
  827.2272    33.8552    78.3178    34.9917 
  827.3796    33.8591    77.2733    34.1393 
  827.5320    33.8631    76.6808    33.6775 
  827.6844    33.8671    78.2106    33.8621 
  827.8368    33.8684    81.5142    33.1197 
  827.9892    33.8728    82.2443    31.9513 
  828.1416    33.8772    82.3689    31.8404 
  828.2940    33.8816    83.1760    31.5723 
  828.4464    33.8843    80.8847    31.9382 
  828.5988    33.8912    80.0874    34.1662 
  828.7512    33.8982    80.8816    34.2570 
  828.9036    33.9052    78.7075    35.4588 
  829.0560    33.9068    77.8093    36.0877 
  829.2084    33.9092    76.9408    35.8742 
  829.3608    33.9117    77.7237    35.5245 
  829.5132    33.9132    77.8597    35.5886 
  829.6656    33.9157    78.5520    35.0796 
  829.8180    33.9185    77.3982    34.7556 
  829.9704    33.9219    76.6750    34.9786 
  830.1228    33.9290    75.4494    34.9428 
  830.2752    33.9343    73.3188    34.9806 
  830.4276    33.9383    75.1668    34.4257 
  830.5800    33.9400    75.6161    34.1359 
  830.7324    33.9436    72.9797    33.9823 
  830.8848    33.9471    73.0638    33.8121 
  831.0372    33.9507    71.9034    33.6882 
  831.1896    33.9514    70.1106    33.7685 
  831.3420    33.9514    71.6671    33.7839 
  831.4944    33.9514    73.1709    34.0345 
  831.6468    33.9514    73.6413    33.7373 
  831.7992    33.9610    75.8635    33.9464 
  831.9516    33.9727    75.7113    34.0285 
  832.1040    33.9819    76.2023    26.3890 
  832.2564    33.9865    76.7421    23.7666 
  832.4088    33.9922    77.3950    23.3304 
  832.5612    33.9971    76.8685    24.7093 
  832.7136    33.9992    79.7866    25.8668 
  832.8660    34.0021    79.3236    34.1011 
  833.0184    34.0048    79.8466    35.1972 
  833.1708    34.0086    79.6540    35.0455 
  833.3232    34.0140    78.4040    37.1187 
  833.4756    34.0194    78.6915    37.0734 
  833.6280    34.0213    78.6306    35.7898 
  833.7804    34.0249    79.1843    34.5678 
  833.9328    34.0285    79.4232    33.2508 
  834.0852    34.0321    79.7126    32.0953 
  834.2376    34.0353    79.2191    32.1813 
  834.3900    34.0361    78.7350    32.4073 
  834.5424    34.0380    79.5994    33.1994 
  834.6948    34.0400    77.9578    33.7348 
  834.8472    34.0419    75.3122    33.9951 
  834.9996    34.0429    73.3941    34.0871 
  835.1520    34.0477    72.0375    34.2198 
  835.3044    34.0539    73.4986    34.0340 
  835.4568    34.0602    74.9777    34.5250 
  835.6092    34.0658    76.4956    34.4026 
  835.7616    34.0658    80.0194    34.0364 
  835.9140    34.0658    81.0989    33.9619 
  836.0664    34.0658    81.1217    33.9403 
  836.2188    34.0658    84.0756    32.6775 
  836.3712    34.0658    84.5290    31.0603 
  836.5236    34.0658    84.2098    30.7568 
  836.6760    34.0711    84.4663    30.0622 
  836.8284    34.0764    83.1990    30.3952 
  836.9808    34.0811    81.8674    31.7175 
  837.1332    34.0826    81.3231    32.4061 
  837.2856    34.0849    81.8340    31.8699 
  837.4380    34.0872    81.8547    31.6945 
  837.5904    34.0887    83.6943    31.7685 
  837.7428    34.0866    84.2853    31.2492 
  837.8952    34.0842    84.2200    32.2436 
  838.0476    34.0818    83.0912    32.4555 
  838.2000    34.0815    81.0703    31.4449 
  838.3524    34.0839    77.2151    31.4826 
  838.5048    34.0863    76.2634    31.6421 
  838.6572    34.0887    75.8163    31.3315 
  838.8096    34.0897    75.6311    31.0078 
  838.9620    34.0921    77.5875    30.6446 
  839.1144    34.0944    79.5657    29.6807 
  839.2668    34.0963    79.6892    28.8124 
  839.4192    34.0993    80.0393    28.4297 
  839.5716    34.1040    79.8031    28.4377 
  839.7240    34.1088    79.3063    28.0848 
  839.8764    34.1116    79.1982    27.7155 
  840.0288    34.1116    78.5287    24.2527 
  840.1812    34.1116    79.0037    21.2298 
  840.3336    34.1116    76.3140    21.5949 
  840.4860    34.1123    75.2793    19.5290 
  840.6384    34.1150    73.1682    17.1002 
  840.7908    34.1176    73.1680    19.7073 
