~VERSION INFORMATION
VERS  .       2.0                       : CWLS LOG ASCII STANDARD - VERSION 2.0
WRAP  .       NO                        : One line per depth step
~WELL INFORMATION
#MNEM .UNIT   DATA                      : DESCRIPTION OF MNEMONIC
#-----.----   ----                      : -----------------------
STRT  .m         0.0000                 : Start
STOP  .m      1565.6052                 : Stop
STEP  .m         0.1524                 : Step increment
NULL  .       -999.2500                 : Null value
COMP  .       TAG OIL                   : Company
WELL  .       CHEAL A-10                : Well
FLD   .       Cheal                     : Field
LOC   .                                 : Location
SRVC  .                                 : Service company
DATE  .       3/2/2012                  : Logging date
CNTY  .       STRATFORD                 : County
STAT  .       TARANAKI                  : State
CTRY  .       NEW ZEALAND               : Country
API   .                                 : API number
~CURVE INFORMATION
#MNEM .UNIT   API CODE                  : CURVE DESCRIPTION
#-----.----   --------                  : -----------------
DEPT  .m                                : Measured Depth
T-TEMP.°C                               : Tool Temperature
GR    .aapi                             : Gamma Ray
ROP   .m/hr                             : Rate of Penetration
~PARAMETER INFORMATION
#MNEM .UNIT   VALUE                     : DESCRIPTION
#-----.----   -----                     : -----------
~OTHER INFORMATION
MEMORY LOG
~A  DEPT     T-TEMP         GR        ROP   
# ...
  623.9256    31.9677    79.9111    24.7909 
  624.0780    31.9677    78.4594    22.7360 
  624.2304    31.9677    79.4743    22.6957 
  624.3828    31.9693    79.0696    22.6937 
  624.5352    31.9713    78.7531    22.6918 
  624.6876    31.9732    77.8399    22.6898 
  624.8400    31.9752    76.7182    22.6878 
  624.9924    31.9761    77.4249    22.6859 
  625.1448    31.9781    76.6501    22.6839 
  625.2972    31.9801    77.6648    22.6820 
  625.4496    31.9822    79.3135    22.6800 
  625.6020    31.9830    78.2537    22.6781 
  625.7544    31.9857    78.9259    22.6761 
  625.9068    31.9884    78.6675    22.6741 
  626.0592    31.9906    77.9268    22.6722 
  626.2116    31.9906    78.8013    22.6702 
  626.3640    31.9906    77.2971    22.6683 
  626.5164    31.9906    77.1350    22.6663 
  626.6688    31.9921    75.1759    22.6643 
  626.8212    31.9970    73.0285    22.6624 
  626.9736    32.0018    73.5611    22.6604 
  627.1260    32.0059    73.9488    22.6585 
  627.2784    32.0046    75.3243    22.6565 
  627.4308    32.0027    77.0601    22.6545 
  627.5832    32.0009    77.7459    22.6526 
  627.7356    31.9990    79.5201    25.0931 
  627.8880    31.9982    79.6729    28.3491 
  628.0404    32.0040    80.6427    34.7168 
  628.1928    32.0099    81.5391    34.7477 
  628.3452    32.0158    80.6043    33.5928 
  628.4976    32.0211    78.9522    32.6040 
  628.6500    32.0211    77.5162    31.3846 
  628.8024    32.0211    76.2159    31.2749 
  628.9548    32.0211    75.4356    32.5594 
  629.1072    32.0211    76.9060    34.3020 
  629.2596    32.0215    75.6227    35.5369 
  629.4120    32.0236    70.3298    35.9322 
  629.5644    32.0257    62.6482    32.4255 
  629.7168    32.0278    54.1618    27.1216 
  629.8692    32.0287    50.8141    25.5649 
  630.0216    32.0327    45.6936    22.3047 
  630.1740    32.0367    42.2187    20.8599 
  630.3264    32.0407    41.0903    23.3750 
  630.4788    32.0440    42.7676    25.8509 
  630.6312    32.0415    45.1893    27.1158 
  630.7836    32.0373    46.5058    32.9467 
  630.9360    32.0331    51.4089    34.3454 
  631.0884    32.0288    56.8491    35.9927 
  631.2408    32.0309    59.5101    42.6369 
  631.3932    32.0375    60.6514    45.3718 
  631.5456    32.0441    59.6290    48.6538 
  631.6980    32.0506    55.6899    52.8824 
  631.8504    32.0235    51.0154    51.1571 
  632.0028    31.9356    48.8252    41.9496 
  632.1552    31.8533    48.9803    35.7485 
  632.3076    31.8400    50.4978    32.0738 
  632.4600    31.8154    54.1504    31.2327 
  632.6124    31.7922    59.9005    29.7909 
  632.7648    31.7916    61.4610    35.2595 
  632.9172    31.7898    64.7924    42.5066 
  633.0696    31.7879    65.1963    47.3841 
  633.2220    31.7860    63.1250    51.2993 
  633.3744    31.7846    63.7001    56.0187 
  633.5268    31.7836    62.1630    56.2610 
  633.6792    31.7818    61.9629    50.1581 
  633.8316    31.7801    63.2316    45.1686 
  633.9840    31.7783    64.0407    40.2127 
  634.1364    31.7770    64.1449    36.6147 
  634.2888    31.7802    64.1869    33.9471 
  634.4412    31.7855    63.6142    33.7912 
  634.5936    31.7908    63.1660    34.0080 
  634.7460    31.7961    63.0100    33.6345 
  634.8984    31.7999    63.6096    34.0276 
  635.0508    31.7990    64.0030    34.0276 
  635.2032    31.7974    62.6289    34.3516 
  635.3556    31.7958    62.4709    34.3688 
  635.5080    31.7942    62.7110    33.9609 
  635.6604    31.7926    62.1069    34.2699 
  635.8128    31.7922    63.2197    33.9712 
  635.9652    31.7975    64.0482    34.1417 
  636.1176    31.8037    63.4365    34.3784 
  636.2700    31.8099    63.1509    34.1774 
  636.4224    31.8161    61.3860    34.0936 
  636.5748    31.8223    59.7335    34.1372 
  636.7272    31.8233    60.3384    33.9377 
  636.8796    31.8251    61.1599    34.4886 
  637.0320    31.8269    60.5843    34.0077 
  637.1844    31.8288    59.6342    34.1475 
  637.3368    31.8304    59.9793    34.2573 
  637.4892    31.8332    58.6640    33.9342 
  637.6416    31.8390    57.8789    34.0057 
  637.7940    31.8448    58.6660    33.8787 
  637.9464    31.8506    57.1302    33.7460 
  638.0988    31.8533    58.0535    33.8984 
  638.2512    31.8551    58.9838    34.0687 
  638.4036    31.8571    59.2352    34.1720 
  638.5560    31.8591    59.6916    34.2847 
  638.7084    31.8609    61.0379    34.0416 
  638.8608    31.8621    60.8969    34.1394 
  639.0132    31.8648    60.6509    34.0110 
  639.1656    31.8675    61.6594    34.0493 
  639.3180    31.8685    62.9336    34.2786 
  639.4704    31.8692    64.1306    34.0784 
  639.6228    31.8719    63.3817    34.1087 
  639.7752    31.8753    63.5867    33.6746 
  639.9276    31.8808    61.5304    33.4960 
  640.0800    31.8868    60.9217    33.1964 
  640.2324    31.8927    60.7916    33.1053 
  640.3848    31.8986    61.4867    33.2412 
  640.5372    31.8990    62.6773    33.6607 
  640.6896    31.8990    63.4418    33.9494 
  640.8420    31.8990    63.8386    34.1217 
  640.9944    31.8990    63.5908    34.3114 
  641.1468    31.8998    63.8231    34.2012 
  641.2992    31.9021    63.8023    34.1773 
  641.4516    31.9044    60.7354    34.2038 
  641.6040    31.9067    59.9079    33.5994 
  641.7564    31.9058    60.6379    35.6029 
  641.9088    31.9038    62.4834    37.0302 
  642.0612    31.9017    65.7673    36.5887 
  642.2136    31.8997    68.2699    36.8576 
  642.3660    31.8990    69.5864    37.5045 
  642.5184    31.8990    69.3179    34.1160 
  642.6708    31.8990    71.2867    34.1316 
  642.8232    31.8990    72.4815    34.1483 
  642.9756    31.8990    73.1556    33.9126 
  643.1280    31.9008    75.8357    33.8502 
  643.2804    31.9030    77.5766    33.9892 
  643.4328    31.9052    76.6097    33.7314 
  643.5852    31.9067    77.8028    33.4848 
  643.7376    31.9080    75.5964    32.7495 
  643.8900    31.9099    75.7475    32.0322 
  644.0424    31.9118    77.0754    31.9217 
  644.1948    31.9138    75.4724    31.8374 
  644.3472    31.9141    75.0135    32.1723 
  644.4996    31.9121    74.5688    32.6233 
  644.6520    31.9100    73.3318    32.5704 
  644.8044    31.9079    72.8260    32.9585 
  644.9568    31.9067    74.7989    33.1549 
  645.1092    31.9091    74.4694    33.6102 
  645.2616    31.9117    76.3184    33.6259 
  645.4140    31.9143    76.2694    33.1286 
  645.5664    31.9156    75.9917    32.6753 
  645.7188    31.9181    74.9089    32.3677 
  645.8712    31.9206    72.6778    31.8134 
  646.0236    31.9229    72.3329    31.3418 
  646.1760    31.9245    71.1665    31.6887 
  646.3284    31.9256    71.1145    30.9222 
  646.4808    31.9274    72.8422    26.4023 
  646.6332    31.9292    73.5227    23.3028 
  646.7856    31.9287    73.6329    22.6716 
  646.9380    31.9259    74.5959    64.7475 
  647.0904    31.9232    74.4500    68.7796 
  647.2428    31.9228    73.1379    82.8025 
  647.3952    31.9311    74.4493    86.0338 
  647.5476    31.9394    75.4235    42.0627 
  647.7000    31.9448    75.4867    36.4244 
  647.8524    31.9448    75.9997    36.6744 
  648.0048    31.9448    76.8234    36.6919 
  648.1572    31.9448    74.7319    37.1418 
  648.3096    31.9434    73.1642    37.4605 
  648.4620    31.9407    71.8603    37.5626 
  648.6144    31.9381    72.2520    37.7156 
  648.7668    31.9367    71.3118    37.5931 
  648.9192    31.9340    71.4790    38.1179 
  649.0716    31.9314    71.4064    38.2077 
  649.2240    31.9296    72.6757    38.1149 
  649.3764    31.9363    73.6657    38.3981 
  649.5288    31.9442    75.6224    39.0335 
  649.6812    31.9521    75.8324    39.0745 
  649.8336    31.9525    75.2408    39.0514 
  649.9860    31.9525    74.5591    39.1345 
  650.1384    31.9525    74.2373    40.7348 
  650.2908    31.9536    73.1145    44.4441 
  650.4432    31.9589    73.6749    46.8142 
  650.5956    31.9642    72.2875    49.9504 
  650.7480    31.9695    72.6139    50.8724 
  650.9004    31.9724    73.8389    48.2473 
