~VERSION INFORMATION
VERS  .       2.0                       : CWLS LOG ASCII STANDARD - VERSION 2.0
WRAP  .       NO                        : One line per depth step
~WELL INFORMATION
#MNEM .UNIT   DATA                      : DESCRIPTION OF MNEMONIC
#-----.----   ----                      : -----------------------
STRT  .m         0.0000                 : Start
STOP  .m      1565.6052                 : Stop
STEP  .m         0.1524                 : Step increment
NULL  .       -999.2500                 : Null value
COMP  .       TAG OIL                   : Company
WELL  .       CHEAL A-10                : Well
FLD   .       Cheal                     : Field
LOC   .                                 : Location
SRVC  .                                 : Service company
DATE  .       3/2/2012                  : Logging date
CNTY  .       STRATFORD                 : County
STAT  .       TARANAKI                  : State
CTRY  .       NEW ZEALAND               : Country
API   .                                 : API number
~CURVE INFORMATION
#MNEM .UNIT   API CODE                  : CURVE DESCRIPTION
#-----.----   --------                  : -----------------
DEPT  .m                                : Measured Depth
T-TEMP.°C                               : Tool Temperature
GR    .aapi                             : Gamma Ray
ROP   .m/hr                             : Rate of Penetration
~PARAMETER INFORMATION
#MNEM .UNIT   VALUE                     : DESCRIPTION
#-----.----   -----                     : -----------
~OTHER INFORMATION
MEMORY LOG
~A  DEPT     T-TEMP         GR        ROP   
# ...
  515.4168    30.0146    63.2616    36.4280 
  515.5692    29.9790    62.5637    36.2178 
  515.7216    29.9330    63.0937    36.3768 
  515.8740    29.8869    62.8198    36.2855 
  516.0264    29.8544    62.8062    36.1338 
  516.1788    29.8688    63.9361    36.1621 
  516.3312    29.8899    65.8167    36.3237 
  516.4836    29.9078    65.9558    36.2619 
  516.6360    29.9125    65.4036    36.1683 
  516.7884    29.9219    65.7626    36.2504 
  516.9408    29.9314    63.9094    35.3253 
  517.0932    29.9409    62.8621    34.7841 
  517.2456    29.9460    64.8855    34.2044 
  517.3980    29.9535    66.2603    33.7751 
  517.5504    29.9633    66.5282    33.8976 
  517.7028    29.9731    67.2478    33.8147 
  517.8552    29.9829    66.5109    33.8492 
  518.0076    29.9857    67.0110    34.0946 
  518.1600    29.9952    68.2211    33.9280 
  518.3124    30.0048    69.3726    34.0172 
  518.4648    30.0143    68.9468    34.0343 
  518.6172    30.0223    70.8970    33.8773 
  518.7696    30.0281    72.7830    33.5824 
  518.9220    30.0373    72.5574    33.9679 
  519.0744    30.0466    72.2229    33.9774 
  519.2268    30.0558    71.0292    33.9586 
  519.3792    30.0604    69.5903    34.1880 
  519.5316    30.0709    68.9984    34.4298 
  519.6840    30.0826    68.6189    33.7790 
  519.8364    30.0942    69.7605    33.8992 
  519.9888    30.1059    70.2689    33.6905 
  520.1412    30.1092    69.8899    33.7740 
  520.2936    30.1172    71.1025    33.8924 
  520.4460    30.1251    70.9446    34.2420 
  520.5984    30.1325    70.7070    34.3900 
  520.7508    30.1392    70.3606    34.2562 
  520.9032    30.1511    70.2246    33.9950 
  521.0556    30.1638    69.2546    33.8852 
  521.2080    30.1705    70.5698    34.1250 
  521.3604    30.1748    71.6162    34.2338 
  521.5128    30.1791    71.4196    34.2620 
  521.6652    30.1825    70.9420    34.3187 
  521.8176    30.1914    72.4597    34.0850 
  521.9700    30.2030    70.9918    33.8496 
  522.1224    30.2146    71.5403    33.8773 
  522.2748    30.2206    73.4883    33.9785 
  522.4272    30.2270    73.7584    34.0233 
  522.5796    30.2341    72.6974    34.0317 
  522.7320    30.2412    71.7852    33.8416 
  522.8844    30.2461    70.9971    34.0715 
  523.0368    30.2577    69.5499    33.9984 
  523.1892    30.2693    68.7925    34.1058 
  523.3416    30.2746    69.3686    34.1047 
  523.4940    30.2791    69.2137    33.7862 
  523.6464    30.2836    70.2452    33.3883 
  523.7988    30.2880    69.8923    33.9696 
  523.9512    30.2901    71.8831    34.3573 
  524.1036    30.2968    72.2618    34.6816 
  524.2560    30.3035    72.9684    35.1733 
  524.4084    30.3102    73.1937    34.8237 
  524.5608    30.3126    72.6402    34.4166 
  524.7132    30.3148    70.5621    34.7309 
  524.8656    30.3169    69.2914    34.7310 
  525.0180    30.3191    69.6551    34.8226 
  525.1704    30.3219    71.7546    34.9366 
  525.3228    30.3331    74.4427    34.7535 
  525.4752    30.3442    75.4115    34.0307 
  525.6276    30.3554    76.5395    33.8609 
  525.7800    30.3575    76.7505    33.8982 
  525.9324    30.3553    75.4103    34.1175 
  526.0848    30.3531    75.0055    34.1254 
  526.2372    30.3509    74.2392    34.9470 
  526.3896    30.3510    72.9259    34.8768 
  526.5420    30.3569    69.0396    34.6865 
  526.6944    30.3629    67.8998    28.4726 
  526.8468    30.3710    66.9899    26.0287 
  526.9992    30.3785    66.7205    25.6362 
  527.1516    30.3823    70.3195    26.0105 
  527.3040    30.3847    72.3772    30.4396 
  527.4564    30.3909    73.4455    36.3484 
  527.6088    30.3971    75.2646    37.8834 
  527.7612    30.4033    77.0720    39.3261 
  527.9136    30.4037    73.8887    42.9158 
  528.0660    30.4037    72.7304    44.1724 
  528.2184    30.4037    71.1027    45.1492 
  528.3708    30.4037    69.7336    44.8796 
  528.5232    30.4080    72.1182    41.3002 
  528.6756    30.4151    73.0134    40.4676 
  528.8280    30.4222    72.4549    40.6261 
  528.9804    30.4266    72.3697    41.1137 
  529.1328    30.4287    71.1727    40.2440 
  529.2852    30.4312    71.8231    39.9894 
  529.4376    30.4337    71.3226    38.2762 
  529.5900    30.4336    71.3552    35.9711 
  529.7424    30.4310    70.9522    34.1292 
  529.8948    30.4285    69.9102    33.8193 
  530.0472    30.4266    70.4979    26.2882 
  530.1996    30.4318    71.7942    24.3693 
  530.3520    30.4393    71.7059    24.1333 
  530.5044    30.4467    72.6909    23.9833 
  530.6568    30.4499    72.1851    29.6091 
  530.8092    30.4528    71.5099    34.4345 
  530.9616    30.4556    72.4316    36.7737 
  531.1140    30.4573    72.7067    36.8782 
  531.2664    30.4603    73.7938    36.7457 
  531.4188    30.4633    74.5898    36.7780 
  531.5712    30.4647    73.2131    36.0522 
  531.7236    30.4647    73.3235    35.7752 
  531.8760    30.4647    74.1097    35.3559 
  532.0284    30.4674    74.1773    35.2561 
  532.1808    30.4698    74.4947    35.1130 
  532.3332    30.4698    74.8903    35.1775 
  532.4856    30.4786    75.0034    35.5090 
  532.6380    30.4844    75.1634    35.1383 
  532.7904    30.4851    74.4442    35.2732 
  532.9428    30.4881    73.2735    35.3067 
  533.0952    30.4919    72.2098    35.4637 
  533.2476    30.4952    71.2888    35.0501 
  533.4000    30.4973    71.8334    35.5648 
  533.5524    30.5001    73.7333    35.4525 
  533.7048    30.5029    74.7443    35.1276 
  533.8572    30.5086    77.1689    36.0109 
  534.0096    30.5178    78.3699    36.4295 
  534.1620    30.5258    78.5891    35.4188 
  534.3144    30.5258    79.0266    35.1971 
  534.4668    30.5258    78.3513    34.5657 
  534.6192    30.5258    77.3939    34.4712 
  534.7716    30.5280    78.2084    34.6205 
  534.9240    30.5308    78.4135    34.5321 
  535.0764    30.5335    78.5618    34.5377 
  535.2288    30.5363    79.0514    34.8338 
  535.3812    30.5391    80.2175    34.2489 
  535.5336    30.5419    81.4596    33.7294 
  535.6860    30.5447    83.0977    32.4974 
  535.8384    30.5475    84.2337    31.0417 
  535.9908    30.5503    83.6196    30.3354 
  536.1432    30.5530    82.7470    30.6403 
  536.2956    30.5558    80.8782    30.2388 
  536.4480    30.5586    80.9782    30.3442 
  536.6004    30.5614    84.3603    30.0993 
  536.7528    30.5642    84.5137    29.5551 
  536.9052    30.5670    86.0259    30.2537 
  537.0576    30.5698    84.5592    30.2057 
  537.2100    30.5715    83.5107    30.4961 
  537.3624    30.5842    81.1327    29.0434 
  537.5148    30.5994    82.6202    26.7415 
  537.6672    30.6146    85.3398    25.5719 
  537.8196    30.6197    86.7338    24.2514 
  537.9720    30.6278    87.0615    24.3333 
  538.1244    30.6358    86.5008    26.2371 
  538.2768    30.6403    84.2270    27.5623 
  538.4292    30.6486    83.9842    29.8288 
  538.5816    30.6569    82.5461    31.1946 
  538.7340    30.6695    82.7514    30.5075 
  538.8864    30.6813    82.9567    30.6720 
  539.0388    30.6908    83.1620    30.2066 
  539.1912    30.7026    83.3673    29.9225 
  539.3436    30.7160    83.5726    30.1326 
  539.4960    30.7298    83.7779    30.5538 
  539.6484    30.7394    83.9832    30.3497 
  539.8008    30.7419    84.1885    30.6729 
  539.9532    30.7458    84.3938    30.3769 
  540.1056    30.7498    84.5991    30.3736 
  540.2580    30.7537    84.8044    30.4766 
  540.4104    30.7576    85.0097    30.7174 
  540.5628    30.7616    85.2150    30.6143 
  540.7152    30.7623    85.4203    30.9869 
  540.8676    30.7674    84.3274    30.9156 
  541.0200    30.7749    83.3650    31.2813 
  541.1724    30.7823    82.3528    31.1619 
  541.3248    30.7897    80.3169    30.8792 
  541.4772    30.7928    81.5769    30.3749 
  541.6296    30.7967    82.8260    29.8737 
  541.7820    30.8006    83.8094    29.4486 
  541.9344    30.8046    82.3859    28.9120 
  542.0868    30.8080    81.4138    28.8503 
  542.2392    30.8102    81.4580    29.1594 
  542.3916    30.8142    81.3185    28.9908 
