~VERSION INFORMATION
VERS  .       2.0                       : CWLS LOG ASCII STANDARD - VERSION 2.0
WRAP  .       NO                        : One line per depth step
~WELL INFORMATION
#MNEM .UNIT   DATA                      : DESCRIPTION OF MNEMONIC
#-----.----   ----                      : -----------------------
STRT  .m         0.0000                 : Start
STOP  .m      1565.6052                 : Stop
STEP  .m         0.1524                 : Step increment
NULL  .       -999.2500                 : Null value
COMP  .       TAG OIL                   : Company
WELL  .       CHEAL A-10                : Well
FLD   .       Cheal                     : Field
LOC   .                                 : Location
SRVC  .                                 : Service company
DATE  .       3/2/2012                  : Logging date
CNTY  .       STRATFORD                 : County
STAT  .       TARANAKI                  : State
CTRY  .       NEW ZEALAND               : Country
API   .                                 : API number
~CURVE INFORMATION
#MNEM .UNIT   API CODE                  : CURVE DESCRIPTION
#-----.----   --------                  : -----------------
DEPT  .m                                : Measured Depth
T-TEMP.°C                               : Tool Temperature
GR    .aapi                             : Gamma Ray
ROP   .m/hr                             : Rate of Penetration
~PARAMETER INFORMATION
#MNEM .UNIT   VALUE                     : DESCRIPTION
#-----.----   -----                     : -----------
~OTHER INFORMATION
MEMORY LOG
~A  DEPT     T-TEMP         GR        ROP   
# ...
 1546.2504    43.6803    93.6661    16.8296 
 1546.4028    43.6762    92.6182    16.4652 
 1546.5552    43.6806    91.6667    15.6835 
 1546.7076    43.6847    91.1114    14.8662 
 1546.8600    43.6858    92.4518    14.6534 
 1547.0124    43.6913    91.9714    14.1990 
 1547.1648    43.6894    91.8504    13.8686 
 1547.3172    43.6894    92.9137    13.8549 
 1547.4696    43.6933    93.9630    14.1266 
 1547.6220    43.6908    95.4503    14.1879 
 1547.7744    43.6926    95.4348    14.5173 
 1547.9268    43.6936    95.9481    14.4437 
 1548.0792    43.6922    96.6948    14.5313 
 1548.2316    43.6987    97.5174    14.4076 
 1548.3840    43.7021    97.1822    13.9138 
 1548.5364    43.7092    97.5619    14.1980 
 1548.6888    43.7075    96.5868    14.4415 
 1548.8412    43.7097    95.6019    12.8225 
 1548.9936    43.7146    95.7371    15.0546 
 1549.1460    43.7193    97.0686    17.2754 
 1549.2984    43.7281    97.1799    18.5087 
 1549.4508    43.7359    99.2146    20.8984 
 1549.6032    43.7438    99.3732    20.9328 
 1549.7556    43.7503    96.7756    20.7281 
 1549.9080    43.7533    96.2381    19.7469 
 1550.0604    43.7523    94.6904    19.6035 
 1550.2128    43.7584    93.5398    19.6748 
 1550.3652    43.7598    94.0578    19.7747 
 1550.5176    43.7668    93.7590    19.7642 
 1550.6700    43.7708    93.7384    19.9431 
 1550.8224    43.7756    93.8816    20.0164 
 1550.9748    43.7823    94.9180    19.9671 
 1551.1272    43.7855    97.1690    20.0192 
 1551.2796    43.7900    97.8893    20.3714 
 1551.4320    43.8212    97.4717    20.2352 
 1551.5844    43.8524    95.5532    20.2827 
 1551.7368    43.8658    92.8272    20.3186 
 1551.8892    43.8797    92.3243    19.8740 
 1552.0416    43.8923    93.4445    19.6315 
 1552.1940    43.9001    94.7542    19.7677 
 1552.3464    43.9103    96.9357    19.1662 
 1552.4988    43.9163    96.6769    19.5909 
 1552.6512    43.9231    95.1842    19.6436 
 1552.8036    43.9298    94.0673    19.5353 
 1552.9560    43.9376    93.5860    19.9035 
 1553.1084    43.9512    91.1517    19.9155 
 1553.2608    43.9609    90.7035    19.8526 
 1553.4132    43.9729    91.0524    19.8333 
 1553.5656    43.9861    91.5581    19.8179 
 1553.7180    43.9969    91.7761    19.6446 
 1553.8704    44.0206    92.4270    19.4639 
 1554.0228    44.0443    92.3522    19.2481 
 1554.1752    44.0449    91.2883    19.4115 
 1554.3276    44.0449    90.8099    19.3390 
 1554.4800    44.0450    91.4662    18.9388 
 1554.6324    44.0527    91.2196    19.0929 
 1554.7848    44.0684    92.3738    18.8472 
 1554.9372    44.0792    94.2975    18.4641 
 1555.0896    44.0914    92.6022    18.1970 
 1555.2420    44.0968    94.1128    18.2364 
 1555.3944    44.1124    97.3867    17.9578 
 1555.5468    44.1206    98.6055    18.3352 
 1555.6992    44.1256    98.9409    18.7203 
 1555.8516    44.1479    99.3794    18.7387 
 1556.0040    44.1504    97.9038    19.0349 
 1556.1564    44.1631    96.0841    18.7818 
 1556.3088    44.1631    94.7246    18.7952 
 1556.4612    44.1735    94.0595    19.0561 
 1556.6136    44.1872    95.2590    19.1963 
 1556.7660    44.2002    94.6018    19.4450 
 1556.9184    44.2217    95.6939    19.6881 
 1557.0708    44.2290    95.5743    17.8977 
 1557.2232    44.2437    93.7346    19.8762 
 1557.3756    44.2488    92.6544    22.3834 
 1557.5280    44.2551    91.7646    23.2655 
 1557.6804    44.2627    89.7393    24.5075 
 1557.8328    44.2679    88.4412    24.1189 
 1557.9852    44.2880    88.5313    22.3246 
 1558.1376    44.2958    88.8804    21.5941 
 1558.2900    44.3044    89.5466    21.2882 
 1558.4424    44.3064    91.4710    21.9256 
 1558.5948    44.3155    92.7907    23.4132 
 1558.7472    44.3195    92.7681    22.8502 
 1558.8996    44.3271    93.0604    23.0711 
 1559.0520    44.3352    93.5494    23.2074 
 1559.2044    44.3451    92.7990    22.1496 
 1559.3568    44.3500    92.3714    22.1955 
 1559.5092    44.3500    93.3404    21.9237 
 1559.6616    44.3589    94.1468    21.2358 
 1559.8140    44.3623    96.6275    20.5947 
 1559.9664    44.3693    97.6831    19.3414 
 1560.1188    44.3811    97.7906    21.2696 
 1560.2712    44.3882    96.9605    21.8783 
 1560.4236    44.3965    97.7914    21.1407 
 1560.5760    44.3990    98.9693    21.1319 
 1560.7284    44.4074    99.9206    19.0331 
 1560.8808    44.4152   100.8486    16.2840 
 1561.0332    44.4199   100.5910    16.4432 
 1561.1856    44.4284    99.8979    15.6093 
 1561.3380    44.4349    99.1111    16.0872 
 1561.4904    44.4413    98.3020    16.0094 
 1561.6428    44.4500    97.4639    16.0906 
 1561.7952    44.4638    96.9595    16.0685 
 1561.9476  -999.2500    96.3857    16.0601 
 1562.1000  -999.2500    96.4682    15.6207 
 1562.2524  -999.2500    95.4241    15.4150 
 1562.4048  -999.2500    95.3434    15.5402 
 1562.5572  -999.2500    96.1002    15.6896 
 1562.7096  -999.2500    96.6184    15.3539 
 1562.8620  -999.2500    95.9645    15.7719 
 1563.0144  -999.2500    96.7586    16.2072 
 1563.1668  -999.2500    95.6978    16.1145 
 1563.3192  -999.2500    92.3222    16.7634 
 1563.4716  -999.2500    91.6551    16.7679 
 1563.6240  -999.2500    90.5162    16.6102 
 1563.7764  -999.2500    88.2598    16.8735 
 1563.9288  -999.2500    88.3774    16.6364 
 1564.0812  -999.2500    91.7227    16.8517 
 1564.2336  -999.2500    91.9750    16.9199 
 1564.3860  -999.2500    94.5869    16.2384 
 1564.5384  -999.2500    95.4191    16.0774 
 1564.6908  -999.2500    95.7420    15.9659 
 1564.8432  -999.2500    94.7063    15.5704 
 1564.9956  -999.2500    94.6553    15.9178 
 1565.1480  -999.2500    94.8140    16.0462 
 1565.3004  -999.2500    95.6320    15.9526 
 1565.4528  -999.2500    95.2426    15.6979 
 1565.6052  -999.2500    95.3703    15.5647 
