~VERSION INFORMATION
VERS  .       2.0                       : CWLS LOG ASCII STANDARD - VERSION 2.0
WRAP  .       NO                        : One line per depth step
~WELL INFORMATION
#MNEM .UNIT   DATA                      : DESCRIPTION OF MNEMONIC
#-----.----   ----                      : -----------------------
STRT  .m         0.0000                 : Start
STOP  .m      1565.6052                 : Stop
STEP  .m         0.1524                 : Step increment
NULL  .       -999.2500                 : Null value
COMP  .       TAG OIL                   : Company
WELL  .       CHEAL A-10                : Well
FLD   .       Cheal                     : Field
LOC   .                                 : Location
SRVC  .                                 : Service company
DATE  .       3/2/2012                  : Logging date
CNTY  .       STRATFORD                 : County
STAT  .       TARANAKI                  : State
CTRY  .       NEW ZEALAND               : Country
API   .                                 : API number
~CURVE INFORMATION
#MNEM .UNIT   API CODE                  : CURVE DESCRIPTION
#-----.----   --------                  : -----------------
DEPT  .m                                : Measured Depth
T-TEMP.°C                               : Tool Temperature
GR    .aapi                             : Gamma Ray
ROP   .m/hr                             : Rate of Penetration
~PARAMETER INFORMATION
#MNEM .UNIT   VALUE                     : DESCRIPTION
#-----.----   -----                     : -----------
~OTHER INFORMATION
MEMORY LOG
~A  DEPT     T-TEMP         GR        ROP   
# ...
 1139.3424    36.2251    72.5958    -0.0000 
 1139.4948    36.2262    72.4043    -0.0000 
 1139.6472    36.2272    72.0499    -0.0000 
 1139.7996    36.2287    75.5540    -0.0000 
 1139.9520    36.2301    76.3896    -0.0000 
 1140.1044    36.2341    76.7308    -0.0000 
 1140.2568    36.2379    77.5807    -0.0000 
 1140.4092    36.2401    76.1125    -0.0000 
 1140.5616    36.2478    73.5310    -0.0000 
 1140.7140    36.2478    68.6086    -0.0000 
 1140.8664    36.2478    63.2111    -0.0000 
 1141.0188    36.2509    60.6721    -0.0000 
 1141.1712    36.2570    61.8714    -0.0000 
 1141.3236    36.2622    66.8711    -0.0000 
 1141.4760    36.2614    74.4009    -0.0000 
 1141.6284    36.2627    82.4036    -0.0000 
 1141.7808    36.2605    84.1111    -0.0000 
 1141.9332    36.2611    83.5377    -0.0000 
 1142.0856    36.2618    82.5033    -0.0000 
 1142.2380    36.2626    82.0833    -0.0000 
 1142.3904    36.2630    79.2809    -0.0000 
 1142.5428    36.2657    76.5054    -0.0000 
 1142.6952    36.2694    72.9924    -0.0000 
 1142.8476    36.2730    71.8069    -0.0000 
 1143.0000    36.2767    71.1563     0.0000 
 1143.1524    36.2783    71.8121     0.0000 
 1143.3048    36.2804    73.9131     0.0000 
 1143.4572    36.2825    74.9239     0.0000 
 1143.6096    36.2847    75.7669     0.0000 
 1143.7620    36.2859    77.5826     0.0000 
 1143.9144    36.2897    77.5443     0.0000 
 1144.0668    36.2938    73.4245     0.0000 
 1144.2192    36.2980    70.0296     0.0000 
 1144.3716    36.3012    68.5109     0.0000 
 1144.5240    36.3040    68.8803     0.0000 
 1144.6764    36.3090    72.4286     0.0000 
 1144.8288    36.3140    75.3453     0.0000 
 1144.9812    36.3164    77.0898     0.0000 
 1145.1336    36.3189    78.4344     0.0000 
 1145.2860    36.3214    79.6849     0.0000 
 1145.4384    36.3239    80.8907     0.0000 
 1145.5908    36.3254    81.7740     0.0000 
 1145.7432    36.3311    82.8542     0.0000 
 1145.8956    36.3368    83.8365     0.0000 
 1146.0480    36.3425    83.9728     0.0000 
 1146.2004    36.3469    85.6365     0.0000 
 1146.3528    36.3519    86.5745     0.0000 
 1146.5052    36.3595    86.9967     0.0000 
 1146.6576    36.3670    88.3877     0.0000 
 1146.8100    36.3699    90.1535     0.0000 
 1146.9624    36.3755    92.4344     0.0000 
 1147.1148    36.3811    92.2952     0.0000 
 1147.2672    36.3851    91.3660     0.0000 
 1147.4196    36.3851    89.3048     0.0000 
 1147.5720    36.3892    87.5504     0.0000 
 1147.7244    36.3942    84.2520     0.0000 
 1147.8768    36.3932    82.3644     0.0000 
 1148.0292    36.3977    81.7660     0.0000 
 1148.1816    36.4022    82.7750     0.0000 
 1148.3340    36.4062    82.2329     0.0000 
 1148.4864    36.4101    82.8797     0.0000 
 1148.6388    36.4222    84.0749     0.0000 
 1148.7912    36.4308    83.4874     0.0000 
 1148.9436    36.4388    81.9598     0.0000 
 1149.0960    36.4469    82.7116     0.0000 
 1149.2484    36.4538    80.7543     0.0000 
 1149.4008    36.4568    80.2209     0.0000 
 1149.5532    36.4628    80.4950     0.0000 
 1149.7056    36.4688    81.4393     0.0000 
 1149.8580    36.4748    81.5390     0.0000 
 1150.0104    36.4768    84.6518     0.0000 
 1150.1628    36.4807    85.0494     2.0950 
 1150.3152    36.4847    84.5386     6.4647 
 1150.4676    36.4886    84.2156    20.7097 
 1150.6200    36.4919    82.8845    26.8853 
 1150.7724    36.4958    83.5504    27.7822 
 1150.9248    36.5028    84.3145    23.7765 
 1151.0772    36.5099    83.7348    21.0259 
 1151.2296    36.5169    84.7875    16.9660 
 1151.3820    36.5342    83.6414    16.7315 
 1151.5344    36.5416    82.2562    17.2522 
 1151.6868    36.5547    81.9481    17.2550 
 1151.8392    36.5780    82.9915    17.7321 
 1151.9916    36.6032    82.3214    17.9163 
 1152.1440    36.6073    82.6169    19.5993 
 1152.2964    36.6114    83.5946    21.2230 
 1152.4488    36.6186    83.5767    22.0947 
 1152.6012    36.6259    85.7335    23.2063 
 1152.7536    36.6331    85.8560    23.6201 
 1152.9060    36.6368    85.3593    21.9106 
 1153.0584    36.6438    83.2107    21.5289 
 1153.2108    36.6518    80.5966    21.8835 
 1153.3632    36.6599    75.4384    23.0373 
 1153.5156    36.6673    73.7144    24.6011 
 1153.6680    36.6673    74.2909    25.0873 
 1153.8204    36.6673    76.1823    24.9537 
 1153.9728    36.6673    80.7144    21.8456 
 1154.1252    36.6673    81.1783    19.8232 
 1154.2776    36.6675    79.7622    21.5391 
 1154.4300    36.6756    76.4187    25.0262 
 1154.5824    36.6836    67.6990    30.8917 
 1154.7348    36.6916    63.9664    40.3370 
 1154.8872    36.6978    64.2774    44.4710 
 1155.0396    36.7069    64.0017    45.2310 
 1155.1920    36.7204    65.3278    44.8445 
 1155.3444    36.7339    65.5986    45.2726 
 1155.4968    36.7370    65.2191    45.2593 
 1155.6492    36.7360    65.3703    44.8936 
 1155.8016    36.7268    65.1165    44.6229 
 1155.9540    36.7203    65.4139    45.8054 
 1156.1064    36.7164    64.6250    46.0648 
 1156.2588    36.7169    63.8407    40.2070 
 1156.4112    36.7169    62.8535    31.1757 
 1156.5636    36.7151    60.6026    28.5771 
 1156.7160    36.7131    61.2539    26.2332 
 1156.8684    36.7160    61.7511    25.5409 
 1157.0208    36.7273    62.7560    34.3016 
 1157.1732    36.7332    62.6978    37.5208 
 1157.3256    36.7425    62.9826    38.0241 
 1157.4780    36.7506    64.5364    37.7207 
 1157.6304    36.7565    66.4245    36.8099 
 1157.7828    36.7614    68.3319    35.7595 
 1157.9352    36.7684    70.2917    34.7447 
 1158.0876    36.7760    74.8518    33.1143 
 1158.2400    36.7818    76.1073    31.5013 
 1158.3924    36.7818    76.7117    30.5556 
 1158.5448    36.7907    76.9129    29.7268 
 1158.6972    36.7928    77.1624    30.0376 
 1158.8496    36.7967    74.0563    31.6786 
 1159.0020    36.8057    73.2406    33.5939 
 1159.1544    36.8138    72.5818    35.8020 
 1159.3068    36.8194    71.9457    33.8768 
 1159.4592    36.8253    72.8122    30.2108 
 1159.6116    36.8310    74.0829    28.5307 
 1159.7640    36.8360    75.6611    26.3337 
 1159.9164    36.8389    75.6808    25.3099 
 1160.0688    36.8438    75.6915    28.0528 
 1160.2212    36.8495    76.5072    29.4386 
 1160.3736    36.8579    76.2019    31.8840 
 1160.5260    36.8647    76.9087    34.4101 
 1160.6784    36.8704    77.1025    35.8649 
 1160.8308    36.8757    76.2214    34.3384 
 1160.9832    36.8809    75.2496    31.2443 
 1161.1356    36.8852    73.9746    30.0652 
 1161.2880    36.8965    73.4857    29.8720 
 1161.4404    36.9077    73.3870    29.3896 
 1161.5928    36.9100    71.9533    31.2984 
 1161.7452    36.9077    72.7738    33.9256 
 1161.8976    36.9135    74.4990    33.9069 
 1162.0500    36.9162    76.5209    34.0891 
 1162.2024    36.9191    76.8882    36.0783 
 1162.3548    36.9432    76.3370    37.2363 
 1162.5072    36.9783    77.1577    36.7478 
 1162.6596    36.9954    75.8036    35.3606 
 1162.8120    37.0000    73.4760    30.8184 
 1162.9644    37.0055    72.3741    24.8267 
 1163.1168    37.0109    70.7260    23.4208 
 1163.2692    37.0164    67.8243    23.0002 
 1163.4216    37.0183    66.5590    23.7857 
 1163.5740    37.0183    64.4063    30.5587 
 1163.7264    37.0183    63.0136    33.9243 
 1163.8788    37.0183    64.9583    34.0529 
 1164.0312    37.0183    66.3970    34.0050 
 1164.1836    37.0194    66.8107    33.6849 
 1164.3360    37.0275    68.2073    33.6459 
 1164.4884    37.0355    66.5394    33.8832 
 1164.6408    37.0435    66.2083    33.9281 
 1164.7932    37.0488    65.1319    34.1789 
 1164.9456    37.0567    64.3536    34.3075 
 1165.0980    37.0673    66.1973    34.4581 
 1165.2504    37.0717    67.0163    34.2245 
 1165.4028    37.0717    67.4664    34.3676 
 1165.5552    37.0833    69.1881    34.2071 
 1165.7076    37.1105    66.5522    34.0871 
 1165.8600    37.1327    65.6152    33.7027 
 1166.0124    37.1343    65.1514    26.3280 
 1166.1648    37.1376    65.9631    19.2256 
 1166.3172    37.1404    67.9795    15.0294 
