~VERSION INFORMATION
VERS  .       2.0                       : CWLS LOG ASCII STANDARD - VERSION 2.0
WRAP  .       NO                        : One line per depth step
~WELL INFORMATION
#MNEM .UNIT   DATA                      : DESCRIPTION OF MNEMONIC
#-----.----   ----                      : -----------------------
STRT  .m         0.0000                 : Start
STOP  .m      1565.6052                 : Stop
STEP  .m         0.1524                 : Step increment
NULL  .       -999.2500                 : Null value
COMP  .       TAG OIL                   : Company
WELL  .       CHEAL A-10                : Well
FLD   .       Cheal                     : Field
LOC   .                                 : Location
SRVC  .                                 : Service company
DATE  .       3/2/2012                  : Logging date
CNTY  .       STRATFORD                 : County
STAT  .       TARANAKI                  : State
CTRY  .       NEW ZEALAND               : Country
API   .                                 : API number
~CURVE INFORMATION
#MNEM .UNIT   API CODE                  : CURVE DESCRIPTION
#-----.----   --------                  : -----------------
DEPT  .m                                : Measured Depth
T-TEMP.°C                               : Tool Temperature
GR    .aapi                             : Gamma Ray
ROP   .m/hr                             : Rate of Penetration
~PARAMETER INFORMATION
#MNEM .UNIT   VALUE                     : DESCRIPTION
#-----.----   -----                     : -----------
~OTHER INFORMATION
MEMORY LOG
~A  DEPT     T-TEMP         GR        ROP   
# ...
  298.3992    26.1994    76.1530    13.0904 
  298.5516    26.2045    75.5410    12.9528 
  298.7040    26.2070    76.0732    13.8277 
  298.8564    26.2087    76.0426    14.4711 
  299.0088    26.2112    77.1081    14.4238 
  299.1612    26.2078    77.1647    14.6293 
  299.3136    26.2104    75.5191    14.5199 
  299.4660    26.2110    75.0381    14.3687 
  299.6184    26.2096    75.0285    14.6226 
  299.7708    26.2122    75.2514    14.7157 
  299.9232    26.2189    75.6975    14.6829 
  300.0756    26.2214    76.2547    14.8626 
  300.2280    26.2129    76.0004    14.7722 
  300.3804    26.2153    74.8472    14.5967 
  300.5328    26.2177    74.2897    14.5203 
  300.6852    26.2251    74.2794    14.5993 
  300.8376    26.2290    75.2616    14.6657 
  300.9900    26.2291    74.7980    14.7390 
  301.1424    26.2325    75.0817    14.6949 
  301.2948    26.2343    75.2177    14.5832 
  301.4472    26.2354    76.0358    14.2262 
  301.5996    26.2438    75.9806    13.9782 
  301.7520    26.2515    76.5156    13.8815 
  301.9044    26.2483    77.6773    13.8864 
  302.0568    26.2483    77.0555    13.7852 
  302.2092    26.2486    76.1631    14.0384 
  302.3616    26.2538    76.2940    14.3539 
  302.5140    26.2585    73.1678    14.7350 
  302.6664    26.2626    74.1992    15.0308 
  302.8188    26.2679    75.3940    15.0122 
  302.9712    26.2634    75.1157    14.9402 
  303.1236    26.2599    76.3549    15.1546 
  303.2760    26.2506    76.4742    14.9641 
  303.4284    26.2305    76.1364    15.0117 
  303.5808    26.2252    76.3049    14.9242 
  303.7332    26.2172    76.2584    14.6224 
  303.8856    26.2134    75.8788    14.3037 
  304.0380    26.2096    76.1415    14.2738 
  304.1904    26.2075    76.9972    14.2015 
  304.3428    26.2047    77.7254    14.3679 
  304.4952    26.2020    77.3771    14.3311 
  304.6476    26.2000    76.9841    14.3751 
  304.8000    26.2067    76.5866    12.9790 
  304.9524    26.2150    75.0073    12.5485 
  305.1048    26.2229    74.3055    13.9629 
  305.2572    26.2247    74.2260    15.9167 
  305.4096    26.2274    74.3538    19.2412 
  305.5620    26.2301    75.0030    23.3881 
  305.7144    26.2293    76.3668    22.9495 
  305.8668    26.2264    77.5046    21.5873 
  306.0192    26.2236    77.0406    20.0821 
  306.1716    26.2276    77.4472    18.5551 
  306.3240    26.2446    76.3396    17.7505 
  306.4764    26.2616    76.9032    18.3016 
  306.6288    26.2686    77.3245    18.5036 
  306.7812    26.2686    77.6692    18.4760 
  306.9336    26.2686    77.0921    18.2019 
  307.0860    26.2740    78.2981    18.0609 
  307.2384    26.2765    77.1904    17.9787 
  307.3908    26.2792    77.0166    17.7609 
  307.5432    26.2839    77.3765    18.1852 
  307.6956    26.2839    77.3563    18.2558 
  307.8480    26.2859    77.3517    18.1995 
  308.0004    26.2915    76.9559    18.4849 
  308.1528    26.2971    76.8119    18.6422 
  308.3052    26.2996    76.3344    18.5584 
  308.4576    26.3024    77.2187    18.4596 
  308.6100    26.3052    76.7894    18.0920 
  308.7624    26.3068    76.6582    18.1389 
  308.9148    26.3123    77.5200    17.7950 
  309.0672    26.3178    76.8949    17.7643 
  309.2196    26.3221    75.9757    17.6867 
  309.3720    26.3196    76.3347    17.8171 
  309.5244    26.3167    77.1260    17.8329 
  309.6768    26.3144    75.5688    18.1950 
  309.8292    26.3217    76.4101    18.1933 
  309.9816    26.3307    75.4933    18.1110 
  310.1340    26.3373    74.7356    18.1296 
  310.2864    26.3399    75.2849    17.9392 
  310.4388    26.3430    73.6388    18.0695 
  310.5912    26.3449    73.7625    18.2073 
  310.7436    26.3531    74.5461    18.2678 
  310.8960    26.3617    75.6032    18.1398 
  311.0484    26.3678    77.0975    17.9953 
  311.2008    26.3631    76.7583    18.2233 
  311.3532    26.3575    76.0191    18.2952 
  311.5056    26.3526    74.7383    18.4593 
  311.6580    26.3589    75.7823    18.7578 
  311.8104    26.3674    76.7606    18.2562 
  311.9628    26.3755    77.1819    17.9831 
  312.1152    26.3738    76.6285    18.0237 
  312.2676    26.3712    74.7446    17.7653 
  312.4200    26.3771    75.0192    17.8605 
  312.5724    26.3801    75.4384    18.0716 
  312.7248    26.3810    75.7265    18.0013 
  312.8772    26.3848    75.9044    17.9985 
  313.0296    26.3885    76.0338    18.1667 
  313.1820    26.3907    75.2017    18.1471 
  313.3344    26.3935    74.8845    17.8901 
  313.4868    26.3964    75.6016    17.8840 
  313.6392    26.3983    75.5639    17.7870 
  313.7916    26.4009    76.4860    17.6273 
  313.9440    26.4038    78.5272    17.8493 
  314.0964    26.4060    80.3193    17.7479 
  314.2488    26.4010    79.5620    17.4850 
  314.4012    26.3952    78.5260    17.6416 
  314.5536    26.3907    77.0722    17.6758 
  314.7060    26.3977    76.3832    17.8645 
  314.8584    26.4064    77.2971    18.5164 
  315.0108    26.4136    76.9149    18.6569 
  315.1632    26.4136    77.5619    18.5071 
  315.3156    26.4136    77.6478    18.2675 
  315.4680    26.4136    75.5932    17.8215 
  315.6204    26.4160    75.0649    17.7189 
  315.7728    26.4191    73.1389    17.6499 
  315.9252    26.4212    73.7131    17.9233 
  316.0776    26.4185    75.3936    17.9831 
  316.2300    26.4153    76.0394    18.1621 
  316.3824    26.4140    77.4962    17.9873 
  316.5348    26.4171    75.6162    17.8944 
  316.6872    26.4202    74.3704    17.8676 
  316.8396    26.4168    74.4289    17.9935 
  316.9920    26.4194    73.9078    17.8038 
  317.1444    26.4212    74.7611    17.5554 
  317.2968    26.4212    74.2571    17.2265 
  317.4492    26.4232    73.7508    16.6624 
  317.6016    26.4315    73.5837    23.8632 
  317.7540    26.4384    73.0234    24.3442 
  317.9064    26.4441    74.3096    25.9964 
  318.0588    26.4394    74.9377    28.1091 
  318.2112    26.4334    75.4295    24.1416 
  318.3636    26.4289    74.6727    22.6421 
  318.5160    26.4341    74.6961    24.0367 
  318.6684    26.4403    75.4105    23.9028 
  318.8208    26.4441    75.8171    23.8393 
  318.9732    26.4441    77.7993    23.9929 
  319.1256    26.4441    78.5852    24.2513 
  319.2780    26.4441    77.7222    24.4655 
  319.4304    26.4441    77.2842    24.2151 
  319.5828    26.4441    77.0781    24.3179 
  319.7352    26.4440    77.7773    24.2828 
  319.8876    26.4408    77.7162    24.0216 
  320.0400    26.4376    77.3887    24.2409 
  320.1924    26.4376    77.9386    24.3707 
  320.3448    26.4408    77.4103    24.1360 
  320.4972    26.4440    79.7536    24.2413 
  320.6496    26.4441    78.8481    24.2407 
  320.8020    26.4441    77.2309    24.1689 
  320.9544    26.4441    76.2264    24.0328 
  321.1068    26.4529    75.5245    24.0052 
  321.2592    26.4653    74.9507    23.9485 
  321.4116    26.4731    77.0204    23.5761 
  321.5640    26.4380    78.0306    23.3165 
  321.7164    26.3985    77.6449    23.8606 
  321.8688    26.4060    76.6023    23.9287 
  322.0212    26.4150    78.1018    24.1127 
  322.1736    26.4140    77.8715    24.4853 
  322.3260    26.4657    76.7884    24.0504 
  322.4784    26.4882    79.5163    24.1021 
  322.6308    26.5108    78.6284    23.9667 
  322.7832    26.5334    77.7164    23.9997 
  322.9356    26.5509    77.2464    24.2068 
  323.0880    26.5623    77.3108    24.3496 
  323.2404    26.5808    75.0786    24.5170 
  323.3928    26.5992    75.1263    24.7389 
  323.5452    26.6177    76.5704    24.5317 
  323.6976    26.6272    77.3743    24.0942 
  323.8500    26.6379    76.4997    23.7775 
  324.0024    26.6507    76.2459    23.7843 
  324.1548    26.6636    75.7216    23.3789 
  324.3072    26.6683    75.5000    23.0736 
  324.4596    26.6733    75.5021    22.9499 
  324.6120    26.6810    76.1565    22.7127 
  324.7644    26.6919    77.1819    22.6314 
  324.9168    26.7041    76.6282    22.4852 
  325.0692    26.7152    77.5074    22.4782 
  325.2216    26.7263    79.0577    22.3979 
  325.3740    26.7374    79.1787    22.6000 
