~VERSION INFORMATION
VERS  .       2.0                       : CWLS LOG ASCII STANDARD - VERSION 2.0
WRAP  .       NO                        : One line per depth step
~WELL INFORMATION
#MNEM .UNIT   DATA                      : DESCRIPTION OF MNEMONIC
#-----.----   ----                      : -----------------------
STRT  .m         0.0000                 : Start
STOP  .m      1565.6052                 : Stop
STEP  .m         0.1524                 : Step increment
NULL  .       -999.2500                 : Null value
COMP  .       TAG OIL                   : Company
WELL  .       CHEAL A-10                : Well
FLD   .       Cheal                     : Field
LOC   .                                 : Location
SRVC  .                                 : Service company
DATE  .       3/2/2012                  : Logging date
CNTY  .       STRATFORD                 : County
STAT  .       TARANAKI                  : State
CTRY  .       NEW ZEALAND               : Country
API   .                                 : API number
~CURVE INFORMATION
#MNEM .UNIT   API CODE                  : CURVE DESCRIPTION
#-----.----   --------                  : -----------------
DEPT  .m                                : Measured Depth
T-TEMP.°C                               : Tool Temperature
GR    .aapi                             : Gamma Ray
ROP   .m/hr                             : Rate of Penetration
~PARAMETER INFORMATION
#MNEM .UNIT   VALUE                     : DESCRIPTION
#-----.----   -----                     : -----------
~OTHER INFORMATION
MEMORY LOG
~A  DEPT     T-TEMP         GR        ROP   
# ...
  922.3248    34.9375    85.4713     0.0000 
  922.4772    34.9110    85.9821     0.0000 
  922.6296    34.8845    86.2135     0.0000 
  922.7820    34.8745    86.2397     0.0000 
  922.9344    34.8708    85.8240     0.0000 
  923.0868    34.8589    85.5516     0.0000 
  923.2392    34.8471    85.5516     0.0000 
  923.3916    34.8364    84.4642     0.0000 
  923.5440    34.8372    81.7385     0.0000 
  923.6964    34.8392    79.5854     0.0000 
  923.8488    34.8413    77.8086     0.0000 
  924.0012    34.8433    76.1134     0.0000 
  924.1536    34.8440    78.0436     0.0000 
  924.3060    34.8440    79.4201     0.0000 
  924.4584    34.8440    80.3330     0.0000 
  924.6108    34.8440    81.1365     0.0000 
  924.7632    34.8538    81.9060     0.0000 
  924.9156    34.8640    80.5884     0.0000 
  925.0680    34.8742    78.9951     0.0000 
  925.2204    34.8821    74.9020     0.0000 
  925.3728    34.8834    70.8088     0.0000 
  925.5252    34.8854    71.7169     0.0000 
  925.6776    34.8875    73.9105     0.0000 
  925.8300    34.8895    76.1041     0.0000 
  925.9824    34.8910    76.3073     0.0000 
  926.1348    34.8952    78.0893     0.0000 
  926.2872    34.8995    78.4452     0.0000 
  926.4396    34.9037    77.8317     0.0000 
  926.5920    34.9060    79.1076     0.0000 
  926.7444    34.9118    78.3953     0.0000 
  926.8968    34.9176    78.3539     0.0000 
  927.0492    34.9203    78.1444     0.0000 
  927.2016    34.9203    77.4390     0.0000 
  927.3540    34.9203    75.5444     0.0000 
  927.5064    34.9211    74.1936     0.0000 
  927.6588    34.9283    74.3721     0.0000 
  927.8112    34.9354    73.5281     0.0000 
  927.9636    34.9425    73.4680     0.0000 
  928.1160    34.9460    73.1379     0.0000 
  928.2684    34.9536    74.0892     0.0000 
  928.4208    34.9612    75.0432     0.0000 
  928.5732    34.9661    74.3725     0.0000 
  928.7256    34.9681    74.8157     0.0000 
  928.8780    34.9705    73.8982     0.0000 
  929.0304    34.9729    72.6017     0.0000 
  929.1828    34.9747    74.4930     0.0000 
  929.3352    34.9788    76.3057     0.0000 
  929.4876    34.9830    76.9342     0.0000 
  929.6400    34.9871    80.1715     0.0000 
  929.7924    34.9890    81.1141     0.0000 
  929.9448    34.9956    83.3887     0.0000 
  930.0972    35.0035    85.9215     0.0000 
  930.2496    35.0114    86.4516     0.0000 
  930.4020    35.0193    86.0810     0.0000 
  930.5544    35.0210    87.2389     0.0000 
  930.7068    35.0251    85.1108     0.0000 
  930.8592    35.0291    85.2630     0.0000 
  931.0116    35.0332    87.1371     0.0000 
  931.1640    35.0349    85.4027     0.0000 
  931.3164    35.0367    87.3111     0.0000 
  931.4688    35.0386    86.5919     0.0000 
  931.6212    35.0404    85.9096     0.0000 
  931.7736    35.0422    85.2574     0.0000 
  931.9260    35.0424    84.3847     0.0000 
  932.0784    35.0424    83.6155     0.0000 
  932.2308    35.0424    81.1441     0.0000 
  932.3832    35.0424    80.2931     0.0000 
  932.5356    35.0424    79.2978     0.0000 
  932.6880    35.0424    77.8984     0.0000 
  932.8404    35.0424    79.4365     0.0000 
  932.9928    35.0424    81.6919     0.0000 
  933.1452    35.0424    81.5975     0.0000 
  933.2976    35.0434    82.1851     0.0000 
  933.4500    35.0511    83.0187     0.0000 
  933.6024    35.0589    83.8434     0.0000 
  933.7548    35.0656    83.3978     0.0000 
  933.9072    35.0674    83.1014     0.0000 
  934.0596    35.0699    83.1025     0.0000 
  934.2120    35.0725    82.7680     0.0000 
  934.3644    35.0756    85.5917     0.0000 
  934.5168    35.0848    86.0436     0.0000 
  934.6692    35.0940    86.3314     0.0000 
  934.8216    35.1032    85.2412     0.0000 
  934.9740    35.1097    82.3309     0.0000 
  935.1264    35.1156    79.4412     0.0000 
  935.2788    35.1269    77.0412     0.0000 
  935.4312    35.1383    75.3663     0.0000 
  935.5836    35.1444    74.4916     0.0000 
  935.7360    35.1495    73.3938     0.0000 
  935.8884    35.1560    73.0321     0.0000 
  936.0408    35.1585    75.8728     0.0000 
  936.1932    35.1626    75.9480     0.0000 
  936.3456    35.1655    77.7763     0.0000 
  936.4980    35.1681    80.6907     0.2219 
  936.6504    35.1734    82.5758     3.6464 
  936.8028    35.1761    82.0501     7.7757 
  936.9552    35.1802    80.1962    15.2345 
  937.1076    35.1882    75.3134    21.4366 
  937.2600    35.1945    72.5018    23.7472 
  937.4124    35.1973    72.0492    27.1690 
  937.5648    35.1976    75.4503    27.3493 
  937.7172    35.1993    78.7869    28.8063 
  937.8696    35.1993    79.3692    28.7491 
  938.0220    35.2012    80.2302    31.7285 
  938.1744    35.2025    79.1529    36.6268 
  938.3268    35.2044    79.6176    35.7071 
  938.4792    35.2016    80.3951    34.8338 
  938.6316    35.2038    79.8460    33.8364 
  938.7840    35.2058    78.2658    31.0742 
  938.9364    35.2061    76.0762    28.4225 
  939.0888    35.2067    76.1766    27.8267 
  939.2412    35.2057    76.6835    28.1727 
  939.3936    35.2030    78.5444    29.0780 
  939.5460    35.2000    78.5882    32.4073 
  939.6984    35.1970    79.2827    32.9249 
  939.8508    35.1949    78.8843    33.1608 
  940.0032    35.2014    77.7639    33.1372 
  940.1556    35.2093    77.8499    33.2817 
  940.3080    35.2173    78.5128    33.1261 
  940.4604    35.2156    78.8751    32.9355 
  940.6128    35.2107    78.6380    32.7050 
  940.7652    35.2059    78.3941    33.1872 
  940.9176    35.2026    79.2490    32.7726 
  941.0700    35.2100    79.7354    31.8961 
  941.2224    35.2193    79.6173    31.5988 
  941.3748    35.2285    78.9541    31.4659 
  941.5272    35.2306    78.7800    30.7049 
  941.6796    35.2325    77.3282    30.7550 
  941.8320    35.2400    78.7829    30.9132 
  941.9844    35.2475    80.3679    30.2242 
  942.1368    35.2404    80.5416    29.8038 
  942.2892    35.2168    80.1924    29.6039 
  942.4416    35.1931    82.3581    28.9957 
  942.5940    35.1688    83.9702    28.7375 
  942.7464    35.1445    83.2051    28.2834 
  942.8988    35.1263    82.6619    27.8107 
  943.0512    35.1263    82.1383    27.2717 
  943.2036    35.1263    80.5374    27.3841 
  943.3560    35.1263    79.6514    27.1496 
  943.5084    35.1263    80.3213    27.7581 
  943.6608    35.1263    81.4139    27.7014 
  943.8132    35.1263    81.4894    27.7110 
  943.9656    35.1263    80.4209    27.9891 
  944.1180    35.1272    76.8075    29.8261 
  944.2704    35.1317    75.1497    32.1756 
  944.4228    35.1362    74.3971    34.6843 
  944.5752    35.1406    74.9874    36.3266 
  944.7276    35.1422    78.8137    36.3146 
  944.8800    35.1445    82.4671    34.7794 
  945.0324    35.1468    81.3523    34.8185 
  945.1848    35.1491    81.3971    35.1825 
  945.3372    35.1541    81.1531    34.5655 
  945.4896    35.1655    80.6150    34.6381 
  945.6420    35.1769    81.2097    33.0677 
  945.7944    35.1873    80.9680    32.2435 
  945.9468    35.1893    77.4327    32.1325 
  946.0992    35.1924    74.7096    33.2413 
  946.2516    35.1949    73.3085    34.9894 
  946.4040    35.1949    71.1043    37.1681 
  946.5564    35.1982    72.0626    37.8461 
  946.7088    35.2000    73.5990    37.6971 
  946.8612    35.2055    75.0017    37.6054 
  947.0136    35.2114    76.2549    37.3345 
  947.1660    35.2172    76.7157    35.9235 
  947.3184    35.2204    76.4316    34.7199 
  947.4708    35.2279    78.2319    34.1378 
  947.6232    35.2354    77.6879    33.2433 
  947.7756    35.2407    78.0350    32.9915 
  947.9280    35.2407    78.9900    34.2946 
  948.0804    35.2407    79.4390    35.0456 
  948.2328    35.2407    79.3631    35.0723 
  948.3852    35.2409    79.1199    35.1775 
  948.5376    35.2476    79.4165    34.7677 
  948.6900    35.2542    79.4399    34.5447 
  948.8424    35.2609    79.4141    34.3102 
  948.9948    35.2637    80.2327    33.8934 
  949.1472    35.2659    78.3495    33.9563 
  949.2996    35.2681    77.8240    33.3903 
