~VERSION INFORMATION
VERS  .       2.0                       : CWLS LOG ASCII STANDARD - VERSION 2.0
WRAP  .       NO                        : One line per depth step
~WELL INFORMATION
#MNEM .UNIT   DATA                      : DESCRIPTION OF MNEMONIC
#-----.----   ----                      : -----------------------
STRT  .m         0.0000                 : Start
STOP  .m      1565.6052                 : Stop
STEP  .m         0.1524                 : Step increment
NULL  .       -999.2500                 : Null value
COMP  .       TAG OIL                   : Company
WELL  .       CHEAL A-10                : Well
FLD   .       Cheal                     : Field
LOC   .                                 : Location
SRVC  .                                 : Service company
DATE  .       3/2/2012                  : Logging date
CNTY  .       STRATFORD                 : County
STAT  .       TARANAKI                  : State
CTRY  .       NEW ZEALAND               : Country
API   .                                 : API number
~CURVE INFORMATION
#MNEM .UNIT   API CODE                  : CURVE DESCRIPTION
#-----.----   --------                  : -----------------
DEPT  .m                                : Measured Depth
T-TEMP.°C                               : Tool Temperature
GR    .aapi                             : Gamma Ray
ROP   .m/hr                             : Rate of Penetration
~PARAMETER INFORMATION
#MNEM .UNIT   VALUE                     : DESCRIPTION
#-----.----   -----                     : -----------
~OTHER INFORMATION
MEMORY LOG
~A  DEPT     T-TEMP         GR        ROP   
    0.0000    29.2022    76.8501     0.0000 
    0.1524    29.1965    76.8166     0.0000 
    0.3048    29.1907    76.7831     0.0000 
    0.4572    29.1849    76.7496     0.0000 
    0.6096    29.1791    76.7161     0.0000 
    0.7620    29.1733    76.6826     0.0000 
    0.9144    29.1675    76.6492     0.0000 
    1.0668    29.1617    76.6157     0.0000 
    1.2192    29.1560    76.5822     0.0000 
    1.3716    29.1502    76.5487     0.0000 
    1.5240    29.1444    76.5152     0.0000 
    1.6764    29.1386    76.4817     0.0000 
    1.8288    29.1328    76.4482     0.0000 
    1.9812    29.1270    76.4147     0.0000 
    2.1336    29.1213    76.3812     0.0000 
    2.2860    29.1155    76.3478     0.0000 
    2.4384    29.1097    76.3143     0.0000 
    2.5908    29.1039    76.2808     0.0000 
    2.7432    29.0981    76.2473     0.0000 
    2.8956    29.0923    76.2138     0.0000 
    3.0480    29.0865    76.1803     0.0000 
    3.2004    29.0808    76.1468     0.0000 
    3.3528    29.0750    76.1133     0.0000 
    3.5052    29.0692    76.0799     0.0000 
    3.6576    29.0634    76.0464     0.0000 
    3.8100    29.0576    76.0129     0.0000 
    3.9624    29.0518    75.9794     0.0000 
    4.1148    29.0461    75.9459     0.0000 
    4.2672    29.0403    75.9124     0.0000 
    4.4196    29.0345    75.8789     0.0000 
    4.5720    29.0287    75.8454     0.0000 
    4.7244    29.0229    75.8119     0.0000 
    4.8768    29.0171    75.7785     0.0000 
    5.0292    29.0113    75.7450     0.0000 
    5.1816    29.0056    75.7115     0.0000 
    5.3340    28.9998    75.6780     0.0000 
    5.4864    28.9940    75.6445     0.0000 
    5.6388    28.9882    75.6110     0.0000 
    5.7912    28.9824    75.5775     0.0000 
    5.9436    28.9766    75.5440     0.0000 
    6.0960    28.9709    75.5106     0.0000 
    6.2484    28.9651    75.4771     0.0000 
    6.4008    28.9593    75.4436     0.0000 
    6.5532    28.9535    75.4101     0.0000 
    6.7056    28.9477    75.3766     0.0000 
    6.8580    28.9419    75.3431     0.0000 
    7.0104    28.9361    75.3096     0.0000 
    7.1628    28.9304    75.2761     0.0000 
    7.3152    28.9246    75.2426     0.0000 
    7.4676    28.9188    75.2092     0.0000 
    7.6200    28.9130    75.1757     0.0000 
    7.7724    28.9072    75.1422     0.0000 
    7.9248    28.9014    75.1087     0.0000 
    8.0772    28.8957    75.0752     0.0000 
    8.2296    28.8899    75.0417     0.0000 
    8.3820    28.8841    75.0082     0.0000 
    8.5344    28.8783    74.9747     0.0000 
    8.6868    28.8725    74.9412     0.0000 
    8.8392    28.8667    74.9078     0.0000 
    8.9916    28.8609    74.8743     0.0000 
    9.1440    28.8552    74.8408     0.0000 
    9.2964    28.8494    74.8073     0.0000 
    9.4488    28.8436    74.7738     0.0000 
    9.6012    28.8378    74.7403     0.0000 
    9.7536    28.8320    74.7068     0.0000 
    9.9060    28.8262    74.6733     0.0000 
   10.0584    28.8205    74.6399     0.0000 
   10.2108    28.8147    74.6064     0.0000 
   10.3632    28.8089    74.5729     0.0000 
   10.5156    28.8031    74.5394     0.0000 
   10.6680    28.7973    74.5059     0.0000 
   10.8204    28.7915    74.4724     0.0000 
   10.9728    28.7857    74.4389     0.0000 
   11.1252    28.7800    74.4054     0.0000 
   11.2776    28.7742    74.3719     0.0000 
   11.4300    28.7684    74.3385     0.0000 
   11.5824    28.7626    74.3050     0.0000 
   11.7348    28.7568    74.2715     0.0000 
   11.8872    28.7510    74.2380     0.0000 
   12.0396    28.7453    74.2045     0.0000 
   12.1920    28.7395    74.1710     0.0000 
   12.3444    28.7337    74.1375     0.0000 
   12.4968    28.7279    74.1040     0.0000 
   12.6492    28.7221    74.0705     0.0000 
   12.8016    28.7163    74.0371     0.0000 
   12.9540    28.7105    74.0036     0.0000 
   13.1064    28.7048    73.9701     0.0000 
   13.2588    28.6990    73.9366     0.0000 
   13.4112    28.6932    73.9031     0.0000 
   13.5636    28.6874    73.8696     0.0000 
   13.7160    28.6816    73.8361     0.0000 
   13.8684    28.6758    73.8026     0.0000 
   14.0208    28.6701    73.7692     0.0000 
   14.1732    28.6643    73.7357     0.0000 
   14.3256    28.6585    73.7022     0.0000 
   14.4780    28.6527    73.6687     0.0000 
   14.6304    28.6469    73.6352     0.0000 
   14.7828    28.6411    73.6017     0.0000 
   14.9352    28.6353    73.5682     0.0000 
   15.0876    28.6296    73.5347     0.0000 
   15.2400    28.6238    73.5012     0.0000 
   15.3924    28.6180    73.4678     0.0000 
   15.5448    28.6122    73.4343     0.0000 
   15.6972    28.6064    73.4008     0.0000 
   15.8496    28.6006    73.3673     0.0000 
   16.0020    28.5949    73.3338     0.0000 
   16.1544    28.5891    73.3003     0.0000 
   16.3068    28.5833    73.2668     0.0000 
   16.4592    28.5775    73.2333     0.0000 
   16.6116    28.5717    73.1999     0.0000 
   16.7640    28.5659    73.1664     0.0000 
   16.9164    28.5601    73.1329     0.0000 
   17.0688    28.5544    73.0994     0.0000 
   17.2212    28.5486    73.0659     0.0000 
   17.3736    28.5428    73.0324     0.0000 
   17.5260    28.5370    72.9989     0.0000 
   17.6784    28.5312    72.9654     0.0000 
   17.8308    28.5254    72.9319     0.0000 
   17.9832    28.5197    72.8985     0.0000 
   18.1356    28.5139    72.8650     0.0000 
   18.2880    28.5081    72.8315     0.0000 
   18.4404    28.5023    72.7980     0.0000 
   18.5928    28.4965    72.7645     0.0000 
   18.7452    28.4907    72.7310     0.0000 
   18.8976    28.4849    72.6975     0.0000 
   19.0500    28.4792    72.6640     0.0000 
   19.2024    28.4734    72.6305     0.0000 
   19.3548    28.4676    72.5971     0.0000 
   19.5072    28.4618    72.5636     0.0000 
   19.6596    28.4560    72.5301     0.0000 
   19.8120    28.4502    72.4966     0.0000 
   19.9644    28.4445    72.4631     0.0000 
   20.1168    28.4387    72.4296     0.0000 
   20.2692    28.4329    72.3961     0.0000 
   20.4216    28.4271    72.3626     0.0000 
   20.5740    28.4213    72.3292     0.0000 
   20.7264    28.4155    72.2957     0.0000 
   20.8788    28.4097    72.2622     0.0000 
   21.0312    28.4040    72.2287     0.0000 
   21.1836    28.3982    72.1952     0.0000 
   21.3360    28.3924    72.1617     0.0000 
   21.4884    28.3866    72.1282     0.0000 
   21.6408    28.3808    72.0947     0.0000 
   21.7932    28.3750    72.0612     0.0000 
   21.9456    28.3693    72.0278     0.0000 
   22.0980    28.3635    71.9943     0.0000 
   22.2504    28.3577    71.9608     0.0000 
   22.4028    28.3519    71.9273     0.0000 
   22.5552    28.3461    71.8938     0.0000 
   22.7076    28.3403    71.8603     0.0000 
   22.8600    28.3345    71.8268     0.0000 
   23.0124    28.3288    71.7933     0.0000 
   23.1648    28.3230    71.7599     0.0000 
   23.3172    28.3172    71.7264     0.0000 
   23.4696    28.3114    71.6929     0.0000 
   23.6220    28.3056    71.6594     0.0000 
   23.7744    28.2998    71.6259     0.0000 
   23.9268    28.2941    71.5924     0.0000 
   24.0792    28.2883    71.5589     0.0000 
   24.2316    28.2825    71.5254     0.0000 
   24.3840    28.2767    71.4919     0.0000 
   24.5364    28.2709    71.4585     0.0000 
   24.6888    28.2651    71.4250     0.0000 
   24.8412    28.2593    71.3915     0.0000 
   24.9936    28.2536    71.3580     0.0000 
   25.1460    28.2478    71.3245     0.0000 
   25.2984    28.2420    71.2910     0.0000 
   25.4508    28.2362    71.2575     0.0000 
   25.6032    28.2304    71.2240     0.0000 
   25.7556    28.2246    71.1905     0.0000 
   25.9080    28.2189    71.1571     0.0000 
   26.0604    28.2131    71.1236     0.0000 
   26.2128    28.2073    71.0901     0.0000 
   26.3652    28.2015    71.0566     0.0000 
   26.5176    28.1957    71.0231     0.0000 
   26.6700    28.1899    70.9896     0.0000 
   26.8224    28.1841    70.9561     0.0000 
   26.9748    28.1784    70.9226     0.0000 
