~VERSION INFORMATION
VERS  .       2.0                       : CWLS LOG ASCII STANDARD - VERSION 2.0
WRAP  .       NO                        : One line per depth step
~WELL INFORMATION
#MNEM .UNIT   DATA                      : DESCRIPTION OF MNEMONIC
#-----.----   ----                      : -----------------------
STRT  .m         0.0000                 : Start
STOP  .m      1565.6052                 : Stop
STEP  .m         0.1524                 : Step increment
NULL  .       -999.2500                 : Null value
COMP  .       TAG OIL                   : Company
WELL  .       CHEAL A-10                : Well
FLD   .       Cheal                     : Field
LOC   .                                 : Location
SRVC  .                                 : Service company
DATE  .       3/2/2012                  : Logging date
CNTY  .       STRATFORD                 : County
STAT  .       TARANAKI                  : State
CTRY  .       NEW ZEALAND               : Country
API   .                                 : API number
~CURVE INFORMATION
#MNEM .UNIT   API CODE                  : CURVE DESCRIPTION
#-----.----   --------                  : -----------------
DEPT  .m                                : Measured Depth
T-TEMP.°C                               : Tool Temperature
GR    .aapi                             : Gamma Ray
ROP   .m/hr                             : Rate of Penetration
~PARAMETER INFORMATION
#MNEM .UNIT   VALUE                     : DESCRIPTION
#-----.----   -----                     : -----------
~OTHER INFORMATION
MEMORY LOG
~A  DEPT     T-TEMP         GR        ROP   
# ...
  732.4344    32.9420    70.4845    23.0373 
  732.5868    32.9443    71.2518    23.5430 
  732.7392    32.9470    76.7485    25.9817 
  732.8916    32.9516    79.8016    25.6013 
  733.0440    32.9562    80.7963    25.4879 
  733.1964    32.9595    81.2298    24.7711 
  733.3488    32.9613    78.8294    24.7297 
  733.5012    32.9636    77.3598    24.7965 
  733.6536    32.9659    72.2570    25.0767 
  733.8060    32.9672    69.4163    22.3050 
  733.9584    32.9718    68.1562    19.3144 
  734.1108    32.9766    68.1438    19.3181 
  734.2632    32.9815    69.4552    19.7411 
  734.4156    32.9834    72.1871    22.5797 
  734.5680    32.9868    72.8489    29.0230 
  734.7204    32.9901    73.8663    31.9819 
  734.8728    32.9901    76.5623    30.6705 
  735.0252    32.9918    79.5061    28.1892 
  735.1776    32.9928    79.1994    26.2672 
  735.3300    32.9995    77.7560    24.8822 
  735.4824    33.0063    75.1421    26.0727 
  735.6348    33.0129    71.1467    28.7318 
  735.7872    33.0156    70.8115    31.9470 
  735.9396    33.0205    71.7984    33.2165 
  736.0920    33.0255    73.3181    33.0406 
  736.2444    33.0282    74.7536    33.5462 
  736.3968    33.0332    76.1337    33.4698 
  736.5492    33.0381    77.3443    33.0869 
  736.7016    33.0431    76.6024    32.4914 
  736.8540    33.0435    76.6560    30.3787 
  737.0064    33.0435    77.5704    29.2336 
  737.1588    33.0435    79.1332    28.7211 
  737.3112    33.0435    79.9958    26.9639 
  737.4636    33.0435    82.5682    25.6160 
  737.6160    33.0435    83.8864    24.2263 
  737.7684    33.0435    85.5255    21.9464 
  737.9208    33.0435    84.1182    21.7221 
  738.0732    33.0435    78.9025    24.1621 
  738.2256    33.0435    74.0027    26.9470 
  738.3780    33.0435    70.2979    30.7949 
  738.5304    33.0445    69.3841    34.1456 
  738.6828    33.0491    70.2573    33.8707 
  738.8352    33.0536    71.8360    33.6340 
  738.9876    33.0582    70.3316    33.5431 
  739.1400    33.0587    69.2059    33.6378 
  739.2924    33.0587    68.6053    33.6433 
  739.4448    33.0587    68.4161    34.0264 
  739.5972    33.0587    69.1943    34.3290 
  739.7496    33.0612    70.1085    34.1740 
  739.9020    33.0657    69.7848    33.9727 
  740.0544    33.0702    71.2415    33.9639 
  740.2068    33.0740    72.7619    33.9042 
  740.3592    33.0788    73.8808    33.4516 
  740.5116    33.0856    75.4786    32.7429 
  740.6640    33.0842    77.8972    31.4128 
  740.8164    33.0767    78.8112    29.9622 
  740.9688    33.0742    79.4206    28.7155 
  741.1212    33.0773    80.6656    27.8466 
  741.2736    33.0849    80.8272    27.5656 
  741.4260    33.0925    80.6068    27.6581 
  741.5784    33.0969    80.4132    27.6797 
  741.7308    33.0921    79.8508    27.2415 
  741.8832    33.0870    79.4734    27.4597 
  742.0356    33.0820    79.2865    27.4466 
  742.1880    33.0804    79.3234    27.2686 
  742.3404    33.0777    79.2184    27.7220 
  742.4928    33.0751    80.6281    27.9620 
  742.6452    33.0743    80.6533    27.3740 
  742.7976    33.0769    80.2986    27.6223 
  742.9500    33.0796    79.2478    27.5184 
  743.1024    33.0816    78.1460    27.4294 
  743.2548    33.0777    77.5248    27.7355 
  743.4072    33.0726    76.3252    26.0271 
  743.5596    33.0675    75.3627    23.8977 
  743.7120    33.0669    74.7747    23.4296 
  743.8644    33.0694    75.8379    23.3780 
  744.0168    33.0719    74.1760    24.2703 
  744.1692    33.0740    73.1391    28.6541 
  744.3216    33.0756    71.9597    32.3209 
  744.4740    33.0780    70.7701    34.8527 
  744.6264    33.0804    70.8134    37.0944 
  744.7788    33.0816    71.7521    35.4726 
  744.9312    33.0824    73.8352    33.1973 
  745.0836    33.0832    74.0597    31.5590 
  745.2360    33.0840    76.1672    29.5752 
  745.3884    33.0862    76.7946    28.3931 
  745.5408    33.0866    80.1304    28.0896 
  745.6932    33.0894    80.2971    28.3915 
  745.8456    33.0923    78.8631    28.7118 
  745.9980    33.0933    79.3724    28.6123 
  746.1504    33.0935    78.4030    27.6810 
  746.3028    33.0920    80.8618    27.1070 
  746.4552    33.0906    82.2166    26.0482 
  746.6076    33.0892    82.8893    25.7404 
  746.7600    33.0903    81.9779    26.0507 
  746.9124    33.0925    81.2891    26.6535 
  747.0648    33.0946    81.6113    27.1860 
  747.2172    33.0968    80.4605    27.4408 
  747.3696    33.0971    80.5827    27.7906 
  747.5220    33.0979    82.0395    28.2807 
  747.6744    33.0986    79.4017    28.9259 
  747.8268    33.0994    79.6283    29.3053 
  747.9792    33.1007    78.3922    29.8306 
  748.1316    33.1018    75.9049    29.6709 
  748.2840    33.1077    76.0065    29.2029 
  748.4364    33.1138    75.9544    28.9113 
  748.5888    33.1197    76.3595    28.1298 
  748.7412    33.1142    78.7397    28.2923 
  748.8936    33.1088    80.2253    28.0631 
  749.0460    33.1045    78.3334    28.0213 
  749.1984    33.1005    78.2396    27.6194 
  749.3508    33.0941    79.1802    27.0840 
  749.5032    33.0877    79.1822    26.8495 
  749.6556    33.0816    79.8956    26.4704 
  749.8080    33.0769    83.7701    26.4579 
  749.9604    33.0669    82.9982    26.7385 
  750.1128    33.0569    81.3026    26.8052 
  750.2652    33.0469    79.8950    26.7485 
  750.4176    33.0435    80.7324    26.7951 
  750.5700    33.0457    82.2107    26.7722 
  750.7224    33.0479    83.3189    26.7746 
  750.8748    33.0501    83.5032    26.8631 
  751.0272    33.0511    83.6789    27.0968 
  751.1796    33.0511    80.3684    27.3254 
  751.3320    33.0511    79.6019    27.5475 
  751.4844    33.0511    78.7031    27.7888 
  751.6368    33.0511    77.7291    28.0766 
  751.7892    33.0562    79.6104    28.3261 
  751.9416    33.0629    80.5731    28.6811 
  752.0940    33.0696    81.0022    28.4927 
  752.2464    33.0740    82.1347    28.5138 
  752.3988    33.0758    80.7062    28.3236 
  752.5512    33.0779    80.5799    28.2858 
  752.7036    33.0800    80.3009    28.2532 
  752.8560    33.0816    79.8519    28.2570 
  753.0084    33.0833    80.7780    28.5009 
  753.1608    33.0867    80.4325    29.1093 
  753.3132    33.0901    78.9370    29.2417 
  753.4656    33.0935    78.9807    29.6290 
  753.6180    33.0969    78.9718    29.4326 
  753.7704    33.0979    78.6298    29.3534 
  753.9228    33.1039    79.1973    28.7412 
  754.0752    33.1099    79.1274    29.2613 
  754.2276    33.1158    78.6701    29.3298 
  754.3800    33.1198    78.4451    29.6838 
  754.5324    33.1235    78.7328    30.3603 
  754.6848    33.1291    79.0606    29.9313 
  754.8372    33.1347    80.6581    29.2358 
  754.9896    33.1350    80.9216    28.4702 
  755.1420    33.1383    80.3838    26.8588 
  755.2944    33.1440    80.3750    26.6397 
  755.4468    33.1512    79.3774    26.5722 
  755.5992    33.1554    77.7032    26.6160 
  755.7516    33.1596    76.7030    26.8666 
  755.9040    33.1638    76.2905    26.9379 
  756.0564    33.1656    75.6345    26.8681 
  756.2088    33.1680    75.9636    26.9060 
  756.3612    33.1704    76.7334    26.9688 
  756.5136    33.1728    77.8775    26.6731 
  756.6660    33.1738    79.0288    26.5578 
  756.8184    33.1761    80.5454    26.1716 
  756.9708    33.1783    80.5650    25.7421 
  757.1232    33.1806    80.6920    25.7064 
  757.2756    33.1818    80.3363    25.7580 
  757.4280    33.1862    80.1266    25.5157 
  757.5804    33.1907    79.1754    25.4653 
  757.7328    33.1952    79.7024    25.3889 
  757.8852    33.1972    79.5855    25.8254 
  758.0376    33.2015    80.0577    25.9467 
  758.1900    33.2058    79.6639    26.5230 
  758.3424    33.2102    80.5371    26.8087 
  758.4948    33.2131    81.3603    26.8300 
  758.6472    33.2222    80.1569    27.1994 
  758.7996    33.2313    79.9280    27.3337 
  758.9520    33.2380    77.8036    27.4998 
  759.1044    33.2392    76.3901    28.1040 
  759.2568    33.2409    76.6665    27.9735 
  759.4092    33.2427    76.2766    27.7289 
