~VERSION INFORMATION
VERS  .       2.0                       : CWLS LOG ASCII STANDARD - VERSION 2.0
WRAP  .       NO                        : One line per depth step
~WELL INFORMATION
#MNEM .UNIT   DATA                      : DESCRIPTION OF MNEMONIC
#-----.----   ----                      : -----------------------
STRT  .m         0.0000                 : Start
STOP  .m      1565.6052                 : Stop
STEP  .m         0.1524                 : Step increment
NULL  .       -999.2500                 : Null value
COMP  .       TAG OIL                   : Company
WELL  .       CHEAL A-10                : Well
FLD   .       Cheal                     : Field
LOC   .                                 : Location
SRVC  .                                 : Service company
DATE  .       3/2/2012                  : Logging date
CNTY  .       STRATFORD                 : County
STAT  .       TARANAKI                  : State
CTRY  .       NEW ZEALAND               : Country
API   .                                 : API number
~CURVE INFORMATION
#MNEM .UNIT   API CODE                  : CURVE DESCRIPTION
#-----.----   --------                  : -----------------
DEPT  .m                                : Measured Depth
T-TEMP.°C                               : Tool Temperature
GR    .aapi                             : Gamma Ray
ROP   .m/hr                             : Rate of Penetration
~PARAMETER INFORMATION
#MNEM .UNIT   VALUE                     : DESCRIPTION
#-----.----   -----                     : -----------
~OTHER INFORMATION
MEMORY LOG
~A  DEPT     T-TEMP         GR        ROP   
# ...
  406.9080    28.2043    80.5073    33.7168 
  407.0604    28.2065    80.7400    33.3717 
  407.2128    28.2040    82.6689    33.5340 
  407.3652    28.1994    83.8490    33.8201 
  407.5176    28.1948    85.2267    34.0574 
  407.6700    28.1913    83.4181    34.3267 
  407.8224    28.1929    81.3277    34.2929 
  407.9748    28.1952    80.0698    34.2083 
  408.1272    28.1975    77.8797    34.1227 
  408.2796    28.1989    78.6075    34.4703 
  408.4320    28.1968    78.2204    34.5603 
  408.5844    28.1945    78.9780    34.6385 
  408.7368    28.1922    78.2520    34.8588 
  408.8892    28.1913    77.9656    34.5817 
  409.0416    28.1913    76.5367    34.0644 
  409.1940    28.1913    77.3983    34.4081 
  409.3464    28.1913    78.1618    34.2910 
  409.4988    28.1927    79.7640    33.7046 
  409.6512    28.1989    82.9903    33.8265 
  409.8036    28.2052    84.7934    33.7579 
  409.9560    28.2065    86.0982    33.2174 
  410.1084    28.2086    86.4057    33.5080 
  410.2608    28.2113    85.4244    33.5662 
  410.4132    28.2077    83.3347    34.1144 
  410.5656    28.2100    82.6788    34.3927 
  410.7180    28.2123    78.1899    31.3682 
  410.8704    28.2141    71.2213    27.1274 
  411.0228    28.2172    61.1668    24.5621 
  411.1752    28.2219    55.0543    21.6722 
  411.3276    28.2267    53.6710    22.5644 
  411.4800    28.2294    57.2018    26.1758 
  411.6324    28.2335    64.6548    31.2820 
  411.7848    28.2382    69.5542    36.0885 
  411.9372    28.2428    73.5479    38.4333 
  412.0896    28.2448    76.0617    38.9460 
  412.2420    28.2495    77.6911    38.7374 
  412.3944    28.2543    77.4248    38.8823 
  412.5468    28.2590    76.0704    38.5042 
  412.6992    28.2624    76.9011    38.8923 
  412.8516    28.2736    76.6860    39.0282 
  413.0040    28.2848    76.8321    38.4702 
  413.1564    28.2926    76.5789    37.9136 
  413.3088    28.2993    77.3294    37.1688 
  413.4612    28.3057    76.2824    36.1837 
  413.6136    28.3078    75.9344    31.8251 
  413.7660    28.3133    75.2180    31.5486 
  413.9184    28.3189    74.8137    32.5469 
  414.0708    28.3244    72.6837    36.0935 
  414.2232    28.3286    74.5797    45.5895 
  414.3756    28.3297    74.7986    53.6611 
  414.5280    28.3316    74.4731    51.3536 
  414.6804    28.3334    76.1462    45.2746 
  414.8328    28.3353    74.5027    39.8256 
  414.9852    28.3362    74.0734    35.3156 
  415.1376    28.3419    73.4436    32.2970 
  415.2900    28.3485    72.9433    31.2339 
  415.4424    28.3551    73.0767    31.0437 
  415.5948    28.3591    73.8892    31.2854 
  415.7472    28.3671    73.3297    31.1670 
  415.8996    28.3765    72.9684    30.9553 
  416.0520    28.3847    72.9111    30.9768 
  416.2044    28.3904    71.4639    30.7193 
  416.3568    28.3935    71.0715    30.5597 
  416.5092    28.3952    72.8119    30.8839 
  416.6616    28.4026    74.2312    30.8271 
  416.8140    28.4100    74.8663    30.9576 
  416.9664    28.4174    75.0839    31.0644 
  417.1188    28.4204    75.1952    31.2302 
  417.2712    28.4227    75.4873    31.3280 
  417.4236    28.4249    73.0885    31.2634 
  417.5760    28.4272    73.1616    31.0335 
  417.7284    28.4278    71.6411    30.8922 
  417.8808    28.4278    70.7367    30.8545 
  418.0332    28.4278    69.9584    30.6890 
  418.1856    28.4278    69.5329    30.8379 
  418.3380    28.4285    70.9711    30.6636 
  418.4904    28.4309    70.5728    30.7917 
  418.6428    28.4332    70.0823    31.0505 
  418.7952    28.4354    70.4911    31.0526 
  418.9476    28.4271    67.6928    31.1730 
  419.1000    28.4086    67.5833    31.4492 
  419.2524    28.3900    69.4025    31.0739 
  419.4048    28.3820    67.8736    31.1870 
  419.5572    28.3870    68.0033    30.6889 
  419.7096    28.3926    68.2595    30.6606 
  419.8620    28.3983    67.3784    30.5061 
  420.0144    28.4040    66.5043    30.7581 
  420.1668    28.4076    65.2213    30.5039 
  420.3192    28.4163    64.6286    30.0267 
  420.4716    28.4249    62.7757    29.4291 
  420.6240    28.4335    63.0356    28.8651 
  420.7764    28.4371    63.4175    29.3378 
  420.9288    28.4451    67.4565    29.0007 
  421.0812    28.4530    70.3925    29.1909 
  421.2336    28.4610    69.0277    29.5014 
  421.3860    28.4659    65.6928    29.1570 
  421.5384    28.4684    61.7048    29.1673 
  421.6908    28.4721    58.6661    29.4069 
  421.8432    28.4759    59.0299    29.2923 
  421.9956    28.4796    60.4180    29.1997 
  422.1480    28.4812    61.7677    29.3699 
  422.3004    28.4899    61.5215    29.0420 
  422.4528    28.4993    62.0197    29.2939 
  422.6052    28.5087    61.2648    29.0474 
  422.7576    28.5181    59.3155    29.1700 
  422.9100    28.5209    60.1603    29.2795 
  423.0624    28.5302    58.8999    29.2583 
  423.2148    28.5395    61.8997    28.8514 
  423.3672    28.5489    64.4100    29.1871 
  423.5196    28.5575    65.6806    28.9402 
  423.6720    28.5617    66.1453    29.0464 
  423.8244    28.5718    66.5492    29.2373 
  423.9768    28.5819    68.8680    29.0740 
  424.1292    28.5908    72.8009    28.9990 
  424.2816    28.5979    75.5210    29.1279 
  424.4340    28.6006    78.9059    29.0190 
  424.5864    28.6031    81.8519    29.1841 
  424.7388    28.6120    81.5014    29.5340 
  424.8912    28.6158    81.0763    29.3045 
  425.0436    28.6196    80.0041    29.0934 
  425.1960    28.6234    78.6713    29.4145 
  425.3484    28.6261    78.5042    29.2389 
  425.5008    28.6302    80.1909    29.1665 
  425.6532    28.6362    80.9298    29.4300 
  425.8056    28.6422    82.0568    29.1036 
  425.9580    28.6482    83.9389    28.8510 
  426.1104    28.6507    83.2868    28.9562 
  426.2628    28.6586    83.4357    29.1388 
  426.4152    28.6665    83.7618    29.1068 
  426.5676    28.6743    81.7352    29.2939 
  426.7200    28.6795    81.5279    29.1423 
  426.8724    28.6840    82.9562    28.9147 
  427.0248    28.6900    82.6080    28.7967 
  427.1772    28.6959    82.9173    29.0144 
  427.3296    28.7019    80.9909    29.2180 
  427.4820    28.7043    77.5277    29.4874 
  427.6344    28.7102    74.0839    26.9819 
  427.7868    28.7161    71.8698    24.1841 
  427.9392    28.7220    69.2019    23.7756 
  428.0916    28.7253    65.2334    24.8627 
  428.2440    28.7304    64.8388    26.7878 
  428.3964    28.7364    66.1639    34.5205 
  428.5488    28.7424    69.3693    36.9024 
  428.7012    28.7482    78.4701    36.8343 
  428.8536    28.7497    80.8363    36.3654 
  429.0060    28.7536    82.2706    36.0039 
  429.1584    28.7576    85.6654    35.4730 
  429.3108    28.7616    84.6013    36.3624 
  429.4632    28.7635    84.2032    36.0675 
  429.6156    28.7688    83.4014    36.2096 
  429.7680    28.7747    81.3005    34.7248 
  429.9204    28.7806    79.5634    33.3162 
  430.0728    28.7863    78.5136    31.7309 
  430.2252    28.7863    78.7043    30.5388 
  430.3776    28.7882    77.9635    29.5388 
  430.5300    28.7938    77.5542    29.4371 
  430.6824    28.7995    73.1274    29.2386 
  430.8348    28.8020    72.2000    29.3628 
  430.9872    28.8099    72.9732    29.5529 
  431.1396    28.8178    73.9551    29.6035 
  431.2920    28.8248    77.2942    29.8202 
  431.4444    28.8267    80.7320    29.7136 
  431.5968    28.8270    80.6635    29.6772 
  431.7492    28.8270    80.9066    29.7700 
  431.9016    28.8327    80.1556    29.9696 
  432.0540    28.8347    79.0097    30.0684 
  432.2064    28.8367    78.2184    29.8164 
  432.3588    28.8387    77.7563    30.0611 
  432.5112    28.8398    78.0434    29.7533 
  432.6636    28.8429    76.8308    29.6331 
  432.8160    28.8468    78.8426    29.4380 
  432.9684    28.8507    79.6156    29.3723 
  433.1208    28.8546    78.6185    28.9137 
  433.2732    28.8555    80.4955    29.1936 
  433.4256    28.8575    78.7845    24.7038 
  433.5780    28.8595    77.4014    21.0186 
  433.7304    28.8614    78.2345    21.9892 
  433.8828    28.8626    78.6670    23.8085 
