~VERSION INFORMATION
VERS  .       2.0                       : CWLS LOG ASCII STANDARD - VERSION 2.0
WRAP  .       NO                        : One line per depth step
~WELL INFORMATION
#MNEM .UNIT   DATA                      : DESCRIPTION OF MNEMONIC
#-----.----   ----                      : -----------------------
STRT  .m         0.0000                 : Start
STOP  .m      1565.6052                 : Stop
STEP  .m         0.1524                 : Step increment
NULL  .       -999.2500                 : Null value
COMP  .       TAG OIL                   : Company
WELL  .       CHEAL A-10                : Well
FLD   .       Cheal                     : Field
LOC   .                                 : Location
SRVC  .                                 : Service company
DATE  .       3/2/2012                  : Logging date
CNTY  .       STRATFORD                 : County
STAT  .       TARANAKI                  : State
CTRY  .       NEW ZEALAND               : Country
API   .                                 : API number
~CURVE INFORMATION
#MNEM .UNIT   API CODE                  : CURVE DESCRIPTION
#-----.----   --------                  : -----------------
DEPT  .m                                : Measured Depth
T-TEMP.°C                               : Tool Temperature
GR    .aapi                             : Gamma Ray
ROP   .m/hr                             : Rate of Penetration
~PARAMETER INFORMATION
#MNEM .UNIT   VALUE                     : DESCRIPTION
#-----.----   -----                     : -----------
~OTHER INFORMATION
MEMORY LOG
~A  DEPT     T-TEMP         GR        ROP   
# ...
 1329.2328    40.3112    92.9464    19.5069 
 1329.3852    40.3237    94.6830    19.5124 
 1329.5376    40.3361    95.6363    20.1345 
 1329.6900    40.3371    95.8404    20.3587 
 1329.8424    40.3371    95.2944    20.7168 
 1329.9948    40.3371    95.0834    21.0479 
 1330.1472    40.3371    96.6177    22.5294 
 1330.2996    40.3410    96.6213    22.0157 
 1330.4520    40.3463    96.2802    20.7489 
 1330.6044    40.3517    94.4383    19.2424 
 1330.7568    40.3479    93.7514    20.9413 
 1330.9092    40.3352    93.7574    20.7188 
 1331.0616    40.3224    93.1546    20.9325 
 1331.2140    40.3097    92.5085    21.2082 
 1331.3664    40.2989    90.4187    16.1952 
 1331.5188    40.2883    87.6250    15.0918 
 1331.6712    40.2729    87.0558    14.8655 
 1331.8236    40.2575    87.6312    15.5701 
 1331.9760    40.2497    87.9204    18.9406 
 1332.1284    40.2334    90.5003    21.4358 
 1332.2808    40.2172    88.1788    22.4150 
 1332.4332    40.2074    86.8373    23.7821 
 1332.5856    40.2074    88.0213    24.3349 
 1332.7380    40.2074    88.2465    24.5706 
 1332.8904    40.2074    87.9881    25.0901 
 1333.0428    40.2010    89.8517    24.5212 
 1333.1952    40.1923    89.3555    23.6972 
 1333.3476    40.1845    89.9195    23.4055 
 1333.5000    40.1831    91.4595    23.1603 
 1333.6524    40.1794    91.4777    23.3010 
 1333.8048    40.1757    91.9544    23.4467 
 1333.9572    40.1720    90.6782    23.2394 
 1334.1096    40.1692    88.9762    23.1164 
 1334.2620    40.1642    86.7691    22.9949 
 1334.4144    40.1574    86.7815    22.8862 
 1334.5668    40.1540    84.4239    23.4307 
 1334.7192    40.1563    83.3669    23.7811 
 1334.8716    40.1590    84.5669    23.9079 
 1335.0240    40.1616    84.9703    24.3987 
 1335.1764    40.1633    84.7353    25.1616 
 1335.3288    40.1664    86.2140    25.7964 
 1335.4812    40.1692    86.4146    27.0676 
 1335.6336    40.1692    87.0473    27.7666 
 1335.7860    40.1692    88.3820    26.5475 
 1335.9384    40.1692    89.1680    25.6917 
 1336.0908    40.1692    88.9727    24.8535 
 1336.2432    40.1692    87.3218    24.1171 
 1336.3956    40.1722    87.5381    23.9326 
 1336.5480    40.1752    86.3033    24.6926 
 1336.7004    40.1768    86.5800    25.0901 
 1336.8528    40.1768    88.0150    26.7691 
 1337.0052    40.1768    89.2488    28.0646 
 1337.1576    40.1768    88.4149    27.6536 
 1337.3100    40.1855    86.0925    28.0654 
 1337.4624    40.1945    83.2284    28.8476 
 1337.6148    40.1997    83.3913    26.5085 
 1337.7672    40.1997    83.3664    26.3773 
 1337.9196    40.1997    82.8733    28.6484 
 1338.0720    40.1997    83.6579    28.7096 
 1338.2244    40.1997    83.7963    31.1961 
 1338.3768    40.1997    84.6421    31.5404 
 1338.5292    40.2013    86.4780    29.6031 
 1338.6816    40.1995    86.5907    27.5497 
 1338.8340    40.1918    88.2748    25.5529 
 1338.9864    40.1893    87.8007    23.9965 
 1339.1388    40.1831    86.4215    23.5460 
 1339.2912    40.1693    86.8791    23.6773 
 1339.4436    40.1559    86.3049    23.2252 
 1339.5960    40.1424    85.8522    22.5971 
 1339.7484    40.1290    86.7437    22.0064 
 1339.9008    40.1248    87.5685    21.9610 
 1340.0532    40.1127    87.6862    21.7093 
 1340.2056    40.1082    87.7333    22.3920 
 1340.3580    40.0995    86.6966    24.3259 
 1340.5104    40.0927    84.5948    24.9214 
 1340.6628    40.0859    82.7667    25.5640 
 1340.8152    40.0791    83.6240    25.9551 
 1340.9676    40.0802    85.3414    27.2087 
 1341.1200    40.0804    86.1529    27.9407 
 1341.2724    40.0833    87.0596    28.0707 
 1341.4248    40.0905    85.5103    28.0957 
 1341.5772    40.0977    85.6399    27.1276 
 1341.7296    40.1009    84.6644    25.7327 
 1341.8820    40.1036    82.4814    26.2285 
 1342.0344    40.1064    79.8054    27.5899 
 1342.1868    40.1091    76.7102    29.1421 
 1342.3392    40.1136    75.9056    31.7602 
 1342.4916    40.1158    74.3535    32.9692 
 1342.6440    40.1169    75.6891    34.3929 
 1342.7964    40.1151    75.7118    39.0198 
 1342.9488    40.1127    75.5069    40.5810 
 1343.1012    40.1102    75.5186    39.9035 
 1343.2536    40.1082    76.9008    31.2510 
 1343.4060    40.1140    81.2878    22.4539 
 1343.5584    40.1221    83.2850    16.5952 
 1343.7108    40.1302    83.6383    14.5471 
 1343.8632    40.1311    84.3095    13.5664 
 1344.0156    40.1311    84.0291    20.0535 
 1344.1680    40.1311    79.2435    23.6660 
 1344.3204    40.1338    76.7026    25.6439 
 1344.4728    40.1394    78.0940    28.2110 
 1344.6252    40.1451    81.8987    23.6897 
 1344.7776    40.1487    83.1676    25.6983 
 1344.9300    40.1548    85.3289    29.5987 
 1345.0824    40.1610    85.0628    29.0203 
 1345.2348    40.1602    88.0787    30.8216 
 1345.3872    40.1574    85.1001    33.8514 
 1345.5396    40.1547    84.8691    33.6500 
 1345.6920    40.1550    85.1689    33.8668 
 1345.8444    40.1580    83.4358    36.9541 
 1345.9968    40.1610    84.5599    35.2885 
 1346.1492    40.1661    84.1825    32.4544 
 1346.3016    40.1773    84.3593    30.9613 
 1346.4540    40.1885    86.2769    27.5700 
 1346.6064    40.1960    88.0564    26.1954 
 1346.7588    40.2007    91.9234    26.3350 
 1346.9112    40.2048    93.2430    25.3881 
 1347.0636    40.2050    92.3752    24.8835 
 1347.2160    40.2122    91.6341    24.6814 
 1347.3684    40.2194    90.4416    24.9281 
 1347.5208    40.2236    86.9020    24.2014 
 1347.6732    40.2299    83.8057    23.1411 
 1347.8256    40.2362    81.0732    24.6644 
 1347.9780    40.2398    78.1562    28.0535 
 1348.1304    40.2489    76.4305    30.8000 
 1348.2828    40.2581    75.2306    36.2870 
 1348.4352    40.2621    72.4269    38.1746 
 1348.5876    40.2655    72.2233    36.5114 
 1348.7400    40.2684    72.8225    28.8253 
 1348.8924    40.2854    76.1269    23.9546 
 1349.0448    40.3077    80.8169    21.2808 
 1349.1972    40.3299    84.8367    20.0438 
 1349.3496    40.3522    89.3984    22.2594 
 1349.5020    40.3676    92.2524    24.6280 
 1349.6544    40.3687    92.4690    25.4702 
 1349.8068    40.3708    91.6873    24.5953 
 1349.9592    40.3729    91.1345    23.2803 
 1350.1116    40.3750    88.2849    22.6853 
 1350.2640    40.3738    87.7157    21.5212 
 1350.4164    40.3678    87.6960    19.1965 
 1350.5688    40.3618    87.6300    18.5609 
 1350.7212    40.3558    87.5967    18.9220 
 1350.8736    40.3523    88.5113    18.7874 
 1351.0260    40.3475    89.7557    21.3272 
 1351.1784    40.3417    90.0660    22.6271 
 1351.3308    40.3371    89.9934    22.5109 
 1351.4832    40.3371    89.3843    22.8552 
 1351.6356    40.3371    89.2655    23.0350 
 1351.7880    40.3371    87.6990    23.2884 
 1351.9404    40.3371    87.6284    23.3578 
 1352.0928    40.3371    88.4015    23.2305 
 1352.2452    40.3371    86.5827    22.9497 
 1352.3976    40.3320    86.7031    24.5520 
 1352.5500    40.3267    86.1708    24.9403 
 1352.7024    40.3226    83.7812    25.0415 
 1352.8548    40.3256    84.1615    25.4777 
 1353.0072    40.3271    85.6207    26.0572 
 1353.1596    40.3299    87.3514    25.4975 
 1353.3120    40.3270    86.5834    25.4425 
 1353.4644    40.3242    87.9987    22.5171 
 1353.6168    40.3218    88.5372    18.8776 
 1353.7692    40.3173    86.4279    20.3416 
 1353.9216    40.3112    85.2250    24.8159 
 1354.0740    40.3039    83.0513    30.9612 
 1354.2264    40.2987    82.2871    36.2588 
 1354.3788    40.2953    82.1952    32.3989 
 1354.5312    40.2951    82.9492    24.3199 
 1354.6836    40.2951    85.5177    18.7233 
 1354.8360    40.2926    85.1041    18.0501 
 1354.9884    40.2844    84.6405    18.1752 
 1355.1408    40.2762    84.9783    29.2525 
 1355.2932    40.2706    83.5760    34.9122 
 1355.4456    40.2618    82.5197    34.4825 
 1355.5980    40.2531    83.6637    29.7015 
 1355.7504    40.2395    83.6108    22.2334 
 1355.9028    40.2178    84.4118    17.1031 
 1356.0552    40.1866    85.1533    17.7801 
 1356.2076    40.1557    84.4482    18.5870 
