~VERSION INFORMATION
VERS  .       2.0                       : CWLS LOG ASCII STANDARD - VERSION 2.0
WRAP  .       NO                        : One line per depth step
~WELL INFORMATION
#MNEM .UNIT   DATA                      : DESCRIPTION OF MNEMONIC
#-----.----   ----                      : -----------------------
STRT  .m         0.0000                 : Start
STOP  .m      1565.6052                 : Stop
STEP  .m         0.1524                 : Step increment
NULL  .       -999.2500                 : Null value
COMP  .       TAG OIL                   : Company
WELL  .       CHEAL A-10                : Well
FLD   .       Cheal                     : Field
LOC   .                                 : Location
SRVC  .                                 : Service company
DATE  .       3/2/2012                  : Logging date
CNTY  .       STRATFORD                 : County
STAT  .       TARANAKI                  : State
CTRY  .       NEW ZEALAND               : Country
API   .                                 : API number
~CURVE INFORMATION
#MNEM .UNIT   API CODE                  : CURVE DESCRIPTION
#-----.----   --------                  : -----------------
DEPT  .m                                : Measured Depth
T-TEMP.°C                               : Tool Temperature
GR    .aapi                             : Gamma Ray
ROP   .m/hr                             : Rate of Penetration
~PARAMETER INFORMATION
#MNEM .UNIT   VALUE                     : DESCRIPTION
#-----.----   -----                     : -----------
~OTHER INFORMATION
MEMORY LOG
~A  DEPT     T-TEMP         GR        ROP   
# ...
  217.0176    21.5520    29.1626     0.0000 
  217.1700    21.5680    29.1291     0.0000 
  217.3224    21.5840    28.7613     0.0000 
  217.4748    21.6000    28.2758     0.0000 
  217.6272    21.6160    30.5201     0.0000 
  217.7796    21.6320    31.1167     0.0000 
  217.9320    21.6480    31.9471     0.0000 
  218.0844    21.6640    34.5640     0.0000 
  218.2368    21.6800    35.0343     0.0000 
  218.3892    21.6960    35.1668     0.0000 
  218.5416    21.7120    35.2648     0.0000 
  218.6940    21.7280    35.0415     0.0000 
  218.8464    21.7440    34.4495     0.0000 
  218.9988    21.7599    34.6737     0.0000 
  219.1512    21.7759    34.9271     0.0000 
  219.3036    21.7919    35.1085     1.2944 
  219.4560    21.8079    36.1929     2.6754 
  219.6084    21.8239    35.6479     5.8514 
  219.7608    21.8399    35.0388     9.1872 
  219.9132    21.8559    34.5884    11.3506 
  220.0656    21.8719    34.4417    12.9396 
  220.2180    21.8879    34.3964    13.4367 
  220.3704    21.9039    34.3990    13.4790 
  220.5228    21.9199    34.4017    13.4715 
  220.6752    21.9359    34.4044    13.3762 
  220.8276    21.9519    34.4071    13.1992 
  220.9800    21.9679    34.4098    12.9362 
  221.1324    21.9838    34.4125    12.2035 
  221.2848    21.9998    34.4152    11.0045 
  221.4372    22.0158    34.4179    11.1207 
  221.5896    22.0318    34.4206    11.3005 
  221.7420    22.0478    34.4233    11.3060 
  221.8944    22.0638    34.4260    12.6363 
  222.0468    22.0798    34.4287    12.9140 
  222.1992    22.0958    34.4314    12.9549 
  222.3516    22.1118    34.4341    12.9355 
  222.5040    22.1278    34.4368    12.9466 
  222.6564    22.1438    34.4395    12.9697 
  222.8088    22.1598    34.4422    12.7926 
  222.9612    22.1758    34.4449    12.8872 
  223.1136    22.1918    34.4476    13.1771 
  223.2660    22.2078    34.4503    13.0641 
  223.4184    22.2237    34.4530    12.9765 
  223.5708    22.2397    34.4556    12.7478 
  223.7232    22.2557    34.4583    12.0427 
  223.8756    22.2717    34.4610    11.7189 
  224.0280    22.2877    34.4637    11.6300 
  224.1804    22.3037    34.4664    11.3293 
  224.3328    22.3197    34.4691    11.3476 
  224.4852    22.3357    34.4718    11.3523 
  224.6376    22.3517    34.4745    11.3428 
  224.7900    22.3677    34.4772    11.4212 
  224.9424    22.3837    34.4799    11.4790 
  225.0948    22.3997    34.4826    11.4342 
  225.2472    22.4157    34.4853    11.5122 
  225.3996    22.4317    34.4880    11.2065 
  225.5520    22.4476    34.4907    10.8578 
  225.7044    22.4636    34.4934    10.9043 
  225.8568    22.4796    34.4961    10.9585 
  226.0092    22.4956    34.4988    11.1735 
  226.1616    22.5116    34.5015    11.5175 
  226.3140    22.5276    34.5042    11.7172 
  226.4664    22.5436    34.5069    11.9400 
  226.6188    22.5596    34.5096    12.0124 
  226.7712    22.5756    34.5122    12.1970 
  226.9236    22.5916    34.5149    12.6101 
  227.0760    22.6076    34.5176    12.5975 
  227.2284    22.6236    34.5203    12.5859 
  227.3808    22.6346    34.5230    12.6264 
  227.5332    22.6525    34.5257    12.3261 
  227.6856    22.6785    34.5284    12.2819 
  227.8380    22.7156    34.5311    12.4155 
  227.9904    22.7563    34.5338    12.2694 
  228.1428    22.7846    34.5365    12.2076 
  228.2952    22.8138    34.5392    12.1926 
  228.4476    22.8487    34.5419    12.4136 
  228.6000    22.8737    34.5446    12.6457 
  228.7524    22.8973    34.5473    12.7190 
  228.9048    22.9318    34.5500    12.7571 
  229.0572    22.9576    34.5527    12.7313 
  229.2096    22.9851    34.5554    12.9968 
  229.3620    23.0160    34.5581    14.8030 
  229.5144    23.0447    34.5608    15.4261 
  229.6668    23.0842    34.5635    15.6842 
  229.8192    23.1085    34.5662    15.4109 
  229.9716    23.1320    34.5689    13.7265 
  230.1240    23.1641    34.5715    12.5006 
  230.2764    23.1968    34.5742    11.9898 
  230.4288    23.2132    34.5769    11.8347 
  230.5812    23.2357    34.5796    11.6603 
  230.7336    23.2550    34.5823    11.4226 
  230.8860    23.2762    34.5850    10.0474 
  231.0384    23.3092    34.5877    10.0767 
  231.1908    23.3339    34.7999    10.1642 
  231.3432    23.3600    34.8726    10.1777 
  231.4956    23.3892    34.8112    11.3456 
  231.6480    23.4104    34.4572    11.6606 
  231.8004    23.4297    35.0922    11.5649 
  231.9528    23.4548    36.0328    11.4810 
  232.1052    23.4803    35.5636    11.4463 
  232.2576    23.4959    36.0327    11.4290 
  232.4100    23.5219    35.9061    11.4227 
  232.5624    23.5399    34.8776    11.5736 
  232.7148    23.5694    34.1978    11.8047 
  232.8672    23.5977    34.5543    12.0379 
  233.0196    23.6366    35.3610    12.2208 
  233.1720    23.6871    34.8277    12.1410 
  233.3244    23.7309    35.1422    12.3298 
  233.4768    23.7790    35.2983    12.3680 
  233.6292    23.8218    34.8849    12.4983 
  233.7816    23.8559    34.7334    12.7973 
  233.9340    23.8934    34.9573    12.8070 
  234.0864    23.9256    34.7643    12.7750 
  234.2388    23.9529    34.8136    12.7818 
  234.3912    23.9824    35.3905    12.4458 
  234.5436    24.0102    34.5119    12.6367 
  234.6960    24.0325    35.1684    12.7562 
  234.8484    24.0826    35.2742    12.5273 
  235.0008    24.1346    35.2693    12.5961 
  235.1532    24.2199    35.5431    12.4310 
  235.3056    24.2775    35.4073    12.3972 
  235.4580    24.3330    35.2465    12.4800 
  235.6104    24.3996    34.5808    12.8111 
  235.7628    24.4290    34.7118    12.8720 
  235.9152    24.4401    35.3099    12.9713 
  236.0676    24.4501    35.6439    13.0954 
  236.2200    24.4628    35.6037    13.1805 
  236.3724    24.4783    35.6511    13.5590 
  236.5248    24.4972    35.3772    13.6861 
  236.6772    24.5157    34.6904    13.6621 
  236.8296    24.5393    34.1498    13.6142 
  236.9820    24.5602    33.9124    13.4836 
  237.1344    24.5893    34.4958    13.2483 
  237.2868    24.6101    35.4794    13.2030 
  237.4392    24.6354    35.1049    13.0315 
  237.5916    24.6567    36.2524    12.7131 
  237.7440    24.6853    35.7556    12.2384 
  237.8964    24.7071    35.6463    11.9467 
  238.0488    24.7400    35.2774    11.8365 
  238.2012    24.7640    35.1779    12.0629 
  238.3536    24.7892    34.7810    12.3393 
  238.5060    24.8183    34.8236    12.8239 
  238.6584    24.8397    35.5025    12.9943 
  238.8108    24.8598    35.3410    13.3268 
  238.9632    24.8849    36.4269    13.4487 
  239.1156    24.9061    36.8095    13.6687 
  239.2680    24.9310    37.4394    13.6950 
  239.4204    24.9551    38.1628    13.4942 
  239.5728    24.9872    37.2299    13.4068 
  239.7252    25.0086    36.6134    13.2616 
  239.8776    25.0274    35.7286    13.1429 
  240.0300    25.0523    35.4857    12.9890 
  240.1824    25.0800    36.0595    13.0147 
  240.3348    25.0985    36.3398    12.9109 
  240.4872    25.1192    38.0182    12.8131 
  240.6396    25.1394    38.4834    12.8649 
  240.7920    25.1611    37.7433    12.7790 
  240.9444    25.1878    37.6039    12.5449 
  241.0968    25.2179    37.3816    12.3440 
  241.2492    25.2350    37.3276    12.1044 
  241.4016    25.2491    37.5635    12.2536 
  241.5540    25.2736    35.3672    12.0952 
  241.7064    25.2913    35.0038    12.0097 
  241.8588    25.3179    35.2671    12.0254 
  242.0112    25.3478    35.3127    11.7698 
  242.1636    25.3637    37.5934    11.6527 
  242.3160    25.3816    38.1302    11.6526 
  242.4684    25.3970    37.5911    11.6252 
  242.6208    25.4040    37.6541    11.5009 
  242.7732    25.3941    37.2061    11.4728 
  242.9256    25.3773    35.8639    11.4421 
  243.0780    25.3557    35.6310    11.3944 
  243.2304    25.3259    34.9451    11.3449 
  243.3828    25.3071    34.3680    11.3864 
  243.5352    25.2908    34.3863    11.3360 
  243.6876    25.2831    33.9192    11.2577 
  243.8400    25.2833    34.4941    11.4003 
  243.9924    25.2866    34.8861    11.3872 
