~VERSION INFORMATION
VERS  .       2.0                       : CWLS LOG ASCII STANDARD - VERSION 2.0
WRAP  .       NO                        : One line per depth step
~WELL INFORMATION
#MNEM .UNIT   DATA                      : DESCRIPTION OF MNEMONIC
#-----.----   ----                      : -----------------------
STRT  .m         0.0000                 : Start
STOP  .m      1565.6052                 : Stop
STEP  .m         0.1524                 : Step increment
NULL  .       -999.2500                 : Null value
COMP  .       TAG OIL                   : Company
WELL  .       CHEAL A-10                : Well
FLD   .       Cheal                     : Field
LOC   .                                 : Location
SRVC  .                                 : Service company
DATE  .       3/2/2012                  : Logging date
CNTY  .       STRATFORD                 : County
STAT  .       TARANAKI                  : State
CTRY  .       NEW ZEALAND               : Country
API   .                                 : API number
~CURVE INFORMATION
#MNEM .UNIT   API CODE                  : CURVE DESCRIPTION
#-----.----   --------                  : -----------------
DEPT  .m                                : Measured Depth
T-TEMP.°C                               : Tool Temperature
GR    .aapi                             : Gamma Ray
ROP   .m/hr                             : Rate of Penetration
~PARAMETER INFORMATION
#MNEM .UNIT   VALUE                     : DESCRIPTION
#-----.----   -----                     : -----------
~OTHER INFORMATION
MEMORY LOG
~A  DEPT     T-TEMP         GR        ROP   
# ...
 1247.8512    39.5304    90.5976    14.6922 
 1248.0036    39.5308    90.7314    12.2842 
 1248.1560    39.5420    90.4059    11.2250 
 1248.3084    39.5532    89.3093    10.9706 
 1248.4608    39.5666    88.1763    10.8498 
 1248.6132    39.5695    87.7775    10.8583 
 1248.7656    39.5724    87.4653    11.1571 
 1248.9180    39.5741    86.1707    11.7555 
 1249.0704    39.5741    86.0676    12.4373 
 1249.2228    39.5741    84.8847    13.1332 
 1249.3752    39.5770    84.1642    13.7657 
 1249.5276    39.5878    83.4099    14.8400 
 1249.6800    39.5985    81.1643    15.8537 
 1249.8324    39.5984    80.2554    17.7513 
 1249.9848    39.6011    78.1257    20.9785 
 1250.1372    39.6077    74.8565    23.0560 
 1250.2896    39.6136    75.3766    25.4902 
 1250.4420    39.6275    74.4669    26.8306 
 1250.5944    39.6275    72.8805    26.4135 
 1250.7468    39.6285    73.7478    28.1921 
 1250.8992    39.6296    73.4387    29.4681 
 1251.0516    39.6272    72.4515    30.6894 
 1251.2040    39.6342    72.6790    32.3879 
 1251.3564    39.6447    71.8461    26.9021 
 1251.5088    39.6186    70.4466    17.9704 
 1251.6612    39.5795    70.2482    12.7343 
 1251.8136    39.5464    70.3746     9.0274 
 1251.9660    39.5215    71.2636     7.3874 
 1252.1184    39.4755    75.3207    10.8200 
 1252.2708    39.4609    75.6386    16.6058 
 1252.4232    39.4025    75.8154    22.3156 
 1252.5756    39.3791    75.0111    25.2805 
 1252.7280    39.3641    74.1073    26.1458 
 1252.8804    39.3614    75.5929    22.2069 
 1253.0328    39.3602    78.7799    22.1862 
 1253.1852    39.3641    80.7209    23.1922 
 1253.3376    39.3634    82.9887    23.0482 
 1253.4900    39.3649    83.1469    21.0928 
 1253.6424    39.3741    82.0733    20.5229 
 1253.7948    39.3767    80.6170    20.6285 
 1253.9472    39.3850    80.9099    20.6287 
 1254.0996    39.3963    78.9557    27.4469 
 1254.2520    39.3983    79.4209    34.0518 
 1254.4044    39.4067    81.4095    35.8724 
 1254.5568    39.4187    79.6933    36.3861 
 1254.7092    39.4241    78.8019    36.1010 
 1254.8616    39.4329    79.0593    33.7412 
 1255.0140    39.4416    75.2451    25.1020 
 1255.1664    39.4481    74.8240    18.0710 
 1255.3188    39.4551    76.0053    15.7281 
 1255.4712    39.4587    75.3573    14.0939 
 1255.6236    39.4619    76.4893    17.4161 
 1255.7760    39.4664    79.3607    25.5633 
 1255.9284    39.4660    79.8619    31.5621 
 1256.0808    39.4691    80.3879    33.2679 
 1256.2332    39.4732    81.0024    32.6806 
 1256.3856    39.4748    80.9534    32.1164 
 1256.5380    39.4805    81.9811    32.4701 
 1256.6904    39.4879    82.2099    31.1623 
 1256.8428    39.4922    84.0185    30.0140 
 1256.9952    39.4976    85.1119    28.5462 
 1257.1476    39.5024    85.1705    27.1151 
 1257.3000    39.5015    87.2250    26.1344 
 1257.4524    39.5061    87.3742    25.6268 
 1257.6048    39.5024    89.8159    25.6525 
 1257.7572    39.4999    90.3303    25.5931 
 1257.9096    39.5004    89.2356    25.9600 
 1258.0620    39.4962    88.2501    26.1470 
 1258.2144    39.4910    85.8018    26.2988 
 1258.3668    39.4826    83.7655    26.8636 
 1258.5192    39.4693    82.8718    28.5983 
 1258.6716    39.4494    82.1985    29.3399 
 1258.8240    39.4296    83.9539    29.3762 
 1258.9764    39.4230    83.4577    28.4965 
 1259.1288    39.4135    83.5761    27.3943 
 1259.2812    39.4063    84.0134    26.5422 
 1259.4336    39.3981    84.9282    26.3908 
 1259.5860    39.3892    85.0770    26.3572 
 1259.7384    39.3834    86.0992    26.1255 
 1259.8908    39.3766    88.1491    25.2892 
 1260.0432    39.3697    87.6424    25.6737 
 1260.1956    39.3681    86.6041    25.7872 
 1260.3480    39.3681    85.3276    26.0744 
 1260.5004    39.3681    85.9233    26.0093 
 1260.6528    39.3664    85.0463    24.8817 
 1260.8052    39.3634    86.4501    23.8122 
 1260.9576    39.3605    90.0629    22.2739 
 1261.1100    39.3624    90.1296    21.7441 
 1261.2624    39.3656    91.1916    21.2476 
 1261.4148    39.3681    91.4085    20.9565 
 1261.5672    39.3658    90.2278    20.8881 
 1261.7196    39.3629    89.9052    20.5259 
 1261.8720    39.3623    89.5596    20.6544 
 1262.0244    39.3673    88.0602    21.1951 
 1262.1768    39.3697    86.0508    20.3677 
 1262.3292    39.3790    84.4481    16.4251 
 1262.4816    39.3847    85.2839    14.4699 
 1262.6340    39.3859    87.2585    13.6897 
 1262.7864    39.3851    87.8340    12.7183 
 1262.9388    39.3841    88.4614    15.3527 
 1263.0912    39.3834    86.5079    18.6999 
 1263.2436    39.3966    83.1491    20.3413 
 1263.3960    39.4135    83.3976    21.8607 
 1263.5484    39.4292    86.1561    22.7332 
 1263.7008    39.4274    87.5604    22.3788 
 1263.8532    39.4246    87.4433    21.2386 
 1264.0056    39.4218    88.1525    20.9620 
 1264.1580    39.4230    87.9875    20.9505 
 1264.3104    39.4259    89.5967    20.8811 
 1264.4628    39.4287    88.7404    19.8331 
 1264.6152    39.4351    88.1077    18.7563 
 1264.7676    39.4499    87.2013    18.1532 
 1264.9200    39.4647    85.3628    17.1255 
 1265.0724    39.4663    86.8310    17.2760 
 1265.2248    39.4632    89.2539    18.6429 
 1265.3772    39.4601    91.3426    18.9464 
 1265.5296    39.4639    92.3363    19.3439 
 1265.6820    39.4726    93.3275    19.4532 
 1265.8344    39.4814    90.2162    19.2483 
 1265.9868    39.4811    88.2795    18.7337 
 1266.1392    39.4778    88.4804    18.4867 
 1266.2916    39.4749    85.7625    18.1740 
 1266.4440    39.4770    84.9940    15.9414 
 1266.5964    39.4800    84.5179    14.1310 
 1266.7488    39.4845    83.1508    15.4602 
 1266.9012    39.4963    81.8001    15.0084 
 1267.0536    39.5075    80.5867    16.5895 
 1267.2060    39.5164    81.6053    16.9128 
 1267.3584    39.5169    82.7987    14.8371 
 1267.5108    39.5245    82.9094    13.8816 
 1267.6632    39.5295    82.0752    12.1006 
 1267.8156    39.5344    81.7049    11.1326 
 1267.9680    39.5383    83.6086    11.4874 
 1268.1204    39.5472    84.8769    11.4424 
 1268.2728    39.5560    87.5765    11.6713 
 1268.4252    39.5589    90.3899    12.9445 
 1268.5776    39.5589    90.1590    14.3181 
 1268.7300    39.5589    91.3232    13.9297 
 1268.8824    39.5592    91.9864    14.2467 
 1269.0348    39.5653    92.2746    14.5310 
 1269.1872    39.5713    89.9848    14.0495 
 1269.3396    39.5736    89.5078    14.2653 
 1269.4920    39.5675    86.8041    15.8102 
 1269.6444    39.5614    85.8192    16.3944 
 1269.7968    39.5596    87.5539    15.8896 
 1269.9492    39.5681    87.3359    15.9882 
 1270.1016    39.5766    86.5845    15.5065 
 1270.2540    39.5822    87.6672    13.9337 
 1270.4064    39.5884    86.7089    14.0487 
 1270.5588    39.5947    86.4340    13.7978 
 1270.7112    39.5884    87.0997    13.0865 
 1270.8636    39.5529    88.3023    12.9522 
 1271.0160    39.5174    88.2530    13.6002 
 1271.1684    39.4959    87.5929    13.6021 
 1271.3208    39.4798    86.8640    13.7056 
 1271.4732    39.4516    84.4761    14.5713 
 1271.6256    39.3891    83.7516    14.4394 
 1271.7780    39.3397    83.7704    14.3418 
 1271.9304    39.2989    83.5393    14.3318 
 1272.0828    39.2944    83.3662    14.0477 
 1272.2352    39.2787    84.4506    13.1440 
 1272.3876    39.2745    86.1303    13.1682 
 1272.5400    39.2720    85.2181    13.3884 
 1272.6924    39.2673    85.8220    13.0258 
 1272.8448    39.2702    85.3087    11.7027 
 1272.9972    39.2621    84.4072    13.4703 
 1273.1496    39.2576    84.0041    15.8752 
 1273.3020    39.2563    84.5940    18.6403 
 1273.4544    39.2606    84.2214    21.6549 
 1273.6068    39.2619    85.9753    22.8717 
 1273.7592    39.2561    85.5471    21.6725 
 1273.9116    39.2596    82.0831    20.8996 
 1274.0640    39.2615    80.6956    21.3680 
 1274.2164    39.2608    79.4796    21.5679 
 1274.3688    39.2675    78.8830    21.9343 
 1274.5212    39.2724    79.7403    21.6986 
 1274.6736    39.2714    81.7904    20.9540 
 1274.8260    39.2762    81.6522    20.5481 
