~VERSION INFORMATION
VERS  .       2.0                       : CWLS LOG ASCII STANDARD - VERSION 2.0
WRAP  .       NO                        : One line per depth step
~WELL INFORMATION
#MNEM .UNIT   DATA                      : DESCRIPTION OF MNEMONIC
#-----.----   ----                      : -----------------------
STRT  .m         0.0000                 : Start
STOP  .m      1565.6052                 : Stop
STEP  .m         0.1524                 : Step increment
NULL  .       -999.2500                 : Null value
COMP  .       TAG OIL                   : Company
WELL  .       CHEAL A-10                : Well
FLD   .       Cheal                     : Field
LOC   .                                 : Location
SRVC  .                                 : Service company
DATE  .       3/2/2012                  : Logging date
CNTY  .       STRATFORD                 : County
STAT  .       TARANAKI                  : State
CTRY  .       NEW ZEALAND               : Country
API   .                                 : API number
~CURVE INFORMATION
#MNEM .UNIT   API CODE                  : CURVE DESCRIPTION
#-----.----   --------                  : -----------------
DEPT  .m                                : Measured Depth
T-TEMP.°C                               : Tool Temperature
GR    .aapi                             : Gamma Ray
ROP   .m/hr                             : Rate of Penetration
~PARAMETER INFORMATION
#MNEM .UNIT   VALUE                     : DESCRIPTION
#-----.----   -----                     : -----------
~OTHER INFORMATION
MEMORY LOG
~A  DEPT     T-TEMP         GR        ROP   
# ...
 1030.8336    35.6069    80.4843    31.3470 
 1030.9860    35.6069    80.1844    30.6029 
 1031.1384    35.6069    78.3872    30.1620 
 1031.2908    35.6069    77.2385    29.5857 
 1031.4432    35.6095    77.8354    29.8525 
 1031.5956    35.6120    77.6469    30.6808 
 1031.7480    35.6120    78.2826    31.0388 
 1031.9004    35.6129    77.7810    31.5403 
 1032.0528    35.6168    76.3376    31.4246 
 1032.2052    35.6207    76.6976    30.1948 
 1032.3576    35.6246    79.2789    28.4034 
 1032.5100    35.6285    80.1092    26.5702 
 1032.6624    35.6301    82.2165    27.0673 
 1032.8148    35.6381    81.7671    26.1410 
 1032.9672    35.6461    78.6687    27.4066 
 1033.1196    35.6542    77.8561    29.0369 
 1033.2720    35.6603    76.0354    29.8137 
 1033.4244    35.6603    74.3423    30.2875 
 1033.5768    35.6603    73.5300    30.5806 
 1033.7292    35.6603    74.2457    29.2891 
 1033.8816    35.6603    75.5911    27.0373 
 1034.0340    35.6603    78.7685    22.6053 
 1034.1864    35.6629    81.4306    19.6999 
 1034.3388    35.6713    81.0177    17.8510 
 1034.4912    35.6796    80.8594    17.3768 
 1034.6436    35.6838    77.5311    20.8804 
 1034.7960    35.6893    77.0133    21.9500 
 1034.9484    35.6947    77.3969    23.2328 
 1035.1008    35.6985    77.8509    22.4878 
 1035.2532    35.7010    78.5856    22.2050 
 1035.4056    35.7038    78.3503    20.9015 
 1035.5580    35.7061    77.9398    21.2069 
 1035.7104    35.7097    76.6235    20.3025 
 1035.8628    35.7148    76.3395    20.3349 
 1036.0152    35.7200    78.4717    19.9862 
 1036.1676    35.7222    77.1935    22.0267 
 1036.3200    35.7247    77.0716    22.0611 
 1036.4724    35.7273    77.5111    22.4904 
 1036.6248    35.7290    76.1093    23.2948 
 1036.7772    35.7332    76.9257    23.9093 
 1036.9296    35.7390    77.6499    22.3777 
 1037.0820    35.7443    77.4724    21.7580 
 1037.2344    35.7443    77.3683    21.8572 
 1037.3868    35.7443    75.4384    21.0176 
 1037.5392    35.7443    76.3478    19.5159 
 1037.6916    35.7520    76.7221    20.8290 
 1037.8440    35.7602    76.7778    21.5835 
 1037.9964    35.7683    78.8476    20.6686 
 1038.1488    35.7748    78.8485    21.2032 
 1038.3012    35.7865    77.9896    22.9216 
 1038.4536    35.8035    77.1695    26.5693 
 1038.6060    35.8206    75.8202    29.5633 
 1038.7584    35.8345    75.8542    31.3037 
 1038.9108    35.8471    77.4332    28.1190 
 1039.0632    35.8513    79.1423    21.2931 
 1039.2156    35.8506    79.6723    19.8916 
 1039.3680    35.8388    78.9821    20.1894 
 1039.5204    35.8301    75.7790    23.4893 
 1039.6728    35.8102    73.9550    31.3262 
 1039.8252    35.7966    72.7195    35.4914 
 1039.9776    35.7911    73.6248    35.7223 
 1040.1300    35.7907    74.9055    35.0888 
 1040.2824    35.7963    75.8257    34.6354 
 1040.4348    35.7964    75.6070    33.8080 
 1040.5872    35.7973    75.4371    33.5719 
 1040.7396    35.8032    74.2170    33.2950 
 1040.8920    35.8068    75.0626    33.6483 
 1041.0444    35.8117    76.3081    34.1412 
 1041.1968    35.8155    76.9185    34.1831 
 1041.3492    35.8193    79.1672    34.0237 
 1041.5016    35.8214    79.5853    34.1546 
 1041.6540    35.8189    79.3893    33.9241 
 1041.8064    35.8210    79.7775    33.9979 
 1041.9588    35.8262    76.9135    34.1144 
 1042.1112    35.8282    76.1533    34.3110 
 1042.2636    35.8310    75.7424    34.0283 
 1042.4160    35.8366    75.3598    33.9823 
 1042.5684    35.8404    76.6908    34.2137 
 1042.7208    35.8429    77.3228    34.0929 
 1042.8732    35.8476    76.8195    34.1559 
 1043.0256    35.8507    76.4907    33.9768 
 1043.1780    35.8546    76.0733    33.5687 
 1043.3304    35.8535    74.7106    33.8859 
 1043.4828    35.8524    74.1933    33.7166 
 1043.6352    35.8513    72.9225    34.1142 
 1043.7876    35.8513    72.4986    34.1191 
 1043.9400    35.8537    73.1577    34.4009 
 1044.0924    35.8562    72.4187    34.1421 
 1044.2448    35.8586    73.9565    34.3229 
 1044.3972    35.8615    74.3114    34.1894 
 1044.5496    35.8656    74.8817    34.6870 
 1044.7020    35.8697    76.4884    34.5769 
 1044.8544    35.8737    76.8296    34.4940 
 1045.0068    35.8739    78.2220    33.2220 
 1045.1592    35.8739    78.0799    30.7758 
 1045.3116    35.8739    77.6121    29.3539 
 1045.4640    35.8739    76.6977    28.7584 
 1045.6164    35.8748    76.8197    29.3500 
 1045.7688    35.8787    76.9144    31.3946 
 1045.9212    35.8826    76.8876    34.5246 
 1046.0736    35.8864    75.6187    36.0735 
 1046.2260    35.8892    74.4311    36.3188 
 1046.3784    35.8904    74.0078    36.9714 
 1046.5308    35.8925    73.6948    37.3237 
 1046.6832    35.8946    73.0684    36.6396 
 1046.8356    35.8967    73.5761    36.1911 
 1046.9880    35.8986    72.2347    35.5771 
 1047.1404    35.9023    71.2331    34.6284 
 1047.2928    35.9059    72.6864    34.1679 
 1047.4452    35.9095    73.6860    34.2586 
 1047.5976    35.9121    74.7700    33.8124 
 1047.7500    35.9143    76.4062    33.9102 
 1047.9024    35.9180    76.1686    33.9885 
 1048.0548    35.9218    76.4196    33.8294 
 1048.2072    35.9255    76.0955    34.1780 
 1048.3596    35.9273    76.3322    34.1706 
 1048.5120    35.9306    76.6411    34.1238 
 1048.6644    35.9342    78.0162    29.0416 
 1048.8168    35.9378    78.5797    25.9951 
 1048.9692    35.9414    79.4852    24.5554 
 1049.1216    35.9442    80.8951    23.1942 
 1049.2740    35.9505    81.0278    22.3983 
 1049.4264    35.9568    82.9620    25.5262 
 1049.5788    35.9617    83.6533    25.1318 
 1049.7312    35.9668    84.1299    25.0471 
 1049.8836    35.9721    83.7882    24.4186 
 1050.0360    35.9815    82.7735    23.9423 
 1050.1884    35.9842    83.3137    24.4289 
 1050.3408    35.9868    84.1383    24.9696 
 1050.4932    35.9884    84.4352    25.3424 
 1050.6456    35.9924    86.6641    25.6187 
 1050.7980    35.9968    84.0189    25.2697 
 1050.9504    36.0011    81.6484    25.3273 
 1051.1028    36.0052    79.9722    25.9344 
 1051.2552    36.0160    77.6851    27.7139 
 1051.4076    36.0268    77.3977    30.0007 
 1051.5600    36.0341    78.0696    30.8968 
 1051.7124    36.0341    79.2789    30.5128 
 1051.8648    36.0370    79.8073    29.3986 
 1052.0172    36.0466    78.4752    28.3045 
 1052.1696    36.0563    79.6594    28.3022 
 1052.3220    36.0618    81.0692    29.3747 
 1052.4744    36.0672    80.2907    31.2007 
 1052.6268    36.0775    81.2854    32.5340 
 1052.7792    36.0828    81.3745    32.4672 
 1052.9316    36.0917    80.7672    31.2205 
 1053.0840    36.1007    81.1543    30.3562 
 1053.2364    36.1096    82.4126    29.6401 
 1053.3888    36.1104    81.9710    28.2156 
 1053.5412    36.1104    82.0883    20.2301 
 1053.6936    36.1147    82.9441    15.8936 
 1053.8460    36.1218    82.1869    12.5640 
 1053.9984    36.1305    80.3687     8.5076 
 1054.1508    36.1382    79.0995     8.9007 
 1054.3032    36.1409    77.6321     9.1081 
 1054.4556    36.1443    76.2394     9.5389 
 1054.6080    36.1503    76.7974    10.6535 
 1054.7604    36.1563    78.7517    12.9547 
 1054.9128    36.1623    78.9114    13.4831 
 1055.0652    36.1652    78.7732    14.3363 
 1055.2176    36.1793    80.0261    15.1496 
 1055.3700    36.1933    80.6769    14.9084 
 1055.5224    36.1944    81.0920    14.9522 
 1055.6748    36.2001    81.8924    14.8353 
 1055.8272    36.2089    82.2575    13.5914 
 1055.9796    36.2196    82.3950    14.8253 
 1056.1320    36.2325    81.6876    15.1911 
 1056.2844    36.2325    81.4701    15.9597 
 1056.4368    36.2325    80.5761    18.4731 
 1056.5892    36.2338    78.9755    19.1973 
 1056.7416    36.2408    77.9279    19.1782 
 1056.8940    36.2477    76.6876    20.6257 
 1057.0464    36.2547    75.9854    18.6737 
 1057.1988    36.2560    76.1805    17.6786 
 1057.3512    36.2581    76.3139    16.4528 
 1057.5036    36.2602    77.2710    13.6976 
 1057.6560    36.2623    79.1214    13.3231 
 1057.8084    36.2665    80.5502    16.7144 
