~Version Information
VERS.                     2.0: CWLS log ASCII Standard Version 2.00
WRAP.                     YES: Multiple lines per depth step

~Well Information Block
#MNEM.UNIT                 Value                       Information
#------------              -----                       -----------
STRT.M                      83.363                    :START
STOP.M                    1576.273                    :STOP
STEP.M                       0.152                    :STEP
NULL.                     -999.25                     :NULL VALUE
COMP.         TAG Oil                                 :Company
WELL.         Cheal-A10                               :Well
FLD .                                                 :Field Name
LOC .         Geodetic Datum 2000                     :Location
PROV.                                                 :Province
CNTY.         Taranaki                                :County
STATE.                                                 :State
CTRY.         New Zealand                             :Country
DATE.                                                 :Log Date
SRVC.                                                 :Service Company
UWI .                                                 :Unique Well Identifier
API .                                                 :API Number
FL1 .         5639460.731                             :Field Loc. 1 / Northing
FL2 .         1712320.438                             :Field Loc. 2 / Easting
LATI.         039 23' 13.335" N    DMS                :Latitude
LONG.         174 18' 15.262" E    DMS                :Longtitude
PD  .         MSL                                     :Permanent Datum
EPD .M             0.000                              :Elevation
EDF .M           269.800                              :Elevations D.F.
EGL .M           264.650                              :Elevations G.L.
ELZ .M           269.800                              :Elev. Log Zero
APD .M           269.800                              :Above Permanent Datum
LMF .         DF                                      :Log Measured From

~Curve Information
#MNEM   .UNIT             API CODE Curve Description
#------------             -------- -----------------
DEPT    .M            00 001 00 00:   0  Depth
DT      .US/F         60 520 32 01:  22  Delta-T (also called Slowness or Interval Transit Time)
ECGR    .API          30 150 01 01:  23  Environmentally Corrected Gamma Ray
GR      .API          30 150 01 01:  24  Gamma Ray
NPHI    .V/V          42 890 01 01:  25  Thermal Neutron Porosity (original Ratio Method) in Selected Lithology
NPOR    .V/V          42 890 01 01:  26  Enhanced Thermal Neutron Porosity in Selected Lithology
TNPH    .V/V          42 890 01 01:  27  Thermal Neutron Porosity (Ratio Method) in Selected Lithology
TENS    .lbf          84 635 11 01:  28  Cable Tension
BS      .INCH         00 000 00 00:  29  Bit Size
SP      .MV           05 010 01 01:  30  Spontaneous Potential
EHGR    .API          00 000 00 00:  31  High Resolution Corrected Gamma Ray
HGR     .API          30 150 01 01:  32  High Resolution Gamma Ray
HTNP    .V/V          00 000 00 00:  33  High Resolution Thermal Neutron Porosity (Ratio Method) in Selected Lithology
HDRA    .G/CC         45 356 01 01:  34  Density Standoff Correction
RHOZ    .G/CC         45 350 01 01:  35  Standard Resolution Formation Density
RLA0    .OHMM         00 000 00 00:  36  Apparent Resistivity from Computed Focusing Mode 0
RM_HRLT .OHMM         00 000 00 00:  37  HRLT Computed Mud Resistivity
RLA5    .OHMM         00 000 00 00:  38  Apparent Resistivity from Computed Focusing Mode 5
RT_HRLT .OHMM         00 000 00 00:  39  HRLT True Formation Resistivity
RLA3    .OHMM         00 000 00 00:  40  Apparent Resistivity from Computed Focusing Mode 3
RXO_HRLT.OHMM         00 000 00 00:  41  HRLT Invaded Zone Resistivity
RXO8    .OHMM         00 000 00 00:  42  Invaded Formation Resistivity filtered at 8 inches
RHO8    .G/CC         45 350 01 01:  43  High Resolution Formation Density
PEF8    .B/E          00 000 00 00:  44  High Resolution Formation Photoelectric Factor
RSO8    .INCH         00 000 00 00:  45  Resistivity Standoff High Resolution
PEFZ    .B/E          45 358 01 01:  46  Standard Resolution Formation Photoelectric Factor
RSOZ    .INCH         00 000 00 00:  47  Resistivity Standoff Standard Resolution
RLA4    .OHMM         00 000 00 00:  48  Apparent Resistivity from Computed Focusing Mode 4
RLA2    .OHMM         00 000 00 00:  49  Apparent Resistivity from Computed Focusing Mode 2
RXOZ    .OHMM         00 000 00 00:  50  Invaded Formation Resistivity filtered at 18 inches
DSO8    .INCH         00 000 00 00:  51  High Resolution Density Standoff
RLA1    .OHMM         95 220 00 01:  52  Apparent Resistivity from Computed Focusing Mode 1
HCAL    .INCH         70 280 00 01:  53  HRCC Caliper Calibrated

~Parameter Information
#MNEM.UNIT       Value           Description
#------------    -----           -----------
RUN .         1                 :Run Number
DATE.         03-Mar-2012       :Date
TDD .M        1577.000          :Depth Driller
TDL .M        1388.000          :Depth Logger
BLI .M        108.890           :First Reading
TLI .M        1392.940          :Last Reading
CBD .M        277.000           :Casing Driller
CBL .M        278.000           :Casing Logger
CS  .IN       9.625             :Casing Size
CW1 .LBCF     47.000            :Casing Weight
BS  .IN       8.500             :Bit Size
BSDF.M        208.500           :Bit Size Depth From
BSDT.M        1577.000          :Bit Size Depth To
DFT .         Water             :Hole Fluid Type
DFD .G/C3     1.108             :Density
DFV .SEC      61.000            :Viscosity
DFPH.         9.5               :pH
DFL .C3       6.000             :Fluid Loss
MSS .         Active Tank       :Sample Source
RM  .OHMM     0.124             :Rm @ Measured Temperature
RMT .DEGC     26.300            :Mud temp @ Surface
RMF .OHMM     0.093             :Rmf @ Measured Temperature
RMFT.DEGC     26.300            :MF temp @ Surface
RMC .OHMM     0.140             :RMC @ Measured Temperature
RMCT.DEGC     26.500            :MC temp @ Surface
MFSS.         Calculated        :Source Rmf
MCSS.         Pressed           :Source Rmc
RMB .OHMM     0.049             :Rm @ BHT
MST .DEGC     100.000           :Rm temp @ Bottom
RMFB.OHMM     0.037             :Rmf @ BHT
MFST.DEGC     100.000           :Rmf temp @ Bottom
RMCB.OHMM     0.060             :Rmc @ BHT
MCST.DEGC     100.000           :Rmc temp @ Bottom
TCS .         202000            :Time Since Circulation
DCS .         03-Mar-2012       :Date circ. stopped
TLAB.         004411            :Tool on Bottom
DLAB.         04-Mar-2012       :Date logger at btm
BHT .DEGC     40.630            :Bottom Hole Temperature
LUN .         2268              :Equipment No.
LUL .         NZNP              :Base Location
LCC .         440               :Logging Company ID
ENGI.         Jessica Riese     :Recorded By
WITN.         Graeme Timmis     :Witnessed By
RUN .         2                 :Run Number
DATE.         04-Mar-2012       :Date
TDD .M        1577.000          :Depth Driller
TDL .M        1574.000          :Depth Logger
BLI .M        108.890           :First Reading
TLI .M        1576.340          :Last Reading
CBD .M        277.000           :Casing Driller
CBL .M        278.000           :Casing Logger
CS  .IN       9.625             :Casing Size
CW1 .LB/FT    47.000            :Casing Weight
BS  .IN       8.500             :Bit Size
BSDF.M        208.500           :Bit Size Depth From
BSDT.M        1577.000          :Bit Size Depth To
DFT .         Water             :Hole Fluid Type
DFD .G/C3     1.108             :Density
DFV .SEC      61.000            :Viscosity
DFPH.         9.5               :pH
DFL .C3       6.000             :Fluid Loss
MSS .         Active Tank       :Sample Source
RM  .OHMM     0.124             :Rm @ Measured Temperature
RMT .DEGC     26.300            :Mud temp @ Surface
RMF .OHMM     0.093             :Rmf @ Measured Temperature
RMFT.DEGC     26.300            :MF temp @ Surface
RMC .OHMM     0.140             :RMC @ Measured Temperature
RMCT.DEGC     26.500            :MC temp @ Surface
MFSS.         Calculated        :Source Rmf
MCSS.         Pressed           :Source Rmc
RMB .OHMM     0.049             :Rm @ BHT
MST .DEGC     100.000           :Rm temp @ Bottom
RMFB.OHMM     0.037             :Rmf @ BHT
MFST.DEGC     100.000           :Rmf temp @ Bottom
RMCB.OHMM     0.060             :Rmc @ BHT
MCST.DEGC     100.000           :Rmc temp @ Bottom
TCS .         202000            :Time Since Circulation
DCS .         03-Mar-2012       :Date circ. stopped
TLAB.         063203            :Tool on Bottom
DLAB.         05-Mar-2012       :Date logger at btm
SHT .DEGC     16.000            :Surface hole temp
BHT .DEGC     41.600            :Bottom Hole Temperature
LUN .         2268              :Equipment No.
LUL .         NZNP              :Base Location
LCC .         440               :Logging Company ID
ENGI.         Jessica Riese     :Recorded By
WITN.         Graeme Timmis     :Witnessed By

~Other Information
Cheal A10_RUN2:
Log objective: Log PEX-HRLA-BHC-SP in 8.5" open hole section.
TD not tagged, lowest depth reached was 1388m.
Toolstring run with bowspring and 7x 1.5" standoffs as per toolsketch.
Log spliced between 1299-1321m
All wellsite data provided by client.
Maximum recorded temperature was 40.6degC recorded by head thermometers.

#
# --- LOG MNEMONICS ---
#
#Depth    
#DT         ECGR       GR         NPHI       NPOR       TNPH       TENS      
#BS         SP         EHGR       HGR        HTNP       HDRA       RHOZ      
#RLA0       RM_HRLT    RLA5       RT_HRLT    RLA3       RXO_HRLT   RXO8      
#RHO8       PEF8       RSO8       PEFZ       RSOZ       RLA4       RLA2      
#RXOZ       DSO8       RLA1       HCAL      
#
# --- LOG UNITS ---
#
#M        
#US/F       API        API        V/V        V/V        V/V        lbf       
#INCH       MV         API        API        V/V        G/CC       G/CC      
#OHMM       OHMM       OHMM       OHMM       OHMM       OHMM       OHMM      
#G/CC       B/E        INCH       B/E        INCH       OHMM       OHMM      
#OHMM       INCH       OHMM       INCH      

~A
# ...
  1069.086
    101.290    101.724    102.640      0.341      0.417      0.412   2041.267
      8.500    -66.479    105.328    106.277      0.417      0.032      2.310
      0.091      0.087     25.513     35.143     21.881      3.599      1.934
      2.336      2.835      0.083      2.800      0.095     24.597     18.240
      1.755      0.092     10.404      8.363
  1069.238
    102.077     99.919    101.115      0.359      0.399      0.383   2045.067
      8.500    -65.963    105.714    106.979      0.388      0.034      2.285
      0.088      0.085     30.645     42.529     25.976      3.769      1.428
      2.270      2.693      0.070      2.742      0.084     29.231     20.727
      1.426      0.110     11.308      8.317
  1069.391
     97.706     94.819     95.954      0.358      0.431      0.368   2081.067
      8.500    -65.858     95.978     97.127      0.367      0.038      2.291
      0.086      0.086     30.177     41.795     25.343      3.990      1.192
      2.229      2.649      0.088      2.754      0.089     28.423     19.842
      1.217      0.070     11.290      8.317
  1069.543
     88.826     89.978     91.144      0.314      0.387      0.331   2043.933
      8.500    -66.258     87.546     88.681      0.340      0.039      2.354
      0.091      0.089     32.329     44.742     26.814      4.249      1.186
      2.302      2.753      0.097      2.855      0.090     30.179     20.778
      1.376      0.171     11.862      8.306
  1069.696
     78.861     83.173     84.223      0.241      0.238      0.253   2033.133
      8.500    -66.650     89.660     90.793      0.269      0.041      2.477
      0.103      0.094     56.141     77.635     44.733      4.404      2.291
      2.563      3.114      0.090      3.012      0.085     51.294     32.780
      2.100      0.152     15.157      8.294
  1069.848
     69.234     75.387     76.364      0.179      0.175      0.209   2051.933
      8.500    -67.121     75.734     76.715      0.223      0.033      2.583
      0.110      0.100     38.889     53.258     31.416      4.014      8.529
      2.661      3.175      0.075      3.115      0.082     35.321     24.103
      5.471      0.092     12.446      8.271
  1070.000
     66.734     74.099     74.839      0.163      0.166      0.190   2072.800
      8.500    -67.063     75.957     76.716      0.199      0.025      2.624
      0.111      0.104     35.423     47.964     28.695      4.305     19.318
      2.700      3.117      0.079      3.119      0.076     32.016     23.267
     10.180      0.073     12.561      8.325
  1070.153
     66.420     76.115     76.951      0.179      0.189      0.201   2088.800
      8.500    -67.016     71.358     72.141      0.199      0.026      2.599
      0.110      0.102     33.395     44.520     27.394      5.671      7.007
      2.604      3.045      0.073      3.076      0.074     30.205     23.439
      6.626      0.077     14.292      8.306
  1070.305
     70.792     76.725     77.872      0.200      0.224      0.230   2030.250
      8.500    -67.054     78.707     79.883      0.220      0.037      2.548
      0.107      0.099     29.802     39.369     24.347      6.014      4.076
      2.511      2.962      0.069      3.036      0.072     26.823     21.116
      4.734      0.062     13.747      8.294
  1070.458
     77.111     76.150     77.403      0.248      0.273      0.259   2062.667
      8.500    -67.204     73.396     74.604      0.245      0.042      2.479
      0.100      0.094     30.962     41.020     24.860      5.077      4.766
      2.472      3.108      0.075      3.008      0.083     27.507     21.163
      3.379      0.006     12.827      8.202
  1070.610
     80.565     77.458     78.693      0.275      0.327      0.302   2059.400
      8.500    -67.012     82.786     84.106      0.284      0.045      2.419
      0.096      0.091     32.894     44.063     26.092      4.505      2.311
      2.326      3.024      0.114      2.969      0.106     28.962     21.470
      2.419      0.094     12.111      8.248
  1070.762
     84.787     80.974     82.347      0.301      0.341      0.311   2064.600
      8.500    -67.012     76.822     78.124      0.311      0.046      2.383
      0.095      0.089     33.949     46.111     27.094      5.697      2.017
      2.391      2.720      0.127      2.939      0.136     29.915     21.473
      2.244      0.134     13.342      8.191
  1070.915
     85.329     80.318     81.760      0.283      0.325      0.318   2041.733
      8.500    -66.850     77.783     79.180      0.320      0.050      2.378
      0.098      0.088     37.371     50.666     30.343      6.075      2.788
      2.382      3.014      0.171      2.946      0.158     33.194     23.885
      2.152      0.068     14.835      8.202
  1071.067
     78.425     78.333     79.766      0.258      0.297      0.293   2112.600
      8.500    -66.842     83.286     84.809      0.310      0.053      2.401
      0.096      0.088     37.146     50.023     30.441      5.214      2.103
      2.382      2.927      0.189      2.974      0.166     33.312     24.472
      2.559      0.198     14.285      8.179
  1071.220
     73.840     75.108     76.481      0.222      0.244      0.274   2070.600
      8.500    -66.938     73.265     74.605      0.279      0.057      2.441
      0.096      0.088     44.839     60.235     37.372      4.650      3.156
      2.490      3.133      0.134      2.997      0.134     40.630     30.625
      2.961      0.205     15.730      8.148
  1071.372
     74.109     76.295     77.537      0.213      0.238      0.262   2045.600
      8.500    -66.842     73.063     74.253      0.262      0.053      2.467
      0.095      0.087     38.883     52.146     33.118      4.840      4.032
      2.523      2.988      0.088      2.977      0.097     35.562     27.792
      3.108      0.136     15.302      8.179
  1071.524
     80.098     81.664     82.346      0.224      0.267      0.277   2094.067
      8.500    -67.067     78.873     79.531      0.259      0.037      2.433
      0.092      0.087     32.977     44.319     28.607      4.924      2.353
      2.439      2.838      0.077      2.909      0.077     30.346     23.941
      2.491      0.092     14.133      8.371
  1071.677
     90.728     87.882     88.329      0.256      0.320      0.296   2069.800
      8.500    -67.817     86.830     87.272      0.289      0.017      2.366
      0.087      0.087     31.611     42.678     27.387      4.684      1.777
      2.320      2.866      0.060      2.841      0.049     29.099     22.530
      1.688      0.040     13.303      8.432
  1071.829
    100.414     91.590     91.789      0.286      0.348      0.318   2087.267
      8.500    -68.446     94.459     94.664      0.313      0.003      2.313
      0.087      0.087     28.926     38.915     25.119      4.190      1.408
      2.278      2.632      0.013      2.805      0.042     26.736     21.050
      1.609     -0.017     12.261      8.524
  1071.982
    104.262     90.098     90.265      0.314      0.346      0.329   2045.600
      8.500    -68.567     95.893     96.071      0.328     -0.001      2.303
      0.086      0.086     27.462     36.599     24.145      4.118      1.652
      2.300      2.887      0.051      2.837      0.048     25.610     21.094
      1.561     -0.011     12.398      8.570
  1072.134
     95.847     91.092     91.437      0.321      0.341      0.349   2103.000
      8.500    -68.008     86.243     86.570      0.336     -0.001      2.308
      0.086      0.085     24.556     32.608     21.783      4.478      1.794
      2.310      2.968      0.069      2.883      0.061     23.061     19.304
      1.859      0.026     12.107      8.486
  1072.286
     95.628     92.110     92.669      0.321      0.362      0.365   2075.333
      8.500    -67.967     94.442     95.015      0.371     -0.001      2.316
      0.087      0.084     24.627     32.671     21.929      4.790      2.276
      2.326      2.913      0.053      2.906      0.061     23.233     19.407
      2.036      0.007     12.501      8.447
