~Version Information
VERS.                     2.0: CWLS log ASCII Standard Version 2.00
WRAP.                     YES: Multiple lines per depth step

~Well Information Block
#MNEM.UNIT                 Value                       Information
#------------              -----                       -----------
STRT.M                      83.363                    :START
STOP.M                    1576.273                    :STOP
STEP.M                       0.152                    :STEP
NULL.                     -999.25                     :NULL VALUE
COMP.         TAG Oil                                 :Company
WELL.         Cheal-A10                               :Well
FLD .                                                 :Field Name
LOC .         Geodetic Datum 2000                     :Location
PROV.                                                 :Province
CNTY.         Taranaki                                :County
STATE.                                                 :State
CTRY.         New Zealand                             :Country
DATE.                                                 :Log Date
SRVC.                                                 :Service Company
UWI .                                                 :Unique Well Identifier
API .                                                 :API Number
FL1 .         5639460.731                             :Field Loc. 1 / Northing
FL2 .         1712320.438                             :Field Loc. 2 / Easting
LATI.         039 23' 13.335" N    DMS                :Latitude
LONG.         174 18' 15.262" E    DMS                :Longtitude
PD  .         MSL                                     :Permanent Datum
EPD .M             0.000                              :Elevation
EDF .M           269.800                              :Elevations D.F.
EGL .M           264.650                              :Elevations G.L.
ELZ .M           269.800                              :Elev. Log Zero
APD .M           269.800                              :Above Permanent Datum
LMF .         DF                                      :Log Measured From

~Curve Information
#MNEM   .UNIT             API CODE Curve Description
#------------             -------- -----------------
DEPT    .M            00 001 00 00:   0  Depth
DT      .US/F         60 520 32 01:  22  Delta-T (also called Slowness or Interval Transit Time)
ECGR    .API          30 150 01 01:  23  Environmentally Corrected Gamma Ray
GR      .API          30 150 01 01:  24  Gamma Ray
NPHI    .V/V          42 890 01 01:  25  Thermal Neutron Porosity (original Ratio Method) in Selected Lithology
NPOR    .V/V          42 890 01 01:  26  Enhanced Thermal Neutron Porosity in Selected Lithology
TNPH    .V/V          42 890 01 01:  27  Thermal Neutron Porosity (Ratio Method) in Selected Lithology
TENS    .lbf          84 635 11 01:  28  Cable Tension
BS      .INCH         00 000 00 00:  29  Bit Size
SP      .MV           05 010 01 01:  30  Spontaneous Potential
EHGR    .API          00 000 00 00:  31  High Resolution Corrected Gamma Ray
HGR     .API          30 150 01 01:  32  High Resolution Gamma Ray
HTNP    .V/V          00 000 00 00:  33  High Resolution Thermal Neutron Porosity (Ratio Method) in Selected Lithology
HDRA    .G/CC         45 356 01 01:  34  Density Standoff Correction
RHOZ    .G/CC         45 350 01 01:  35  Standard Resolution Formation Density
RLA0    .OHMM         00 000 00 00:  36  Apparent Resistivity from Computed Focusing Mode 0
RM_HRLT .OHMM         00 000 00 00:  37  HRLT Computed Mud Resistivity
RLA5    .OHMM         00 000 00 00:  38  Apparent Resistivity from Computed Focusing Mode 5
RT_HRLT .OHMM         00 000 00 00:  39  HRLT True Formation Resistivity
RLA3    .OHMM         00 000 00 00:  40  Apparent Resistivity from Computed Focusing Mode 3
RXO_HRLT.OHMM         00 000 00 00:  41  HRLT Invaded Zone Resistivity
RXO8    .OHMM         00 000 00 00:  42  Invaded Formation Resistivity filtered at 8 inches
RHO8    .G/CC         45 350 01 01:  43  High Resolution Formation Density
PEF8    .B/E          00 000 00 00:  44  High Resolution Formation Photoelectric Factor
RSO8    .INCH         00 000 00 00:  45  Resistivity Standoff High Resolution
PEFZ    .B/E          45 358 01 01:  46  Standard Resolution Formation Photoelectric Factor
RSOZ    .INCH         00 000 00 00:  47  Resistivity Standoff Standard Resolution
RLA4    .OHMM         00 000 00 00:  48  Apparent Resistivity from Computed Focusing Mode 4
RLA2    .OHMM         00 000 00 00:  49  Apparent Resistivity from Computed Focusing Mode 2
RXOZ    .OHMM         00 000 00 00:  50  Invaded Formation Resistivity filtered at 18 inches
DSO8    .INCH         00 000 00 00:  51  High Resolution Density Standoff
RLA1    .OHMM         95 220 00 01:  52  Apparent Resistivity from Computed Focusing Mode 1
HCAL    .INCH         70 280 00 01:  53  HRCC Caliper Calibrated

~Parameter Information
#MNEM.UNIT       Value           Description
#------------    -----           -----------
RUN .         1                 :Run Number
DATE.         03-Mar-2012       :Date
TDD .M        1577.000          :Depth Driller
TDL .M        1388.000          :Depth Logger
BLI .M        108.890           :First Reading
TLI .M        1392.940          :Last Reading
CBD .M        277.000           :Casing Driller
CBL .M        278.000           :Casing Logger
CS  .IN       9.625             :Casing Size
CW1 .LBCF     47.000            :Casing Weight
BS  .IN       8.500             :Bit Size
BSDF.M        208.500           :Bit Size Depth From
BSDT.M        1577.000          :Bit Size Depth To
DFT .         Water             :Hole Fluid Type
DFD .G/C3     1.108             :Density
DFV .SEC      61.000            :Viscosity
DFPH.         9.5               :pH
DFL .C3       6.000             :Fluid Loss
MSS .         Active Tank       :Sample Source
RM  .OHMM     0.124             :Rm @ Measured Temperature
RMT .DEGC     26.300            :Mud temp @ Surface
RMF .OHMM     0.093             :Rmf @ Measured Temperature
RMFT.DEGC     26.300            :MF temp @ Surface
RMC .OHMM     0.140             :RMC @ Measured Temperature
RMCT.DEGC     26.500            :MC temp @ Surface
MFSS.         Calculated        :Source Rmf
MCSS.         Pressed           :Source Rmc
RMB .OHMM     0.049             :Rm @ BHT
MST .DEGC     100.000           :Rm temp @ Bottom
RMFB.OHMM     0.037             :Rmf @ BHT
MFST.DEGC     100.000           :Rmf temp @ Bottom
RMCB.OHMM     0.060             :Rmc @ BHT
MCST.DEGC     100.000           :Rmc temp @ Bottom
TCS .         202000            :Time Since Circulation
DCS .         03-Mar-2012       :Date circ. stopped
TLAB.         004411            :Tool on Bottom
DLAB.         04-Mar-2012       :Date logger at btm
BHT .DEGC     40.630            :Bottom Hole Temperature
LUN .         2268              :Equipment No.
LUL .         NZNP              :Base Location
LCC .         440               :Logging Company ID
ENGI.         Jessica Riese     :Recorded By
WITN.         Graeme Timmis     :Witnessed By
RUN .         2                 :Run Number
DATE.         04-Mar-2012       :Date
TDD .M        1577.000          :Depth Driller
TDL .M        1574.000          :Depth Logger
BLI .M        108.890           :First Reading
TLI .M        1576.340          :Last Reading
CBD .M        277.000           :Casing Driller
CBL .M        278.000           :Casing Logger
CS  .IN       9.625             :Casing Size
CW1 .LB/FT    47.000            :Casing Weight
BS  .IN       8.500             :Bit Size
BSDF.M        208.500           :Bit Size Depth From
BSDT.M        1577.000          :Bit Size Depth To
DFT .         Water             :Hole Fluid Type
DFD .G/C3     1.108             :Density
DFV .SEC      61.000            :Viscosity
DFPH.         9.5               :pH
DFL .C3       6.000             :Fluid Loss
MSS .         Active Tank       :Sample Source
RM  .OHMM     0.124             :Rm @ Measured Temperature
RMT .DEGC     26.300            :Mud temp @ Surface
RMF .OHMM     0.093             :Rmf @ Measured Temperature
RMFT.DEGC     26.300            :MF temp @ Surface
RMC .OHMM     0.140             :RMC @ Measured Temperature
RMCT.DEGC     26.500            :MC temp @ Surface
MFSS.         Calculated        :Source Rmf
MCSS.         Pressed           :Source Rmc
RMB .OHMM     0.049             :Rm @ BHT
MST .DEGC     100.000           :Rm temp @ Bottom
RMFB.OHMM     0.037             :Rmf @ BHT
MFST.DEGC     100.000           :Rmf temp @ Bottom
RMCB.OHMM     0.060             :Rmc @ BHT
MCST.DEGC     100.000           :Rmc temp @ Bottom
TCS .         202000            :Time Since Circulation
DCS .         03-Mar-2012       :Date circ. stopped
TLAB.         063203            :Tool on Bottom
DLAB.         05-Mar-2012       :Date logger at btm
SHT .DEGC     16.000            :Surface hole temp
BHT .DEGC     41.600            :Bottom Hole Temperature
LUN .         2268              :Equipment No.
LUL .         NZNP              :Base Location
LCC .         440               :Logging Company ID
ENGI.         Jessica Riese     :Recorded By
WITN.         Graeme Timmis     :Witnessed By

~Other Information
Cheal A10_RUN2:
Log objective: Log PEX-HRLA-BHC-SP in 8.5" open hole section.
TD not tagged, lowest depth reached was 1388m.
Toolstring run with bowspring and 7x 1.5" standoffs as per toolsketch.
Log spliced between 1299-1321m
All wellsite data provided by client.
Maximum recorded temperature was 40.6degC recorded by head thermometers.

#
# --- LOG MNEMONICS ---
#
#Depth    
#DT         ECGR       GR         NPHI       NPOR       TNPH       TENS      
#BS         SP         EHGR       HGR        HTNP       HDRA       RHOZ      
#RLA0       RM_HRLT    RLA5       RT_HRLT    RLA3       RXO_HRLT   RXO8      
#RHO8       PEF8       RSO8       PEFZ       RSOZ       RLA4       RLA2      
#RXOZ       DSO8       RLA1       HCAL      
#
# --- LOG UNITS ---
#
#M        
#US/F       API        API        V/V        V/V        V/V        lbf       
#INCH       MV         API        API        V/V        G/CC       G/CC      
#OHMM       OHMM       OHMM       OHMM       OHMM       OHMM       OHMM      
#G/CC       B/E        INCH       B/E        INCH       OHMM       OHMM      
#OHMM       INCH       OHMM       INCH      

~A
# ...
  1364.132
     98.626    109.380    112.297      0.334      0.384      0.372   2667.312
      8.500    -35.912    114.588    117.644      0.372      0.014      2.320
      0.085      0.084      2.798      3.134      2.585      1.431      1.411
      2.298      3.069      0.103      2.991      0.110      2.654      2.459
      1.419      0.042      2.262      7.989
  1364.285
     98.681    102.313    105.286      0.348      0.370      0.385   2627.938
      8.500    -35.693    100.466    103.385      0.382      0.027      2.314
      0.083      0.084      2.141      2.362      1.981      1.176      1.072
      2.270      2.798      0.118      2.942      0.116      2.025      1.892
      1.247      0.083      1.762      7.943
  1364.437
     99.526     99.855    102.790      0.366      0.403      0.409   2645.267
      8.500    -35.502    100.432    103.384      0.408      0.045      2.332
      0.084      0.081      2.514      2.786      2.317      1.382      1.483
      2.344      2.982      0.137      2.935      0.126      2.371      2.238
      1.310      0.120      2.054      7.943
  1364.590
     98.960    103.421    106.355      0.358      0.450      0.438   2553.750
      8.500    -35.140    103.652    106.592      0.432      0.057      2.347
      0.082      0.079      2.950      3.305      2.706      1.527      1.371
      2.353      3.068      0.124      2.942      0.120      2.777      2.622
      1.277      0.157      2.365      7.928
  1364.742
     98.656    102.469    105.166      0.334      0.420      0.416   2652.000
      8.500    -34.385    100.733    103.384      0.440      0.058      2.346
      0.080      0.081      2.427      2.701      2.225      1.329      0.964
      2.327      2.800      0.103      2.938      0.112      2.291      2.172
      1.220      0.143      1.976      7.966
  1364.894
     99.911    105.457    108.019      0.323      0.383      0.379   2603.312
      8.500    -34.404    104.412    106.949      0.397      0.057      2.341
      0.081      0.080      2.658      3.021      2.436      1.432      1.358
      2.381      3.014      0.115      2.945      0.124      2.521      2.354
      1.197      0.129      2.114      8.012
  1365.047
     98.953    107.323    110.039      0.334      0.364      0.360   2545.500
      8.500    -34.511     99.790    102.315      0.376      0.055      2.329
      0.082      0.081      2.610      2.965      2.395      1.421      1.293
      2.331      3.000      0.157      2.963      0.147      2.477      2.255
      1.239      0.154      2.086      8.035
  1365.199
     97.845    113.364    116.813      0.349      0.385      0.374   2662.800
      8.500    -34.463    113.479    116.932      0.355      0.057      2.332
      0.082      0.082      2.609      3.016      2.400      1.382      1.126
      2.322      2.878      0.161      3.010      0.159      2.483      2.198
      1.301      0.154      2.038      7.943
  1365.352
     96.615    113.136    116.812      0.340      0.366      0.388   2621.812
      8.500    -35.150    112.216    115.862      0.379      0.062      2.351
      0.087      0.081      3.707      4.427      3.379      1.741      1.861
      2.349      3.083      0.142      3.083      0.140      3.530      3.094
      1.604      0.151      2.728      7.836
  1365.504
     92.852    114.631    118.119      0.350      0.394      0.389   2619.500
      8.500    -35.611    120.743    124.417      0.381      0.072      2.384
      0.089      0.081      4.084      4.898      3.691      1.867      2.179
      2.366      3.251      0.122      3.174      0.137      3.892      3.423
      2.112      0.197      2.969      7.897
  1365.656
     90.932    109.375    112.534      0.353      0.401      0.403   2716.812
      8.500    -35.381    113.302    116.574      0.411      0.083      2.410
      0.090      0.082      4.386      5.291      3.981      1.948      1.927
      2.391      3.274      0.160      3.222      0.160      4.173      3.685
      2.314      0.206      3.154      7.897
  1365.809
     89.774    108.744    111.941      0.350      0.415      0.406   2665.400
      8.500    -35.240    105.280    108.375      0.406      0.084      2.403
      0.086      0.082      3.985      4.801      3.610      1.735      2.959
      2.494      3.443      0.183      3.173      0.165      3.772      3.327
      2.045      0.255      2.851      7.943
  1365.961
     87.060    104.658    107.306      0.327      0.387      0.402   2594.875
      8.500    -34.928    112.656    115.507      0.401      0.074      2.362
      0.084      0.082      2.958      3.466      2.690      1.439      1.477
      2.341      2.922      0.133      3.036      0.145      2.799      2.495
      1.445      0.166      2.230      7.966
  1366.114
     86.570     98.188    101.008      0.328      0.377      0.375   2617.333
      8.500    -34.623     97.379    100.175      0.384      0.052      2.304
      0.080      0.081      2.702      3.135      2.440      1.347      0.972
      2.274      2.700      0.118      2.889      0.115      2.548      2.279
      1.080      0.110      2.055      8.035
  1366.266
     88.440     94.836     97.918      0.339      0.394      0.377   2639.813
      8.500    -34.640     89.773     92.690      0.378      0.038      2.275
      0.081      0.080      2.751      3.182      2.467      1.370      1.010
      2.243      2.782      0.110      2.835      0.103      2.595      2.342
      0.990      0.099      2.096      7.874
  1366.418
     88.925     97.812    100.888      0.343      0.367      0.376   2661.438
      8.500    -34.924     91.936     94.828      0.374      0.042      2.297
      0.083      0.081      2.632      3.014      2.352      1.364      1.020
      2.284      2.853      0.091      2.904      0.102      2.489      2.269
      1.106      0.139      2.038      7.886
  1366.571
     91.853    103.318    106.355      0.340      0.391      0.392   2658.867
      8.500    -35.260    117.055    120.496      0.383      0.054      2.338
      0.086      0.081      3.291      3.828      2.951      1.614      1.390
      2.371      3.089      0.105      3.034      0.107      3.106      2.845
      1.370      0.155      2.485      7.889
  1366.723
     94.720    107.840    110.514      0.347      0.375      0.393   2616.688
      8.500    -35.853     92.882     95.185      0.401      0.058      2.357
      0.087      0.083      3.472      4.086      3.176      1.601      1.709
      2.349      3.343      0.114      3.124      0.112      3.281      3.023
      1.535      0.132      2.596      7.977
  1366.876
     95.943    106.445    108.851      0.355      0.431      0.405   2614.933
      8.500    -36.556    108.420    110.870      0.409      0.058      2.369
      0.085      0.087      2.677      3.112      2.497      1.349      1.488
      2.328      2.995      0.115      3.164      0.115      2.536      2.339
      1.778      0.125      2.071      8.073
  1367.028
     96.591    110.794    113.485      0.344      0.416      0.406   2627.250
      8.500    -37.315    114.854    117.644      0.405      0.050      2.372
      0.087      0.088      3.243      3.824      3.037      1.575      2.157
      2.406      3.128      0.132      3.189      0.130      3.064      2.802
      1.813      0.162      2.452      8.035
  1367.180
     97.004    110.687    112.891      0.330      0.363      0.386   2689.562
      8.500    -38.029    109.406    111.585      0.375      0.048      2.392
      0.091      0.088      4.044      4.799      3.796      1.918      2.084
      2.417      3.282      0.146      3.227      0.129      3.831      3.514
      2.245      0.171      3.039      8.111
  1367.333
     96.941    107.881    109.920      0.322      0.379      0.387   2669.067
      8.500    -38.844    115.460    117.643      0.385      0.045      2.393
      0.093      0.088      4.488      5.339      4.199      2.101      2.336
      2.432      3.399      0.106      3.225      0.113      4.270      3.897
      2.273      0.171      3.363      8.127
