~Version Information
VERS.                     2.0: CWLS log ASCII Standard Version 2.00
WRAP.                     YES: Multiple lines per depth step

~Well Information Block
#MNEM.UNIT                 Value                       Information
#------------              -----                       -----------
STRT.M                      83.363                    :START
STOP.M                    1576.273                    :STOP
STEP.M                       0.152                    :STEP
NULL.                     -999.25                     :NULL VALUE
COMP.         TAG Oil                                 :Company
WELL.         Cheal-A10                               :Well
FLD .                                                 :Field Name
LOC .         Geodetic Datum 2000                     :Location
PROV.                                                 :Province
CNTY.         Taranaki                                :County
STATE.                                                 :State
CTRY.         New Zealand                             :Country
DATE.                                                 :Log Date
SRVC.                                                 :Service Company
UWI .                                                 :Unique Well Identifier
API .                                                 :API Number
FL1 .         5639460.731                             :Field Loc. 1 / Northing
FL2 .         1712320.438                             :Field Loc. 2 / Easting
LATI.         039 23' 13.335" N    DMS                :Latitude
LONG.         174 18' 15.262" E    DMS                :Longtitude
PD  .         MSL                                     :Permanent Datum
EPD .M             0.000                              :Elevation
EDF .M           269.800                              :Elevations D.F.
EGL .M           264.650                              :Elevations G.L.
ELZ .M           269.800                              :Elev. Log Zero
APD .M           269.800                              :Above Permanent Datum
LMF .         DF                                      :Log Measured From

~Curve Information
#MNEM   .UNIT             API CODE Curve Description
#------------             -------- -----------------
DEPT    .M            00 001 00 00:   0  Depth
DT      .US/F         60 520 32 01:  22  Delta-T (also called Slowness or Interval Transit Time)
ECGR    .API          30 150 01 01:  23  Environmentally Corrected Gamma Ray
GR      .API          30 150 01 01:  24  Gamma Ray
NPHI    .V/V          42 890 01 01:  25  Thermal Neutron Porosity (original Ratio Method) in Selected Lithology
NPOR    .V/V          42 890 01 01:  26  Enhanced Thermal Neutron Porosity in Selected Lithology
TNPH    .V/V          42 890 01 01:  27  Thermal Neutron Porosity (Ratio Method) in Selected Lithology
TENS    .lbf          84 635 11 01:  28  Cable Tension
BS      .INCH         00 000 00 00:  29  Bit Size
SP      .MV           05 010 01 01:  30  Spontaneous Potential
EHGR    .API          00 000 00 00:  31  High Resolution Corrected Gamma Ray
HGR     .API          30 150 01 01:  32  High Resolution Gamma Ray
HTNP    .V/V          00 000 00 00:  33  High Resolution Thermal Neutron Porosity (Ratio Method) in Selected Lithology
HDRA    .G/CC         45 356 01 01:  34  Density Standoff Correction
RHOZ    .G/CC         45 350 01 01:  35  Standard Resolution Formation Density
RLA0    .OHMM         00 000 00 00:  36  Apparent Resistivity from Computed Focusing Mode 0
RM_HRLT .OHMM         00 000 00 00:  37  HRLT Computed Mud Resistivity
RLA5    .OHMM         00 000 00 00:  38  Apparent Resistivity from Computed Focusing Mode 5
RT_HRLT .OHMM         00 000 00 00:  39  HRLT True Formation Resistivity
RLA3    .OHMM         00 000 00 00:  40  Apparent Resistivity from Computed Focusing Mode 3
RXO_HRLT.OHMM         00 000 00 00:  41  HRLT Invaded Zone Resistivity
RXO8    .OHMM         00 000 00 00:  42  Invaded Formation Resistivity filtered at 8 inches
RHO8    .G/CC         45 350 01 01:  43  High Resolution Formation Density
PEF8    .B/E          00 000 00 00:  44  High Resolution Formation Photoelectric Factor
RSO8    .INCH         00 000 00 00:  45  Resistivity Standoff High Resolution
PEFZ    .B/E          45 358 01 01:  46  Standard Resolution Formation Photoelectric Factor
RSOZ    .INCH         00 000 00 00:  47  Resistivity Standoff Standard Resolution
RLA4    .OHMM         00 000 00 00:  48  Apparent Resistivity from Computed Focusing Mode 4
RLA2    .OHMM         00 000 00 00:  49  Apparent Resistivity from Computed Focusing Mode 2
RXOZ    .OHMM         00 000 00 00:  50  Invaded Formation Resistivity filtered at 18 inches
DSO8    .INCH         00 000 00 00:  51  High Resolution Density Standoff
RLA1    .OHMM         95 220 00 01:  52  Apparent Resistivity from Computed Focusing Mode 1
HCAL    .INCH         70 280 00 01:  53  HRCC Caliper Calibrated

~Parameter Information
#MNEM.UNIT       Value           Description
#------------    -----           -----------
RUN .         1                 :Run Number
DATE.         03-Mar-2012       :Date
TDD .M        1577.000          :Depth Driller
TDL .M        1388.000          :Depth Logger
BLI .M        108.890           :First Reading
TLI .M        1392.940          :Last Reading
CBD .M        277.000           :Casing Driller
CBL .M        278.000           :Casing Logger
CS  .IN       9.625             :Casing Size
CW1 .LBCF     47.000            :Casing Weight
BS  .IN       8.500             :Bit Size
BSDF.M        208.500           :Bit Size Depth From
BSDT.M        1577.000          :Bit Size Depth To
DFT .         Water             :Hole Fluid Type
DFD .G/C3     1.108             :Density
DFV .SEC      61.000            :Viscosity
DFPH.         9.5               :pH
DFL .C3       6.000             :Fluid Loss
MSS .         Active Tank       :Sample Source
RM  .OHMM     0.124             :Rm @ Measured Temperature
RMT .DEGC     26.300            :Mud temp @ Surface
RMF .OHMM     0.093             :Rmf @ Measured Temperature
RMFT.DEGC     26.300            :MF temp @ Surface
RMC .OHMM     0.140             :RMC @ Measured Temperature
RMCT.DEGC     26.500            :MC temp @ Surface
MFSS.         Calculated        :Source Rmf
MCSS.         Pressed           :Source Rmc
RMB .OHMM     0.049             :Rm @ BHT
MST .DEGC     100.000           :Rm temp @ Bottom
RMFB.OHMM     0.037             :Rmf @ BHT
MFST.DEGC     100.000           :Rmf temp @ Bottom
RMCB.OHMM     0.060             :Rmc @ BHT
MCST.DEGC     100.000           :Rmc temp @ Bottom
TCS .         202000            :Time Since Circulation
DCS .         03-Mar-2012       :Date circ. stopped
TLAB.         004411            :Tool on Bottom
DLAB.         04-Mar-2012       :Date logger at btm
BHT .DEGC     40.630            :Bottom Hole Temperature
LUN .         2268              :Equipment No.
LUL .         NZNP              :Base Location
LCC .         440               :Logging Company ID
ENGI.         Jessica Riese     :Recorded By
WITN.         Graeme Timmis     :Witnessed By
RUN .         2                 :Run Number
DATE.         04-Mar-2012       :Date
TDD .M        1577.000          :Depth Driller
TDL .M        1574.000          :Depth Logger
BLI .M        108.890           :First Reading
TLI .M        1576.340          :Last Reading
CBD .M        277.000           :Casing Driller
CBL .M        278.000           :Casing Logger
CS  .IN       9.625             :Casing Size
CW1 .LB/FT    47.000            :Casing Weight
BS  .IN       8.500             :Bit Size
BSDF.M        208.500           :Bit Size Depth From
BSDT.M        1577.000          :Bit Size Depth To
DFT .         Water             :Hole Fluid Type
DFD .G/C3     1.108             :Density
DFV .SEC      61.000            :Viscosity
DFPH.         9.5               :pH
DFL .C3       6.000             :Fluid Loss
MSS .         Active Tank       :Sample Source
RM  .OHMM     0.124             :Rm @ Measured Temperature
RMT .DEGC     26.300            :Mud temp @ Surface
RMF .OHMM     0.093             :Rmf @ Measured Temperature
RMFT.DEGC     26.300            :MF temp @ Surface
RMC .OHMM     0.140             :RMC @ Measured Temperature
RMCT.DEGC     26.500            :MC temp @ Surface
MFSS.         Calculated        :Source Rmf
MCSS.         Pressed           :Source Rmc
RMB .OHMM     0.049             :Rm @ BHT
MST .DEGC     100.000           :Rm temp @ Bottom
RMFB.OHMM     0.037             :Rmf @ BHT
MFST.DEGC     100.000           :Rmf temp @ Bottom
RMCB.OHMM     0.060             :Rmc @ BHT
MCST.DEGC     100.000           :Rmc temp @ Bottom
TCS .         202000            :Time Since Circulation
DCS .         03-Mar-2012       :Date circ. stopped
TLAB.         063203            :Tool on Bottom
DLAB.         05-Mar-2012       :Date logger at btm
SHT .DEGC     16.000            :Surface hole temp
BHT .DEGC     41.600            :Bottom Hole Temperature
LUN .         2268              :Equipment No.
LUL .         NZNP              :Base Location
LCC .         440               :Logging Company ID
ENGI.         Jessica Riese     :Recorded By
WITN.         Graeme Timmis     :Witnessed By

~Other Information
Cheal A10_RUN2:
Log objective: Log PEX-HRLA-BHC-SP in 8.5" open hole section.
TD not tagged, lowest depth reached was 1388m.
Toolstring run with bowspring and 7x 1.5" standoffs as per toolsketch.
Log spliced between 1299-1321m
All wellsite data provided by client.
Maximum recorded temperature was 40.6degC recorded by head thermometers.

#
# --- LOG MNEMONICS ---
#
#Depth    
#DT         ECGR       GR         NPHI       NPOR       TNPH       TENS      
#BS         SP         EHGR       HGR        HTNP       HDRA       RHOZ      
#RLA0       RM_HRLT    RLA5       RT_HRLT    RLA3       RXO_HRLT   RXO8      
#RHO8       PEF8       RSO8       PEFZ       RSOZ       RLA4       RLA2      
#RXOZ       DSO8       RLA1       HCAL      
#
# --- LOG UNITS ---
#
#M        
#US/F       API        API        V/V        V/V        V/V        lbf       
#INCH       MV         API        API        V/V        G/CC       G/CC      
#OHMM       OHMM       OHMM       OHMM       OHMM       OHMM       OHMM      
#G/CC       B/E        INCH       B/E        INCH       OHMM       OHMM      
#OHMM       INCH       OHMM       INCH      

~A
# ...
   287.884
    135.355    101.265    101.534      0.380      0.387      0.372   1152.400
      8.500   -111.537    103.889    104.165      0.381     -0.010      2.199
      0.087      0.087     27.949     37.378     23.072      4.910      1.519
      2.205      2.880      0.081      2.915      0.076     25.274     19.269
      1.523      0.072     12.074      8.540
   288.036
    135.608    106.257    106.746      0.358      0.354      0.379   1189.133
      8.500   -111.941    101.236    101.702      0.381     -0.009      2.202
      0.090      0.087     27.514     36.803     22.741      4.744      1.549
      2.202      2.926      0.072      2.912      0.078     24.917     19.070
      1.499      0.099     11.823      8.509
   288.188
    136.243    110.595    111.320      0.401      0.367      0.369   1157.875
      8.500   -112.412    110.829    111.556      0.365     -0.006      2.200
      0.090      0.088     25.118     33.477     20.903      4.711      1.413
      2.214      2.925      0.078      2.910      0.077     22.773     17.582
      1.452      0.037     11.274      8.386
   288.341
    135.982    111.219    111.354      0.406      0.425      0.413   1149.667
      8.500   -112.804    114.319    114.457      0.394      0.002      2.215
      0.088      0.089     27.033     36.142     22.611      4.626      1.409
      2.213      2.871      0.082      2.898      0.095     24.459     18.761
      1.434     -0.015     11.673      8.516
   288.493
    135.983    111.769    111.940      0.451      0.431      0.409   1158.933
      8.500   -112.787    106.289    106.452      0.418      0.006      2.220
      0.089      0.090     28.109     37.622     23.459      4.468      1.497
      2.202      2.886      0.143      2.922      0.125     25.461     19.612
      1.495      0.059     11.782      8.593
   288.646
    136.816    111.112    111.354      0.445      0.432      0.461   1180.067
      8.500   -112.800    117.634    117.890      0.445      0.007      2.230
      0.092      0.091     24.474     32.539     20.634      4.482      1.553
      2.236      2.902      0.148      2.934      0.117     22.230     17.610
      1.557      0.024     11.083      8.532
   288.798
    136.723    116.154    116.481      0.484      0.453      0.463   1179.400
      8.500   -112.629    115.101    115.425      0.452      0.004      2.222
      0.093      0.091     23.273     30.865     19.534      4.389      1.560
      2.225      3.047      0.070      2.953      0.105     21.150     16.764
      1.533      0.003     10.673      8.516
   288.950
    136.455    119.819    120.235      0.452      0.563      0.521   1187.933
      8.500   -112.588    106.961    107.332      0.489      0.004      2.206
      0.092      0.091     23.732     31.567     19.955      4.323      1.454
      2.216      2.974      0.111      2.950      0.179     21.526     16.878
      1.468     -0.007     10.669      8.513
   289.103
    136.182    120.711    121.878      0.455      0.449      0.458   1148.267
      8.500   -112.579    131.225    132.493      0.473      0.005      2.186
      0.095      0.090     25.183     33.615     21.054      4.209      1.361
      2.177      2.836      0.334      2.913      0.249     22.839     17.810
      1.379      0.029     10.849      8.490
   289.255
    135.762    117.771    119.297      0.423      0.443      0.461   1171.667
      8.500   -112.813    118.466    120.002      0.464      0.010      2.185
      0.096      0.089     24.671     32.961     20.659      4.033      1.236
      2.182      2.889      0.273      2.880      0.265     22.345     17.368
      1.244      0.098     10.518      8.340
   289.408
    135.301    111.851    113.784      0.426      0.448      0.437   1168.938
      8.500   -112.813    106.892    108.739      0.447      0.011      2.191
      0.093      0.088     25.428     34.073     21.214      3.899      1.094
      2.204      2.874      0.152      2.856      0.149     22.991     17.664
      1.226      0.084     10.453      8.179
   289.560
    135.205    112.358    113.314      0.399      0.440      0.442   1177.000
      8.500   -112.821    113.753    114.722      0.451      0.012      2.200
      0.091      0.088     29.058     39.118     24.083      3.952      1.305
      2.222      2.846      0.088      2.865      0.114     26.261     19.765
      1.239      0.015     11.200      8.340
   289.712
    135.178    115.883    116.247      0.394      0.395      0.413   1150.400
      8.500   -113.025    115.416    115.779      0.429      0.007      2.196
      0.090      0.089     31.525     42.534     26.057      3.757      1.333
      2.205      2.915      0.104      2.854      0.086     28.434     21.141
      1.342      0.067     11.376      8.470
   289.865
    134.660    114.893    114.848      0.384      0.438      0.413   1156.800
      8.500   -113.092    120.048    120.000      0.413      0.004      2.194
      0.089      0.089     30.922     41.627     25.528      3.890      1.342
      2.184      2.784      0.067      2.830      0.084     27.881     20.952
      1.339      0.000     11.477      8.536
   290.017
    134.026    114.515    115.434      0.371      0.399      0.400   1179.200
      8.500   -113.175    109.649    110.529      0.403      0.003      2.196
      0.091      0.087     29.082     39.132     24.039      3.978      1.363
      2.199      2.857      0.074      2.805      0.075     26.349     19.964
      1.357     -0.005     11.261      8.432
   290.170
    133.714    113.362    115.434      0.374      0.352      0.377   1179.333
      8.500   -113.400    115.599    117.713      0.390      0.002      2.196
      0.091      0.086     26.872     36.085     22.302      4.133      1.357
      2.202      2.785      0.092      2.800      0.086     24.401     18.612
      1.347      0.003     11.011      8.179
   290.322
    134.137    113.975    114.722      0.377      0.413      0.394   1190.667
      8.500   -113.558    116.073    116.833      0.382      0.001      2.194
      0.090      0.085     26.265     35.185     21.873      4.218      1.355
      2.202      2.805      0.087      2.825      0.083     23.895     18.351
      1.345      0.011     11.062      8.240
   290.474
    134.969    110.891    111.672      0.393      0.388      0.395   1179.733
      8.500   -113.283    112.522    113.314      0.401      0.001      2.197
      0.088      0.086     27.264     36.568     22.733      4.038      1.371
      2.211      2.808      0.064      2.838      0.072     24.800     19.097
      1.387      0.031     11.122      8.540
   290.627
    135.201    109.876    109.586      0.400      0.413      0.410   1175.600
      8.500   -113.250    107.616    107.332      0.413      0.000      2.200
      0.086      0.088     28.749     38.574     24.019      4.137      1.451
      2.206      2.911      0.060      2.859      0.061     26.113     20.188
      1.400     -0.001     11.589      8.524
   290.779
    135.397    110.970    110.642      0.410      0.433      0.412   1170.812
      8.500   -113.275    111.885    111.554      0.413     -0.002      2.204
      0.085      0.087     30.688     41.119     25.744      4.492      1.381
      2.195      2.885      0.061      2.857      0.059     27.763     21.512
      1.406     -0.003     12.492      8.662
   290.932
    135.198    113.911    113.574      0.442      0.423      0.406   1182.067
      8.500   -113.050    108.180    107.860      0.388     -0.004      2.202
      0.086      0.087     30.879     41.294     25.854      4.678      1.372
      2.212      2.778      0.056      2.863      0.057     27.895     21.723
      1.369     -0.021     12.764      8.651
   291.084
    134.916    109.927    109.796      0.451      0.423      0.433   1181.533
      8.500   -113.063    116.622    116.482      0.433     -0.002      2.203
      0.087      0.085     27.237     36.221     22.924      4.672      1.330
      2.217      2.793      0.059      2.843      0.064     24.615     19.489
      1.357      0.014     11.997      8.662
