~Version Information
VERS.                     2.0: CWLS log ASCII Standard Version 2.00
WRAP.                     YES: Multiple lines per depth step

~Well Information Block
#MNEM.UNIT                 Value                       Information
#------------              -----                       -----------
STRT.M                      83.363                    :START
STOP.M                    1576.273                    :STOP
STEP.M                       0.152                    :STEP
NULL.                     -999.25                     :NULL VALUE
COMP.         TAG Oil                                 :Company
WELL.         Cheal-A10                               :Well
FLD .                                                 :Field Name
LOC .         Geodetic Datum 2000                     :Location
PROV.                                                 :Province
CNTY.         Taranaki                                :County
STATE.                                                 :State
CTRY.         New Zealand                             :Country
DATE.                                                 :Log Date
SRVC.                                                 :Service Company
UWI .                                                 :Unique Well Identifier
API .                                                 :API Number
FL1 .         5639460.731                             :Field Loc. 1 / Northing
FL2 .         1712320.438                             :Field Loc. 2 / Easting
LATI.         039 23' 13.335" N    DMS                :Latitude
LONG.         174 18' 15.262" E    DMS                :Longtitude
PD  .         MSL                                     :Permanent Datum
EPD .M             0.000                              :Elevation
EDF .M           269.800                              :Elevations D.F.
EGL .M           264.650                              :Elevations G.L.
ELZ .M           269.800                              :Elev. Log Zero
APD .M           269.800                              :Above Permanent Datum
LMF .         DF                                      :Log Measured From

~Curve Information
#MNEM   .UNIT             API CODE Curve Description
#------------             -------- -----------------
DEPT    .M            00 001 00 00:   0  Depth
DT      .US/F         60 520 32 01:  22  Delta-T (also called Slowness or Interval Transit Time)
ECGR    .API          30 150 01 01:  23  Environmentally Corrected Gamma Ray
GR      .API          30 150 01 01:  24  Gamma Ray
NPHI    .V/V          42 890 01 01:  25  Thermal Neutron Porosity (original Ratio Method) in Selected Lithology
NPOR    .V/V          42 890 01 01:  26  Enhanced Thermal Neutron Porosity in Selected Lithology
TNPH    .V/V          42 890 01 01:  27  Thermal Neutron Porosity (Ratio Method) in Selected Lithology
TENS    .lbf          84 635 11 01:  28  Cable Tension
BS      .INCH         00 000 00 00:  29  Bit Size
SP      .MV           05 010 01 01:  30  Spontaneous Potential
EHGR    .API          00 000 00 00:  31  High Resolution Corrected Gamma Ray
HGR     .API          30 150 01 01:  32  High Resolution Gamma Ray
HTNP    .V/V          00 000 00 00:  33  High Resolution Thermal Neutron Porosity (Ratio Method) in Selected Lithology
HDRA    .G/CC         45 356 01 01:  34  Density Standoff Correction
RHOZ    .G/CC         45 350 01 01:  35  Standard Resolution Formation Density
RLA0    .OHMM         00 000 00 00:  36  Apparent Resistivity from Computed Focusing Mode 0
RM_HRLT .OHMM         00 000 00 00:  37  HRLT Computed Mud Resistivity
RLA5    .OHMM         00 000 00 00:  38  Apparent Resistivity from Computed Focusing Mode 5
RT_HRLT .OHMM         00 000 00 00:  39  HRLT True Formation Resistivity
RLA3    .OHMM         00 000 00 00:  40  Apparent Resistivity from Computed Focusing Mode 3
RXO_HRLT.OHMM         00 000 00 00:  41  HRLT Invaded Zone Resistivity
RXO8    .OHMM         00 000 00 00:  42  Invaded Formation Resistivity filtered at 8 inches
RHO8    .G/CC         45 350 01 01:  43  High Resolution Formation Density
PEF8    .B/E          00 000 00 00:  44  High Resolution Formation Photoelectric Factor
RSO8    .INCH         00 000 00 00:  45  Resistivity Standoff High Resolution
PEFZ    .B/E          45 358 01 01:  46  Standard Resolution Formation Photoelectric Factor
RSOZ    .INCH         00 000 00 00:  47  Resistivity Standoff Standard Resolution
RLA4    .OHMM         00 000 00 00:  48  Apparent Resistivity from Computed Focusing Mode 4
RLA2    .OHMM         00 000 00 00:  49  Apparent Resistivity from Computed Focusing Mode 2
RXOZ    .OHMM         00 000 00 00:  50  Invaded Formation Resistivity filtered at 18 inches
DSO8    .INCH         00 000 00 00:  51  High Resolution Density Standoff
RLA1    .OHMM         95 220 00 01:  52  Apparent Resistivity from Computed Focusing Mode 1
HCAL    .INCH         70 280 00 01:  53  HRCC Caliper Calibrated

~Parameter Information
#MNEM.UNIT       Value           Description
#------------    -----           -----------
RUN .         1                 :Run Number
DATE.         03-Mar-2012       :Date
TDD .M        1577.000          :Depth Driller
TDL .M        1388.000          :Depth Logger
BLI .M        108.890           :First Reading
TLI .M        1392.940          :Last Reading
CBD .M        277.000           :Casing Driller
CBL .M        278.000           :Casing Logger
CS  .IN       9.625             :Casing Size
CW1 .LBCF     47.000            :Casing Weight
BS  .IN       8.500             :Bit Size
BSDF.M        208.500           :Bit Size Depth From
BSDT.M        1577.000          :Bit Size Depth To
DFT .         Water             :Hole Fluid Type
DFD .G/C3     1.108             :Density
DFV .SEC      61.000            :Viscosity
DFPH.         9.5               :pH
DFL .C3       6.000             :Fluid Loss
MSS .         Active Tank       :Sample Source
RM  .OHMM     0.124             :Rm @ Measured Temperature
RMT .DEGC     26.300            :Mud temp @ Surface
RMF .OHMM     0.093             :Rmf @ Measured Temperature
RMFT.DEGC     26.300            :MF temp @ Surface
RMC .OHMM     0.140             :RMC @ Measured Temperature
RMCT.DEGC     26.500            :MC temp @ Surface
MFSS.         Calculated        :Source Rmf
MCSS.         Pressed           :Source Rmc
RMB .OHMM     0.049             :Rm @ BHT
MST .DEGC     100.000           :Rm temp @ Bottom
RMFB.OHMM     0.037             :Rmf @ BHT
MFST.DEGC     100.000           :Rmf temp @ Bottom
RMCB.OHMM     0.060             :Rmc @ BHT
MCST.DEGC     100.000           :Rmc temp @ Bottom
TCS .         202000            :Time Since Circulation
DCS .         03-Mar-2012       :Date circ. stopped
TLAB.         004411            :Tool on Bottom
DLAB.         04-Mar-2012       :Date logger at btm
BHT .DEGC     40.630            :Bottom Hole Temperature
LUN .         2268              :Equipment No.
LUL .         NZNP              :Base Location
LCC .         440               :Logging Company ID
ENGI.         Jessica Riese     :Recorded By
WITN.         Graeme Timmis     :Witnessed By
RUN .         2                 :Run Number
DATE.         04-Mar-2012       :Date
TDD .M        1577.000          :Depth Driller
TDL .M        1574.000          :Depth Logger
BLI .M        108.890           :First Reading
TLI .M        1576.340          :Last Reading
CBD .M        277.000           :Casing Driller
CBL .M        278.000           :Casing Logger
CS  .IN       9.625             :Casing Size
CW1 .LB/FT    47.000            :Casing Weight
BS  .IN       8.500             :Bit Size
BSDF.M        208.500           :Bit Size Depth From
BSDT.M        1577.000          :Bit Size Depth To
DFT .         Water             :Hole Fluid Type
DFD .G/C3     1.108             :Density
DFV .SEC      61.000            :Viscosity
DFPH.         9.5               :pH
DFL .C3       6.000             :Fluid Loss
MSS .         Active Tank       :Sample Source
RM  .OHMM     0.124             :Rm @ Measured Temperature
RMT .DEGC     26.300            :Mud temp @ Surface
RMF .OHMM     0.093             :Rmf @ Measured Temperature
RMFT.DEGC     26.300            :MF temp @ Surface
RMC .OHMM     0.140             :RMC @ Measured Temperature
RMCT.DEGC     26.500            :MC temp @ Surface
MFSS.         Calculated        :Source Rmf
MCSS.         Pressed           :Source Rmc
RMB .OHMM     0.049             :Rm @ BHT
MST .DEGC     100.000           :Rm temp @ Bottom
RMFB.OHMM     0.037             :Rmf @ BHT
MFST.DEGC     100.000           :Rmf temp @ Bottom
RMCB.OHMM     0.060             :Rmc @ BHT
MCST.DEGC     100.000           :Rmc temp @ Bottom
TCS .         202000            :Time Since Circulation
DCS .         03-Mar-2012       :Date circ. stopped
TLAB.         063203            :Tool on Bottom
DLAB.         05-Mar-2012       :Date logger at btm
SHT .DEGC     16.000            :Surface hole temp
BHT .DEGC     41.600            :Bottom Hole Temperature
LUN .         2268              :Equipment No.
LUL .         NZNP              :Base Location
LCC .         440               :Logging Company ID
ENGI.         Jessica Riese     :Recorded By
WITN.         Graeme Timmis     :Witnessed By

~Other Information
Cheal A10_RUN2:
Log objective: Log PEX-HRLA-BHC-SP in 8.5" open hole section.
TD not tagged, lowest depth reached was 1388m.
Toolstring run with bowspring and 7x 1.5" standoffs as per toolsketch.
Log spliced between 1299-1321m
All wellsite data provided by client.
Maximum recorded temperature was 40.6degC recorded by head thermometers.

#
# --- LOG MNEMONICS ---
#
#Depth    
#DT         ECGR       GR         NPHI       NPOR       TNPH       TENS      
#BS         SP         EHGR       HGR        HTNP       HDRA       RHOZ      
#RLA0       RM_HRLT    RLA5       RT_HRLT    RLA3       RXO_HRLT   RXO8      
#RHO8       PEF8       RSO8       PEFZ       RSOZ       RLA4       RLA2      
#RXOZ       DSO8       RLA1       HCAL      
#
# --- LOG UNITS ---
#
#M        
#US/F       API        API        V/V        V/V        V/V        lbf       
#INCH       MV         API        API        V/V        G/CC       G/CC      
#OHMM       OHMM       OHMM       OHMM       OHMM       OHMM       OHMM      
#G/CC       B/E        INCH       B/E        INCH       OHMM       OHMM      
#OHMM       INCH       OHMM       INCH      

~A
# ...
   385.115
    129.973    111.214    112.728      0.360      0.374      0.380   1277.667
      8.500    -87.215    116.999    118.593      0.385     -0.009      2.188
      0.086      0.081     37.572     50.326     31.758      2.408      1.018
      2.173      2.802      0.024      2.778      0.020     35.013     25.350
      1.022      0.100     11.000      8.283
   385.267
    130.508    111.517    112.963      0.358      0.373      0.377   1209.812
      8.500    -87.629    108.738    110.147      0.384     -0.009      2.190
      0.086      0.081     36.981     49.865     31.258      2.876      1.055
      2.190      2.840      0.028      2.795      0.026     34.325     25.240
      1.042      0.086     11.654      8.271
   385.420
    129.429    108.381    109.678      0.366      0.379      0.373   1178.000
      8.500    -87.758    105.715    106.980      0.386     -0.010      2.181
      0.084      0.079     38.693     52.063     32.601      2.992      1.037
      2.205      2.797      0.033      2.800      0.046     35.700     26.196
      1.046      0.067     12.112      8.294
   385.572
    129.544    107.316    108.388      0.372      0.391      0.380   1250.067
      8.500    -87.896    114.285    115.427      0.380     -0.009      2.174
      0.082      0.079     42.105     56.210     35.332      2.665      1.052
      2.164      2.828      0.084      2.767      0.080     38.567     27.873
      1.047      0.120     12.021      8.340
   385.724
    129.732    106.068    106.746      0.369      0.368      0.382   1249.800
      8.500    -87.921    104.203    104.869      0.390     -0.007      2.172
      0.081      0.080     44.364     59.004     37.082      2.645      1.064
      2.142      2.628      0.118      2.741      0.089     40.408     29.125
      1.061      0.023     12.264      8.386
   385.877
    129.971    100.964    101.232      0.353      0.391      0.378   1299.933
      8.500    -88.152    105.643    105.924      0.367     -0.007      2.178
      0.081      0.081     41.386     55.140     34.778      2.922      1.062
      2.189      2.703      0.055      2.740      0.060     37.498     27.767
      1.094      0.021     12.436      8.685
   386.029
    129.458     96.541     97.127      0.356      0.370      0.359   1240.438
      8.500    -88.512     96.891     97.478      0.361     -0.009      2.186
      0.084      0.082     38.894     51.958     32.680      3.106      1.106
      2.223      2.677      0.009      2.771      0.016     35.121     26.233
      1.096     -0.043     12.266      8.609
   386.182
    129.016     95.816     96.071      0.364      0.336      0.355   1245.067
      8.500    -88.729     90.903     91.144      0.343     -0.011      2.187
      0.084      0.082     38.260     50.902     31.949      3.133      1.101
      2.187      2.829      0.000      2.802      0.008     34.401     25.976
      1.100      0.135     12.236      8.493
   386.334
    129.001     96.721     97.245      0.375      0.384      0.373   1332.800
      8.500    -88.754     99.404     99.942      0.380     -0.009      2.193
      0.085      0.082     39.300     51.907     32.732      2.990      1.112
      2.196      2.790      0.012      2.801      0.012     35.215     26.712
      1.100      0.093     12.331      8.470
   386.486
    129.230    102.704    103.461      0.387      0.387      0.387   1296.500
      8.500    -88.963    101.657    102.406      0.378     -0.007      2.191
      0.085      0.082     38.476     50.841     31.889      2.809      1.096
      2.187      2.844      0.036      2.803      0.035     34.409     25.852
      1.087      0.080     11.706      8.409
   386.639
    129.420    101.788    102.405      0.395      0.383      0.397   1267.200
      8.500    -89.129    102.138    102.758      0.400     -0.006      2.190
      0.083      0.081     37.990     50.158     31.341      2.796      1.082
      2.187      2.727      0.054      2.807      0.042     33.891     25.485
      1.104      0.042     11.545      8.432
   386.791
    129.377    101.518    101.936      0.415      0.429      0.415   1289.933
      8.500    -89.387    104.088    104.516      0.411     -0.006      2.183
      0.083      0.081     40.255     53.232     32.955      2.786      1.119
      2.189      2.894      0.036      2.819      0.041     35.855     26.417
      1.068      0.057     11.665      8.490
   386.944
    128.520     97.469     97.713      0.409      0.432      0.436   1236.800
      8.500    -89.667     95.481     95.719      0.444     -0.007      2.179
      0.082      0.082     38.708     51.197     31.578      2.756      0.996
      2.166      2.838      0.032      2.809      0.031     34.401     25.352
      1.042      0.080     11.294      8.536
   387.096
    128.132    100.590    100.470      0.420      0.425      0.426   1351.800
      8.500    -90.037     95.129     95.015      0.438     -0.009      2.178
      0.081      0.082     44.197     58.491     35.877      2.761      1.012
      2.183      2.682      0.027      2.787      0.020     39.267     28.204
      1.027      0.068     11.924      8.570
   387.248
    129.274    103.864    103.989      0.406      0.446      0.445   1308.500
      8.500    -90.400    100.524    100.646      0.418     -0.011      2.183
      0.082      0.082     43.018     56.924     35.040      2.836      1.077
      2.184      2.810      0.003      2.759      0.012     38.286     27.837
      1.054      0.114     12.025      8.593
   387.401
    129.312    106.075    106.101      0.402      0.421      0.429   1291.067
      8.500    -90.398    108.889    108.916      0.438     -0.011      2.192
      0.082      0.082     39.308     52.028     32.235      2.744      1.065
      2.200      2.738      0.009      2.735      0.006     35.143     25.903
      1.063      0.112     11.463      8.586
   387.553
    129.930    107.775    107.801      0.402      0.426      0.430   1325.467
      8.500    -90.363    109.153    109.180      0.417     -0.010      2.191
      0.082      0.081     41.969     55.861     34.489      2.884      1.072
      2.199      2.756      0.015      2.723      0.016     37.628     27.331
      1.078      0.089     11.971      8.593
   387.706
    130.501    106.844    106.511      0.383      0.439      0.425   1283.533
      8.500    -90.142    111.550    111.202      0.429     -0.007      2.183
      0.080      0.081     45.748     61.317     37.522      3.160      1.075
      2.182      2.803      0.034      2.724      0.040     41.061     29.186
      1.018      0.098     12.763      8.616
   387.858
    129.723    105.751    105.338      0.396      0.405      0.398   1292.600
      8.500    -89.929    104.927    104.517      0.402     -0.004      2.183
      0.079      0.081     41.746     56.243     34.523      3.330      0.928
      2.155      2.596      0.077      2.708      0.062     37.822     27.345
      1.016     -0.001     12.604      8.697
   388.010
    129.776    105.617    104.986      0.392      0.383      0.404   1260.933
      8.500    -90.092    100.189     99.591      0.411     -0.003      2.198
      0.079      0.082     38.503     51.806     32.114      3.637      1.079
      2.202      2.629      0.057      2.713      0.045     35.032     26.175
      1.050     -0.037     12.872      8.731
   388.163
    130.005    109.014    108.622      0.408      0.437      0.412   1287.800
      8.500    -90.336    111.958    111.555      0.414     -0.004      2.215
      0.082      0.082     32.465     43.609     27.453      3.786      1.235
      2.233      2.769      0.000      2.748      0.019     29.745     23.004
      1.192     -0.030     12.249      8.716
   388.315
    129.192    115.651    115.309      0.382      0.411      0.428   1282.625
      8.500    -90.642    111.180    110.851      0.410     -0.007      2.220
      0.083      0.083     31.417     42.188     26.747      3.731      1.245
      2.238      2.772      0.013      2.807      0.002     28.841     22.439
      1.248     -0.011     12.060      8.697
