~Version Information
VERS.                     2.0: CWLS log ASCII Standard Version 2.00
WRAP.                     YES: Multiple lines per depth step

~Well Information Block
#MNEM.UNIT                 Value                       Information
#------------              -----                       -----------
STRT.M                      83.363                    :START
STOP.M                    1576.273                    :STOP
STEP.M                       0.152                    :STEP
NULL.                     -999.25                     :NULL VALUE
COMP.         TAG Oil                                 :Company
WELL.         Cheal-A10                               :Well
FLD .                                                 :Field Name
LOC .         Geodetic Datum 2000                     :Location
PROV.                                                 :Province
CNTY.         Taranaki                                :County
STATE.                                                 :State
CTRY.         New Zealand                             :Country
DATE.                                                 :Log Date
SRVC.                                                 :Service Company
UWI .                                                 :Unique Well Identifier
API .                                                 :API Number
FL1 .         5639460.731                             :Field Loc. 1 / Northing
FL2 .         1712320.438                             :Field Loc. 2 / Easting
LATI.         039 23' 13.335" N    DMS                :Latitude
LONG.         174 18' 15.262" E    DMS                :Longtitude
PD  .         MSL                                     :Permanent Datum
EPD .M             0.000                              :Elevation
EDF .M           269.800                              :Elevations D.F.
EGL .M           264.650                              :Elevations G.L.
ELZ .M           269.800                              :Elev. Log Zero
APD .M           269.800                              :Above Permanent Datum
LMF .         DF                                      :Log Measured From

~Curve Information
#MNEM   .UNIT             API CODE Curve Description
#------------             -------- -----------------
DEPT    .M            00 001 00 00:   0  Depth
DT      .US/F         60 520 32 01:  22  Delta-T (also called Slowness or Interval Transit Time)
ECGR    .API          30 150 01 01:  23  Environmentally Corrected Gamma Ray
GR      .API          30 150 01 01:  24  Gamma Ray
NPHI    .V/V          42 890 01 01:  25  Thermal Neutron Porosity (original Ratio Method) in Selected Lithology
NPOR    .V/V          42 890 01 01:  26  Enhanced Thermal Neutron Porosity in Selected Lithology
TNPH    .V/V          42 890 01 01:  27  Thermal Neutron Porosity (Ratio Method) in Selected Lithology
TENS    .lbf          84 635 11 01:  28  Cable Tension
BS      .INCH         00 000 00 00:  29  Bit Size
SP      .MV           05 010 01 01:  30  Spontaneous Potential
EHGR    .API          00 000 00 00:  31  High Resolution Corrected Gamma Ray
HGR     .API          30 150 01 01:  32  High Resolution Gamma Ray
HTNP    .V/V          00 000 00 00:  33  High Resolution Thermal Neutron Porosity (Ratio Method) in Selected Lithology
HDRA    .G/CC         45 356 01 01:  34  Density Standoff Correction
RHOZ    .G/CC         45 350 01 01:  35  Standard Resolution Formation Density
RLA0    .OHMM         00 000 00 00:  36  Apparent Resistivity from Computed Focusing Mode 0
RM_HRLT .OHMM         00 000 00 00:  37  HRLT Computed Mud Resistivity
RLA5    .OHMM         00 000 00 00:  38  Apparent Resistivity from Computed Focusing Mode 5
RT_HRLT .OHMM         00 000 00 00:  39  HRLT True Formation Resistivity
RLA3    .OHMM         00 000 00 00:  40  Apparent Resistivity from Computed Focusing Mode 3
RXO_HRLT.OHMM         00 000 00 00:  41  HRLT Invaded Zone Resistivity
RXO8    .OHMM         00 000 00 00:  42  Invaded Formation Resistivity filtered at 8 inches
RHO8    .G/CC         45 350 01 01:  43  High Resolution Formation Density
PEF8    .B/E          00 000 00 00:  44  High Resolution Formation Photoelectric Factor
RSO8    .INCH         00 000 00 00:  45  Resistivity Standoff High Resolution
PEFZ    .B/E          45 358 01 01:  46  Standard Resolution Formation Photoelectric Factor
RSOZ    .INCH         00 000 00 00:  47  Resistivity Standoff Standard Resolution
RLA4    .OHMM         00 000 00 00:  48  Apparent Resistivity from Computed Focusing Mode 4
RLA2    .OHMM         00 000 00 00:  49  Apparent Resistivity from Computed Focusing Mode 2
RXOZ    .OHMM         00 000 00 00:  50  Invaded Formation Resistivity filtered at 18 inches
DSO8    .INCH         00 000 00 00:  51  High Resolution Density Standoff
RLA1    .OHMM         95 220 00 01:  52  Apparent Resistivity from Computed Focusing Mode 1
HCAL    .INCH         70 280 00 01:  53  HRCC Caliper Calibrated

~Parameter Information
#MNEM.UNIT       Value           Description
#------------    -----           -----------
RUN .         1                 :Run Number
DATE.         03-Mar-2012       :Date
TDD .M        1577.000          :Depth Driller
TDL .M        1388.000          :Depth Logger
BLI .M        108.890           :First Reading
TLI .M        1392.940          :Last Reading
CBD .M        277.000           :Casing Driller
CBL .M        278.000           :Casing Logger
CS  .IN       9.625             :Casing Size
CW1 .LBCF     47.000            :Casing Weight
BS  .IN       8.500             :Bit Size
BSDF.M        208.500           :Bit Size Depth From
BSDT.M        1577.000          :Bit Size Depth To
DFT .         Water             :Hole Fluid Type
DFD .G/C3     1.108             :Density
DFV .SEC      61.000            :Viscosity
DFPH.         9.5               :pH
DFL .C3       6.000             :Fluid Loss
MSS .         Active Tank       :Sample Source
RM  .OHMM     0.124             :Rm @ Measured Temperature
RMT .DEGC     26.300            :Mud temp @ Surface
RMF .OHMM     0.093             :Rmf @ Measured Temperature
RMFT.DEGC     26.300            :MF temp @ Surface
RMC .OHMM     0.140             :RMC @ Measured Temperature
RMCT.DEGC     26.500            :MC temp @ Surface
MFSS.         Calculated        :Source Rmf
MCSS.         Pressed           :Source Rmc
RMB .OHMM     0.049             :Rm @ BHT
MST .DEGC     100.000           :Rm temp @ Bottom
RMFB.OHMM     0.037             :Rmf @ BHT
MFST.DEGC     100.000           :Rmf temp @ Bottom
RMCB.OHMM     0.060             :Rmc @ BHT
MCST.DEGC     100.000           :Rmc temp @ Bottom
TCS .         202000            :Time Since Circulation
DCS .         03-Mar-2012       :Date circ. stopped
TLAB.         004411            :Tool on Bottom
DLAB.         04-Mar-2012       :Date logger at btm
BHT .DEGC     40.630            :Bottom Hole Temperature
LUN .         2268              :Equipment No.
LUL .         NZNP              :Base Location
LCC .         440               :Logging Company ID
ENGI.         Jessica Riese     :Recorded By
WITN.         Graeme Timmis     :Witnessed By
RUN .         2                 :Run Number
DATE.         04-Mar-2012       :Date
TDD .M        1577.000          :Depth Driller
TDL .M        1574.000          :Depth Logger
BLI .M        108.890           :First Reading
TLI .M        1576.340          :Last Reading
CBD .M        277.000           :Casing Driller
CBL .M        278.000           :Casing Logger
CS  .IN       9.625             :Casing Size
CW1 .LB/FT    47.000            :Casing Weight
BS  .IN       8.500             :Bit Size
BSDF.M        208.500           :Bit Size Depth From
BSDT.M        1577.000          :Bit Size Depth To
DFT .         Water             :Hole Fluid Type
DFD .G/C3     1.108             :Density
DFV .SEC      61.000            :Viscosity
DFPH.         9.5               :pH
DFL .C3       6.000             :Fluid Loss
MSS .         Active Tank       :Sample Source
RM  .OHMM     0.124             :Rm @ Measured Temperature
RMT .DEGC     26.300            :Mud temp @ Surface
RMF .OHMM     0.093             :Rmf @ Measured Temperature
RMFT.DEGC     26.300            :MF temp @ Surface
RMC .OHMM     0.140             :RMC @ Measured Temperature
RMCT.DEGC     26.500            :MC temp @ Surface
MFSS.         Calculated        :Source Rmf
MCSS.         Pressed           :Source Rmc
RMB .OHMM     0.049             :Rm @ BHT
MST .DEGC     100.000           :Rm temp @ Bottom
RMFB.OHMM     0.037             :Rmf @ BHT
MFST.DEGC     100.000           :Rmf temp @ Bottom
RMCB.OHMM     0.060             :Rmc @ BHT
MCST.DEGC     100.000           :Rmc temp @ Bottom
TCS .         202000            :Time Since Circulation
DCS .         03-Mar-2012       :Date circ. stopped
TLAB.         063203            :Tool on Bottom
DLAB.         05-Mar-2012       :Date logger at btm
SHT .DEGC     16.000            :Surface hole temp
BHT .DEGC     41.600            :Bottom Hole Temperature
LUN .         2268              :Equipment No.
LUL .         NZNP              :Base Location
LCC .         440               :Logging Company ID
ENGI.         Jessica Riese     :Recorded By
WITN.         Graeme Timmis     :Witnessed By

~Other Information
Cheal A10_RUN2:
Log objective: Log PEX-HRLA-BHC-SP in 8.5" open hole section.
TD not tagged, lowest depth reached was 1388m.
Toolstring run with bowspring and 7x 1.5" standoffs as per toolsketch.
Log spliced between 1299-1321m
All wellsite data provided by client.
Maximum recorded temperature was 40.6degC recorded by head thermometers.

#
# --- LOG MNEMONICS ---
#
#Depth    
#DT         ECGR       GR         NPHI       NPOR       TNPH       TENS      
#BS         SP         EHGR       HGR        HTNP       HDRA       RHOZ      
#RLA0       RM_HRLT    RLA5       RT_HRLT    RLA3       RXO_HRLT   RXO8      
#RHO8       PEF8       RSO8       PEFZ       RSOZ       RLA4       RLA2      
#RXOZ       DSO8       RLA1       HCAL      
#
# --- LOG UNITS ---
#
#M        
#US/F       API        API        V/V        V/V        V/V        lbf       
#INCH       MV         API        API        V/V        G/CC       G/CC      
#OHMM       OHMM       OHMM       OHMM       OHMM       OHMM       OHMM      
#G/CC       B/E        INCH       B/E        INCH       OHMM       OHMM      
#OHMM       INCH       OHMM       INCH      

~A
# ...
   190.652
     69.738     39.870     49.971      0.559      0.513      0.515    982.933
      8.500    -33.287     39.308     49.268      0.524      0.296      2.292
      0.019      0.014      0.006      0.006      0.014      0.006      0.046
      2.320      7.727      0.283      7.527      0.286      0.012      0.016
      0.047      0.595      0.019      3.915
   190.805
     64.014     39.851     49.971      0.566      0.564      0.540   1025.067
      8.500    -33.633     38.729     48.563      0.520      0.307      2.311
      0.019      0.014      0.006      0.006      0.014      0.006      0.047
      2.310      7.608      0.288      7.536      0.284      0.012      0.015
      0.047      0.545      0.018      3.907
   190.957
     63.902     41.285     51.745      0.587      0.557      0.541   1028.667
      8.500    -33.917     41.835     52.434      0.555      0.309      2.319
      0.019      0.014      0.006      0.006      0.014      0.006      0.047
      2.319      7.377      0.282      7.465      0.285      0.012      0.016
      0.047      0.545      0.019      3.899
   191.110
     63.691     44.073     55.264      0.564      0.519      0.564   1046.667
      8.500    -34.043     41.536     52.083      0.594      0.308      2.323
      0.019      0.014      0.006      0.006      0.014      0.006      0.047
      2.329      7.473      0.284      7.396      0.284      0.012      0.016
      0.047      0.528      0.018      3.907
   191.262
     56.434     43.886     55.030      0.566      0.593      0.568   1022.188
      8.500    -34.228     45.557     57.126      0.592      0.301      2.314
      0.019      0.014      0.005      0.005      0.013      0.005      0.047
      2.298      7.290      0.286      7.344      0.286      0.011      0.015
      0.047      0.522      0.018      3.907
   191.414
     62.670     44.435     55.719      0.576      0.547      0.566   1040.643
      8.500    -34.250     45.184     56.658      0.624      0.295      2.302
      0.019      0.014      0.005      0.005      0.012      0.005      0.047
      2.288      7.296      0.288      7.324      0.287      0.010      0.014
      0.047      0.533      0.016      3.907
   191.567
     62.282     44.997     56.423      0.591      0.601      0.577   1065.062
      8.500    -34.108     44.342     55.602      0.532      0.285      2.287
      0.019      0.014      0.006      0.006      0.013      0.006      0.047
      2.272      7.226      0.287      7.317      0.285      0.011      0.015
      0.047      0.531      0.018      3.922
   191.719
     63.149     46.982     58.886      0.570      0.602      0.592   1061.333
      8.500    -34.063     46.047     57.713      0.570      0.280      2.281
      0.019      0.014      0.006      0.006      0.014      0.006      0.046
      2.278      7.357      0.286      7.328      0.286      0.012      0.016
      0.046      0.531      0.019      3.915
   191.872
     69.377     46.774     58.652      0.576      0.534      0.549   1068.467
      8.500    -34.196     49.113     61.584      0.537      0.279      2.281
      0.019      0.013      0.006      0.006      0.013      0.006      0.046
      2.284      7.330      0.287      7.355      0.285      0.011      0.015
      0.046      0.528      0.018      3.907
   192.024
     69.449     45.745     57.361      0.570      0.546      0.565   1060.800
      8.500    -34.188     42.378     53.139      0.567      0.279      2.280
      0.018      0.013      0.006      0.006      0.014      0.006      0.047
      2.273      7.342      0.284      7.387      0.284      0.012      0.015
      0.046      0.525      0.018      3.899
   192.176
     69.025     45.163     56.657      0.592      0.615      0.568   1048.200
      8.500    -34.083     44.322     55.601      0.603      0.280      2.279
      0.018      0.013      0.004      0.004      0.012      0.004      0.047
      2.284      7.444      0.284      7.419      0.284      0.010      0.013
      0.047      0.544      0.015      3.907
   192.329
     69.304     48.282     60.528      0.577      0.565      0.588   1036.600
      8.500    -34.117     47.720     59.825      0.612      0.283      2.284
      0.018      0.013      0.005      0.005      0.012      0.005      0.046
      2.288      7.457      0.290      7.430      0.286      0.010      0.014
      0.046      0.554      0.016      3.899
   192.481
     68.904     47.595     59.707      0.595      0.553      0.570   1028.933
      8.500    -34.188     53.018     66.510      0.551      0.285      2.287
      0.018      0.013      0.005      0.005      0.012      0.005      0.046
      2.295      7.434      0.290      7.440      0.291      0.010      0.014
      0.046      0.544      0.017      3.911
   192.634
     61.265     47.872     60.015      0.611      0.650      0.630   1010.733
      8.500    -34.117     45.755     57.361      0.571      0.289      2.296
      0.018      0.013      0.006      0.006      0.013      0.006      0.046
      2.302      7.393      0.293      7.444      0.289      0.011      0.015
      0.046      0.558      0.018      3.899
   192.786
     61.029     46.749     58.607      0.631      0.649      0.647   1007.467
      8.500    -34.025     45.709     57.303      0.647      0.286      2.291
      0.018      0.013      0.006      0.006      0.014      0.006      0.046
      2.282      7.394      0.285      7.458      0.287      0.012      0.016
      0.046      0.539      0.019      3.911
   192.938
     61.440     48.621     60.953      0.603      0.682      0.689   1004.467
      8.500    -34.108     48.562     60.880      0.655      0.284      2.285
      0.018      0.013      0.006      0.006      0.014      0.006      0.046
      2.287      7.564      0.284      7.463      0.284      0.012      0.016
      0.046      0.535      0.019      3.911
   193.091
     61.995     48.084     60.293      0.605      0.632      0.635   1007.875
      8.500    -34.328     48.832     61.232      0.638      0.277      2.271
      0.018      0.013      0.004      0.004      0.012      0.004      0.046
      2.263      7.466      0.288      7.461      0.287      0.010      0.013
      0.046      0.518      0.016      3.907
   193.243
     62.125     47.065     59.003      0.635      0.631      0.634   1006.400
      8.500    -34.287     46.317     58.065      0.632      0.275      2.263
      0.018      0.013      0.005      0.005      0.013      0.005      0.046
      2.255      7.393      0.289      7.467      0.289      0.011      0.014
      0.046      0.522      0.017      3.911
   193.396
     61.836     43.820     54.898      0.678      0.720      0.694   1046.400
      8.500    -34.162     50.843     63.695      0.643      0.274      2.261
      0.018      0.013      0.005      0.005      0.012      0.005      0.046
      2.264      7.449      0.293      7.482      0.291      0.010      0.014
      0.046      0.534      0.016      3.899
   193.548
     62.001     45.339     56.877      0.645      0.776      0.772   1030.400
      8.500    -33.983     37.028     46.452      0.828      0.277      2.277
      0.018      0.012      0.005      0.005      0.012      0.005      0.046
      2.286      7.467      0.296      7.523      0.290      0.010      0.014
      0.046      0.555      0.016      3.907
   193.700
     64.996     42.833     53.710      0.560      0.700      0.710   1035.200
      8.500    -33.679     49.160     61.643      0.716      0.282      2.313
      0.017      0.012      0.006      0.006      0.013      0.006      0.046
      2.334      7.616      0.287      7.547      0.287      0.011      0.015
      0.046      0.568      0.018      3.899
   193.853
     70.805     43.749     54.883      0.507      0.492      0.560   1022.000
      8.500    -33.750     40.394     50.675      0.613      0.298      2.370
      0.018      0.012      0.005      0.005      0.013      0.005      0.047
      2.430      7.689      0.281      7.534      0.284      0.011      0.015
      0.047      0.546      0.018      3.907
