~Version Information
VERS.                     2.0: CWLS log ASCII Standard Version 2.00
WRAP.                     YES: Multiple lines per depth step

~Well Information Block
#MNEM.UNIT                 Value                       Information
#------------              -----                       -----------
STRT.M                      83.363                    :START
STOP.M                    1576.273                    :STOP
STEP.M                       0.152                    :STEP
NULL.                     -999.25                     :NULL VALUE
COMP.         TAG Oil                                 :Company
WELL.         Cheal-A10                               :Well
FLD .                                                 :Field Name
LOC .         Geodetic Datum 2000                     :Location
PROV.                                                 :Province
CNTY.         Taranaki                                :County
STATE.                                                 :State
CTRY.         New Zealand                             :Country
DATE.                                                 :Log Date
SRVC.                                                 :Service Company
UWI .                                                 :Unique Well Identifier
API .                                                 :API Number
FL1 .         5639460.731                             :Field Loc. 1 / Northing
FL2 .         1712320.438                             :Field Loc. 2 / Easting
LATI.         039 23' 13.335" N    DMS                :Latitude
LONG.         174 18' 15.262" E    DMS                :Longtitude
PD  .         MSL                                     :Permanent Datum
EPD .M             0.000                              :Elevation
EDF .M           269.800                              :Elevations D.F.
EGL .M           264.650                              :Elevations G.L.
ELZ .M           269.800                              :Elev. Log Zero
APD .M           269.800                              :Above Permanent Datum
LMF .         DF                                      :Log Measured From

~Curve Information
#MNEM   .UNIT             API CODE Curve Description
#------------             -------- -----------------
DEPT    .M            00 001 00 00:   0  Depth
DT      .US/F         60 520 32 01:  22  Delta-T (also called Slowness or Interval Transit Time)
ECGR    .API          30 150 01 01:  23  Environmentally Corrected Gamma Ray
GR      .API          30 150 01 01:  24  Gamma Ray
NPHI    .V/V          42 890 01 01:  25  Thermal Neutron Porosity (original Ratio Method) in Selected Lithology
NPOR    .V/V          42 890 01 01:  26  Enhanced Thermal Neutron Porosity in Selected Lithology
TNPH    .V/V          42 890 01 01:  27  Thermal Neutron Porosity (Ratio Method) in Selected Lithology
TENS    .lbf          84 635 11 01:  28  Cable Tension
BS      .INCH         00 000 00 00:  29  Bit Size
SP      .MV           05 010 01 01:  30  Spontaneous Potential
EHGR    .API          00 000 00 00:  31  High Resolution Corrected Gamma Ray
HGR     .API          30 150 01 01:  32  High Resolution Gamma Ray
HTNP    .V/V          00 000 00 00:  33  High Resolution Thermal Neutron Porosity (Ratio Method) in Selected Lithology
HDRA    .G/CC         45 356 01 01:  34  Density Standoff Correction
RHOZ    .G/CC         45 350 01 01:  35  Standard Resolution Formation Density
RLA0    .OHMM         00 000 00 00:  36  Apparent Resistivity from Computed Focusing Mode 0
RM_HRLT .OHMM         00 000 00 00:  37  HRLT Computed Mud Resistivity
RLA5    .OHMM         00 000 00 00:  38  Apparent Resistivity from Computed Focusing Mode 5
RT_HRLT .OHMM         00 000 00 00:  39  HRLT True Formation Resistivity
RLA3    .OHMM         00 000 00 00:  40  Apparent Resistivity from Computed Focusing Mode 3
RXO_HRLT.OHMM         00 000 00 00:  41  HRLT Invaded Zone Resistivity
RXO8    .OHMM         00 000 00 00:  42  Invaded Formation Resistivity filtered at 8 inches
RHO8    .G/CC         45 350 01 01:  43  High Resolution Formation Density
PEF8    .B/E          00 000 00 00:  44  High Resolution Formation Photoelectric Factor
RSO8    .INCH         00 000 00 00:  45  Resistivity Standoff High Resolution
PEFZ    .B/E          45 358 01 01:  46  Standard Resolution Formation Photoelectric Factor
RSOZ    .INCH         00 000 00 00:  47  Resistivity Standoff Standard Resolution
RLA4    .OHMM         00 000 00 00:  48  Apparent Resistivity from Computed Focusing Mode 4
RLA2    .OHMM         00 000 00 00:  49  Apparent Resistivity from Computed Focusing Mode 2
RXOZ    .OHMM         00 000 00 00:  50  Invaded Formation Resistivity filtered at 18 inches
DSO8    .INCH         00 000 00 00:  51  High Resolution Density Standoff
RLA1    .OHMM         95 220 00 01:  52  Apparent Resistivity from Computed Focusing Mode 1
HCAL    .INCH         70 280 00 01:  53  HRCC Caliper Calibrated

~Parameter Information
#MNEM.UNIT       Value           Description
#------------    -----           -----------
RUN .         1                 :Run Number
DATE.         03-Mar-2012       :Date
TDD .M        1577.000          :Depth Driller
TDL .M        1388.000          :Depth Logger
BLI .M        108.890           :First Reading
TLI .M        1392.940          :Last Reading
CBD .M        277.000           :Casing Driller
CBL .M        278.000           :Casing Logger
CS  .IN       9.625             :Casing Size
CW1 .LBCF     47.000            :Casing Weight
BS  .IN       8.500             :Bit Size
BSDF.M        208.500           :Bit Size Depth From
BSDT.M        1577.000          :Bit Size Depth To
DFT .         Water             :Hole Fluid Type
DFD .G/C3     1.108             :Density
DFV .SEC      61.000            :Viscosity
DFPH.         9.5               :pH
DFL .C3       6.000             :Fluid Loss
MSS .         Active Tank       :Sample Source
RM  .OHMM     0.124             :Rm @ Measured Temperature
RMT .DEGC     26.300            :Mud temp @ Surface
RMF .OHMM     0.093             :Rmf @ Measured Temperature
RMFT.DEGC     26.300            :MF temp @ Surface
RMC .OHMM     0.140             :RMC @ Measured Temperature
RMCT.DEGC     26.500            :MC temp @ Surface
MFSS.         Calculated        :Source Rmf
MCSS.         Pressed           :Source Rmc
RMB .OHMM     0.049             :Rm @ BHT
MST .DEGC     100.000           :Rm temp @ Bottom
RMFB.OHMM     0.037             :Rmf @ BHT
MFST.DEGC     100.000           :Rmf temp @ Bottom
RMCB.OHMM     0.060             :Rmc @ BHT
MCST.DEGC     100.000           :Rmc temp @ Bottom
TCS .         202000            :Time Since Circulation
DCS .         03-Mar-2012       :Date circ. stopped
TLAB.         004411            :Tool on Bottom
DLAB.         04-Mar-2012       :Date logger at btm
BHT .DEGC     40.630            :Bottom Hole Temperature
LUN .         2268              :Equipment No.
LUL .         NZNP              :Base Location
LCC .         440               :Logging Company ID
ENGI.         Jessica Riese     :Recorded By
WITN.         Graeme Timmis     :Witnessed By
RUN .         2                 :Run Number
DATE.         04-Mar-2012       :Date
TDD .M        1577.000          :Depth Driller
TDL .M        1574.000          :Depth Logger
BLI .M        108.890           :First Reading
TLI .M        1576.340          :Last Reading
CBD .M        277.000           :Casing Driller
CBL .M        278.000           :Casing Logger
CS  .IN       9.625             :Casing Size
CW1 .LB/FT    47.000            :Casing Weight
BS  .IN       8.500             :Bit Size
BSDF.M        208.500           :Bit Size Depth From
BSDT.M        1577.000          :Bit Size Depth To
DFT .         Water             :Hole Fluid Type
DFD .G/C3     1.108             :Density
DFV .SEC      61.000            :Viscosity
DFPH.         9.5               :pH
DFL .C3       6.000             :Fluid Loss
MSS .         Active Tank       :Sample Source
RM  .OHMM     0.124             :Rm @ Measured Temperature
RMT .DEGC     26.300            :Mud temp @ Surface
RMF .OHMM     0.093             :Rmf @ Measured Temperature
RMFT.DEGC     26.300            :MF temp @ Surface
RMC .OHMM     0.140             :RMC @ Measured Temperature
RMCT.DEGC     26.500            :MC temp @ Surface
MFSS.         Calculated        :Source Rmf
MCSS.         Pressed           :Source Rmc
RMB .OHMM     0.049             :Rm @ BHT
MST .DEGC     100.000           :Rm temp @ Bottom
RMFB.OHMM     0.037             :Rmf @ BHT
MFST.DEGC     100.000           :Rmf temp @ Bottom
RMCB.OHMM     0.060             :Rmc @ BHT
MCST.DEGC     100.000           :Rmc temp @ Bottom
TCS .         202000            :Time Since Circulation
DCS .         03-Mar-2012       :Date circ. stopped
TLAB.         063203            :Tool on Bottom
DLAB.         05-Mar-2012       :Date logger at btm
SHT .DEGC     16.000            :Surface hole temp
BHT .DEGC     41.600            :Bottom Hole Temperature
LUN .         2268              :Equipment No.
LUL .         NZNP              :Base Location
LCC .         440               :Logging Company ID
ENGI.         Jessica Riese     :Recorded By
WITN.         Graeme Timmis     :Witnessed By

~Other Information
Cheal A10_RUN2:
Log objective: Log PEX-HRLA-BHC-SP in 8.5" open hole section.
TD not tagged, lowest depth reached was 1388m.
Toolstring run with bowspring and 7x 1.5" standoffs as per toolsketch.
Log spliced between 1299-1321m
All wellsite data provided by client.
Maximum recorded temperature was 40.6degC recorded by head thermometers.

#
# --- LOG MNEMONICS ---
#
#Depth    
#DT         ECGR       GR         NPHI       NPOR       TNPH       TENS      
#BS         SP         EHGR       HGR        HTNP       HDRA       RHOZ      
#RLA0       RM_HRLT    RLA5       RT_HRLT    RLA3       RXO_HRLT   RXO8      
#RHO8       PEF8       RSO8       PEFZ       RSOZ       RLA4       RLA2      
#RXOZ       DSO8       RLA1       HCAL      
#
# --- LOG UNITS ---
#
#M        
#US/F       API        API        V/V        V/V        V/V        lbf       
#INCH       MV         API        API        V/V        G/CC       G/CC      
#OHMM       OHMM       OHMM       OHMM       OHMM       OHMM       OHMM      
#G/CC       B/E        INCH       B/E        INCH       OHMM       OHMM      
#OHMM       INCH       OHMM       INCH      

~A
# ...
  1166.317
    104.487     86.344     87.405      0.341      0.424      0.391   2232.134
      8.500    -50.050     84.938     85.982      0.390     -0.010      2.250
      0.094      0.094     10.893     14.262      9.536      2.215      1.010
      2.231      2.765      0.000      2.799      0.000     10.009      8.354
      1.030      0.086      5.474      8.260
  1166.470
    104.636     86.910     87.523      0.322      0.375      0.388   2240.933
      8.500    -49.942     82.470     83.051      0.385     -0.010      2.239
      0.094      0.094     10.271     13.347      9.044      2.094      1.021
      2.234      2.711      0.000      2.742      0.000      9.463      8.033
      1.016      0.097      5.299      8.417
  1166.622
    105.153     91.226     91.513      0.317      0.370      0.370   2232.533
      8.500    -49.917     95.068     95.367      0.374     -0.010      2.236
      0.095      0.097     10.475     13.570      9.237      1.745      1.027
      2.235      2.801      0.002      2.725      0.000      9.678      8.296
      1.024      0.122      5.152      8.524
  1166.774
    105.625     90.963     91.161      0.334      0.372      0.370   2197.333
      8.500    -50.023     89.455     89.649      0.370     -0.008      2.235
      0.095      0.098     10.734     13.917      9.533      1.637      1.026
      2.216      2.686      0.007      2.708      0.011      9.947      8.584
      1.017      0.118      5.175      8.547
  1166.927
    106.366     93.636     93.976      0.348      0.381      0.389   2225.250
      8.500    -50.117     88.360     88.681      0.397     -0.005      2.234
      0.096      0.097     10.842     14.174      9.692      1.666      1.000
      2.241      2.742      0.023      2.712      0.030     10.061      8.526
      0.997      0.036      5.151      8.547
  1167.079
    106.568     93.069     93.725      0.353      0.416      0.415   2272.533
      8.500    -49.963     99.941    100.645      0.402     -0.002      2.233
      0.096      0.095     10.609     13.949      9.531      1.880      0.982
      2.238      2.649      0.059      2.704      0.042      9.865      8.297
      0.988      0.000      5.235      8.421
  1167.232
    106.582     93.497     94.385      0.356      0.418      0.426   2252.000
      8.500    -49.838     90.636     91.497      0.416      0.001      2.228
      0.093      0.091     10.638     14.019      9.543      2.054      0.990
      2.242      2.704      0.044      2.693      0.052      9.904      8.289
      1.000      0.014      5.362      8.340
  1167.384
    106.835     95.131     95.801      0.344      0.433      0.423   2204.200
      8.500    -49.725     96.447     97.126      0.413      0.005      2.228
      0.087      0.088     10.483     13.825      9.308      2.066      1.051
      2.226      2.686      0.058      2.658      0.068      9.767      8.079
      1.003      0.007      5.267      8.432
  1167.536
    106.884     93.381     94.591      0.354      0.428      0.399   2233.867
      8.500    -49.758     95.798     97.039      0.418      0.007      2.227
      0.085      0.087     10.217     13.496      9.025      1.954      0.994
      2.198      2.582      0.103      2.635      0.085      9.532      7.863
      0.998      0.069      5.053      8.317
  1167.689
    106.283     93.702     94.870      0.353      0.379      0.393   2251.533
      8.500    -49.896     93.266     94.428      0.403      0.007      2.227
      0.088      0.087     10.426     13.752      9.168      2.035      0.962
      2.232      2.622      0.080      2.632      0.093      9.722      8.033
      0.973      0.038      5.187      8.271
  1167.841
    105.937     90.698     91.694      0.349      0.395      0.399   2262.067
      8.500    -50.108     87.718     88.681      0.409      0.005      2.229
      0.091      0.087     10.534     13.871      9.247      2.095      0.985
      2.241      2.567      0.081      2.651      0.071      9.827      8.141
      1.019      0.025      5.290      8.340
  1167.994
    105.647     92.371     93.021      0.329      0.395      0.410   2260.067
      8.500    -49.992     94.350     95.015      0.407      0.006      2.227
      0.090      0.089     10.536     13.857      9.231      2.056      1.119
      2.225      2.728      0.050      2.705      0.054      9.814      8.134
      1.108      0.017      5.258      8.421
  1168.146
    105.590     90.595     90.909      0.310      0.385      0.396   2227.333
      8.500    -50.450     91.531     91.848      0.403      0.016      2.228
      0.088      0.088     10.776     14.198      9.406      1.948      1.239
      2.241      2.843      0.029      2.762      0.053     10.011      8.267
      1.162      0.051      5.201      8.478
  1168.298
    105.511     89.949     89.971      0.316      0.387      0.377   2229.733
      8.500    -50.654     85.493     85.513      0.372      0.031      2.229
      0.082      0.085     10.613     13.981      9.229      2.009      1.091
      2.239      2.893      0.100      2.779      0.080      9.813      8.093
      1.086      0.122      5.155      8.593
  1168.451
    105.757     87.779     87.843      0.336      0.395      0.374   2252.733
      8.500    -50.521     88.617     88.681      0.370      0.047      2.240
      0.079      0.083     10.418     13.692      9.056      2.135      0.949
      2.217      2.739      0.112      2.743      0.108      9.610      7.934
      0.980      0.190      5.198      8.697
  1168.603
    106.148     89.902     89.837      0.340      0.385      0.385   2253.133
      8.500    -50.642     92.209     92.142      0.387      0.038      2.238
      0.078      0.082     10.254     13.429      8.926      2.262      0.929
      2.215      2.573      0.095      2.668      0.079      9.455      7.848
      0.947      0.139      5.272      8.582
  1168.756
    106.304     90.043     89.720      0.351      0.379      0.387   2225.267
      8.500    -51.063     94.650     94.310      0.382      0.021      2.240
      0.078      0.081     10.634     13.911      9.232      2.374      0.980
      2.253      2.643      0.033      2.607      0.045      9.793      8.126
      0.972      0.019      5.484      8.662
  1168.908
    106.304     94.142     93.490      0.348      0.416      0.406   2213.467
      8.500    -51.200     87.528     86.922      0.387      0.000      2.229
      0.078      0.082     10.768     14.090      9.316      2.345      1.002
      2.256      2.570      0.012      2.590      0.023      9.911      8.216
      1.002      0.012      5.495      8.697
  1169.060
    106.034     91.295     90.792      0.351      0.393      0.411   2239.600
      8.500    -51.346     97.310     96.774      0.401     -0.004      2.232
      0.078      0.082     10.932     14.347      9.445      2.327      1.018
      2.247      2.508      0.028      2.602      0.012     10.051      8.296
      1.012     -0.021      5.493      8.793
  1169.213
    106.104     94.365     93.607      0.354      0.407      0.428   2245.533
      8.500    -51.646     89.044     88.330      0.434     -0.005      2.233
      0.076      0.081     10.641     13.926      9.162      2.378      1.027
      2.242      2.574      0.000      2.623      0.003      9.767      8.037
      1.004      0.002      5.429      8.793
  1169.365
    106.225     94.130     92.669      0.362      0.467      0.441   2218.600
      8.500    -51.967     88.292     86.922      0.449     -0.003      2.233
      0.074      0.080     10.491     13.729      9.016      2.344      0.982
      2.232      2.722      0.000      2.628      0.000      9.613      7.881
      0.991      0.038      5.334      8.892
  1169.518
    105.799     96.891     95.719      0.386      0.450      0.440   2212.267
      8.500    -52.333     99.028     97.830      0.423     -0.001      2.225
      0.072      0.079     10.325     13.537      8.887      2.248      0.970
      2.239      2.592      0.007      2.626      0.018      9.468      7.734
      0.974     -0.023      5.198      8.938
