~Version Information
VERS.                     2.0: CWLS log ASCII Standard Version 2.00
WRAP.                     YES: Multiple lines per depth step

~Well Information Block
#MNEM.UNIT                 Value                       Information
#------------              -----                       -----------
STRT.M                      83.363                    :START
STOP.M                    1576.273                    :STOP
STEP.M                       0.152                    :STEP
NULL.                     -999.25                     :NULL VALUE
COMP.         TAG Oil                                 :Company
WELL.         Cheal-A10                               :Well
FLD .                                                 :Field Name
LOC .         Geodetic Datum 2000                     :Location
PROV.                                                 :Province
CNTY.         Taranaki                                :County
STATE.                                                 :State
CTRY.         New Zealand                             :Country
DATE.                                                 :Log Date
SRVC.                                                 :Service Company
UWI .                                                 :Unique Well Identifier
API .                                                 :API Number
FL1 .         5639460.731                             :Field Loc. 1 / Northing
FL2 .         1712320.438                             :Field Loc. 2 / Easting
LATI.         039 23' 13.335" N    DMS                :Latitude
LONG.         174 18' 15.262" E    DMS                :Longtitude
PD  .         MSL                                     :Permanent Datum
EPD .M             0.000                              :Elevation
EDF .M           269.800                              :Elevations D.F.
EGL .M           264.650                              :Elevations G.L.
ELZ .M           269.800                              :Elev. Log Zero
APD .M           269.800                              :Above Permanent Datum
LMF .         DF                                      :Log Measured From

~Curve Information
#MNEM   .UNIT             API CODE Curve Description
#------------             -------- -----------------
DEPT    .M            00 001 00 00:   0  Depth
DT      .US/F         60 520 32 01:  22  Delta-T (also called Slowness or Interval Transit Time)
ECGR    .API          30 150 01 01:  23  Environmentally Corrected Gamma Ray
GR      .API          30 150 01 01:  24  Gamma Ray
NPHI    .V/V          42 890 01 01:  25  Thermal Neutron Porosity (original Ratio Method) in Selected Lithology
NPOR    .V/V          42 890 01 01:  26  Enhanced Thermal Neutron Porosity in Selected Lithology
TNPH    .V/V          42 890 01 01:  27  Thermal Neutron Porosity (Ratio Method) in Selected Lithology
TENS    .lbf          84 635 11 01:  28  Cable Tension
BS      .INCH         00 000 00 00:  29  Bit Size
SP      .MV           05 010 01 01:  30  Spontaneous Potential
EHGR    .API          00 000 00 00:  31  High Resolution Corrected Gamma Ray
HGR     .API          30 150 01 01:  32  High Resolution Gamma Ray
HTNP    .V/V          00 000 00 00:  33  High Resolution Thermal Neutron Porosity (Ratio Method) in Selected Lithology
HDRA    .G/CC         45 356 01 01:  34  Density Standoff Correction
RHOZ    .G/CC         45 350 01 01:  35  Standard Resolution Formation Density
RLA0    .OHMM         00 000 00 00:  36  Apparent Resistivity from Computed Focusing Mode 0
RM_HRLT .OHMM         00 000 00 00:  37  HRLT Computed Mud Resistivity
RLA5    .OHMM         00 000 00 00:  38  Apparent Resistivity from Computed Focusing Mode 5
RT_HRLT .OHMM         00 000 00 00:  39  HRLT True Formation Resistivity
RLA3    .OHMM         00 000 00 00:  40  Apparent Resistivity from Computed Focusing Mode 3
RXO_HRLT.OHMM         00 000 00 00:  41  HRLT Invaded Zone Resistivity
RXO8    .OHMM         00 000 00 00:  42  Invaded Formation Resistivity filtered at 8 inches
RHO8    .G/CC         45 350 01 01:  43  High Resolution Formation Density
PEF8    .B/E          00 000 00 00:  44  High Resolution Formation Photoelectric Factor
RSO8    .INCH         00 000 00 00:  45  Resistivity Standoff High Resolution
PEFZ    .B/E          45 358 01 01:  46  Standard Resolution Formation Photoelectric Factor
RSOZ    .INCH         00 000 00 00:  47  Resistivity Standoff Standard Resolution
RLA4    .OHMM         00 000 00 00:  48  Apparent Resistivity from Computed Focusing Mode 4
RLA2    .OHMM         00 000 00 00:  49  Apparent Resistivity from Computed Focusing Mode 2
RXOZ    .OHMM         00 000 00 00:  50  Invaded Formation Resistivity filtered at 18 inches
DSO8    .INCH         00 000 00 00:  51  High Resolution Density Standoff
RLA1    .OHMM         95 220 00 01:  52  Apparent Resistivity from Computed Focusing Mode 1
HCAL    .INCH         70 280 00 01:  53  HRCC Caliper Calibrated

~Parameter Information
#MNEM.UNIT       Value           Description
#------------    -----           -----------
RUN .         1                 :Run Number
DATE.         03-Mar-2012       :Date
TDD .M        1577.000          :Depth Driller
TDL .M        1388.000          :Depth Logger
BLI .M        108.890           :First Reading
TLI .M        1392.940          :Last Reading
CBD .M        277.000           :Casing Driller
CBL .M        278.000           :Casing Logger
CS  .IN       9.625             :Casing Size
CW1 .LBCF     47.000            :Casing Weight
BS  .IN       8.500             :Bit Size
BSDF.M        208.500           :Bit Size Depth From
BSDT.M        1577.000          :Bit Size Depth To
DFT .         Water             :Hole Fluid Type
DFD .G/C3     1.108             :Density
DFV .SEC      61.000            :Viscosity
DFPH.         9.5               :pH
DFL .C3       6.000             :Fluid Loss
MSS .         Active Tank       :Sample Source
RM  .OHMM     0.124             :Rm @ Measured Temperature
RMT .DEGC     26.300            :Mud temp @ Surface
RMF .OHMM     0.093             :Rmf @ Measured Temperature
RMFT.DEGC     26.300            :MF temp @ Surface
RMC .OHMM     0.140             :RMC @ Measured Temperature
RMCT.DEGC     26.500            :MC temp @ Surface
MFSS.         Calculated        :Source Rmf
MCSS.         Pressed           :Source Rmc
RMB .OHMM     0.049             :Rm @ BHT
MST .DEGC     100.000           :Rm temp @ Bottom
RMFB.OHMM     0.037             :Rmf @ BHT
MFST.DEGC     100.000           :Rmf temp @ Bottom
RMCB.OHMM     0.060             :Rmc @ BHT
MCST.DEGC     100.000           :Rmc temp @ Bottom
TCS .         202000            :Time Since Circulation
DCS .         03-Mar-2012       :Date circ. stopped
TLAB.         004411            :Tool on Bottom
DLAB.         04-Mar-2012       :Date logger at btm
BHT .DEGC     40.630            :Bottom Hole Temperature
LUN .         2268              :Equipment No.
LUL .         NZNP              :Base Location
LCC .         440               :Logging Company ID
ENGI.         Jessica Riese     :Recorded By
WITN.         Graeme Timmis     :Witnessed By
RUN .         2                 :Run Number
DATE.         04-Mar-2012       :Date
TDD .M        1577.000          :Depth Driller
TDL .M        1574.000          :Depth Logger
BLI .M        108.890           :First Reading
TLI .M        1576.340          :Last Reading
CBD .M        277.000           :Casing Driller
CBL .M        278.000           :Casing Logger
CS  .IN       9.625             :Casing Size
CW1 .LB/FT    47.000            :Casing Weight
BS  .IN       8.500             :Bit Size
BSDF.M        208.500           :Bit Size Depth From
BSDT.M        1577.000          :Bit Size Depth To
DFT .         Water             :Hole Fluid Type
DFD .G/C3     1.108             :Density
DFV .SEC      61.000            :Viscosity
DFPH.         9.5               :pH
DFL .C3       6.000             :Fluid Loss
MSS .         Active Tank       :Sample Source
RM  .OHMM     0.124             :Rm @ Measured Temperature
RMT .DEGC     26.300            :Mud temp @ Surface
RMF .OHMM     0.093             :Rmf @ Measured Temperature
RMFT.DEGC     26.300            :MF temp @ Surface
RMC .OHMM     0.140             :RMC @ Measured Temperature
RMCT.DEGC     26.500            :MC temp @ Surface
MFSS.         Calculated        :Source Rmf
MCSS.         Pressed           :Source Rmc
RMB .OHMM     0.049             :Rm @ BHT
MST .DEGC     100.000           :Rm temp @ Bottom
RMFB.OHMM     0.037             :Rmf @ BHT
MFST.DEGC     100.000           :Rmf temp @ Bottom
RMCB.OHMM     0.060             :Rmc @ BHT
MCST.DEGC     100.000           :Rmc temp @ Bottom
TCS .         202000            :Time Since Circulation
DCS .         03-Mar-2012       :Date circ. stopped
TLAB.         063203            :Tool on Bottom
DLAB.         05-Mar-2012       :Date logger at btm
SHT .DEGC     16.000            :Surface hole temp
BHT .DEGC     41.600            :Bottom Hole Temperature
LUN .         2268              :Equipment No.
LUL .         NZNP              :Base Location
LCC .         440               :Logging Company ID
ENGI.         Jessica Riese     :Recorded By
WITN.         Graeme Timmis     :Witnessed By

~Other Information
Cheal A10_RUN2:
Log objective: Log PEX-HRLA-BHC-SP in 8.5" open hole section.
TD not tagged, lowest depth reached was 1388m.
Toolstring run with bowspring and 7x 1.5" standoffs as per toolsketch.
Log spliced between 1299-1321m
All wellsite data provided by client.
Maximum recorded temperature was 40.6degC recorded by head thermometers.

#
# --- LOG MNEMONICS ---
#
#Depth    
#DT         ECGR       GR         NPHI       NPOR       TNPH       TENS      
#BS         SP         EHGR       HGR        HTNP       HDRA       RHOZ      
#RLA0       RM_HRLT    RLA5       RT_HRLT    RLA3       RXO_HRLT   RXO8      
#RHO8       PEF8       RSO8       PEFZ       RSOZ       RLA4       RLA2      
#RXOZ       DSO8       RLA1       HCAL      
#
# --- LOG UNITS ---
#
#M        
#US/F       API        API        V/V        V/V        V/V        lbf       
#INCH       MV         API        API        V/V        G/CC       G/CC      
#OHMM       OHMM       OHMM       OHMM       OHMM       OHMM       OHMM      
#G/CC       B/E        INCH       B/E        INCH       OHMM       OHMM      
#OHMM       INCH       OHMM       INCH      

~A
# ...
    93.421
     55.316     39.817     49.883      0.543      0.586      0.574    995.000
      8.500    -43.313     39.325     49.267      0.586      0.252      2.326
      0.020      0.015      0.007      0.007      0.015      0.007      0.047
      2.327      7.901      0.289      8.111      0.289      0.013      0.017
      0.047      0.471      0.020      3.922
    93.574
     55.316     45.997     57.625      0.560      0.456      0.488    995.000
      8.500    -43.313     40.028     50.147      0.570      0.252      2.326
      0.020      0.015      0.007      0.007      0.015      0.007      0.047
      2.327      7.901      0.291      8.111      0.289      0.013      0.017
      0.047      0.471      0.020      3.922
    93.726
     55.316     48.806     61.144      0.607      0.552      0.522    995.000
      8.500    -43.313     49.860     62.464      0.514      0.252      2.326
      0.020      0.015      0.007      0.007      0.015      0.007      0.047
      2.327      7.901      0.287      8.111      0.289      0.013      0.017
      0.047      0.471      0.020      3.899
    93.878
     55.316     47.682     59.736      0.659      0.586      0.624    995.000
      8.500    -43.313     54.073     67.742      0.580      0.252      2.326
      0.020      0.015      0.007      0.007      0.015      0.007      0.047
      2.327      7.901      0.290      8.111      0.287      0.013      0.017
      0.047      0.471      0.020      3.922
    94.031
     55.316     45.786     57.361      0.582      0.795      0.767    995.000
      8.500    -43.313     45.646     57.185      0.631      0.253      2.326
      0.020      0.015      0.007      0.007      0.015      0.007      0.047
      2.335      8.025      0.286      8.127      0.286      0.013      0.017
      0.047      0.473      0.020      3.922
    94.183
     55.316     46.419     58.153      0.564      0.616      0.562    995.000
      8.500    -43.313     50.562     63.344      0.570      0.255      2.321
      0.020      0.015      0.007      0.007      0.015      0.007      0.047
      2.270      8.342      0.284      8.199      0.284      0.013      0.017
      0.047      0.459      0.020      3.922
    94.336
     55.316     48.736     61.056      0.497      0.462      0.510    995.000
      8.500    -43.313     49.158     61.585      0.505      0.262      2.320
      0.020      0.015      0.007      0.007      0.015      0.007      0.047
      2.290      8.398      0.283      8.272      0.284      0.013      0.017
      0.047      0.489      0.020      3.922
    94.488
     55.316     49.789     62.376      0.487      0.439      0.463    995.000
      8.500    -43.313     47.050     58.945      0.499      0.268      2.320
      0.020      0.015      0.007      0.007      0.015      0.007      0.047
      2.332      8.319      0.284      8.284      0.286      0.013      0.017
      0.047      0.498      0.020      3.922
    94.640
     55.316     50.070     62.728      0.504      0.506      0.468    995.000
      8.500    -43.313     44.943     56.305      0.469      0.267      2.311
      0.020      0.015      0.007      0.007      0.015      0.007      0.047
      2.384      8.290      0.288      8.211      0.287      0.013      0.017
      0.047      0.493      0.020      3.922
    94.793
     55.316     45.857     57.449      0.513      0.474      0.456    995.000
      8.500    -43.313     49.860     62.464      0.474      0.254      2.299
      0.020      0.015      0.007      0.007      0.015      0.007      0.047
      2.367      8.163      0.285      7.985      0.287      0.013      0.017
      0.047      0.462      0.020      3.922
    94.945
     55.316     40.520     50.763      0.563      0.458      0.459    995.000
      8.500    -43.313     45.646     57.185      0.449      0.233      2.286
      0.020      0.015      0.007      0.007      0.015      0.007      0.047
      2.304      7.532      0.285      7.638      0.283      0.013      0.017
      0.047      0.404      0.020      3.922
    95.098
     55.316     44.523     55.778      0.593      0.482      0.529    995.000
      8.500    -43.313     38.625     48.389      0.501      0.214      2.272
      0.020      0.015      0.007      0.007      0.015      0.007      0.047
      2.209      6.896      0.281      7.379      0.285      0.013      0.017
      0.047      0.351      0.020      3.922
    95.250
     55.316     49.161     61.672      0.648      0.655      0.617    995.000
      8.500    -43.313     63.118     79.181      0.531      0.210      2.269
      0.020      0.015      0.007      0.007      0.015      0.007      0.047
      2.154      7.036      0.286      7.375      0.286      0.013      0.017
      0.047      0.365      0.020      3.899
    95.402
     55.316     50.351     63.080      0.609      0.752      0.732    995.000
      8.500    -43.313     54.075     67.745      0.718      0.222      2.278
      0.020      0.015      0.007      0.007      0.015      0.007      0.047
      2.216      7.682      0.294      7.659      0.291      0.013      0.017
      0.047      0.465      0.020      3.899
    95.555
     55.316     46.629     58.417      0.570      0.576      0.585    995.000
      8.500    -43.313     37.921     47.508      0.668      0.242      2.299
      0.020      0.015      0.007      0.007      0.015      0.007      0.048
      2.318      8.388      0.291      8.011      0.290      0.013      0.017
      0.048      0.596      0.020      3.922
    95.707
     55.316     43.329     54.282      0.532      0.520      0.533    995.000
      8.500    -43.313     44.943     56.305      0.522      0.266      2.328
      0.020      0.015      0.007      0.007      0.015      0.007      0.047
      2.418      8.521      0.287      8.277      0.287      0.013      0.017
      0.048      0.611      0.020      3.922
    95.860
     55.316     48.881     61.321      0.533      0.507      0.495    995.000
      8.500    -43.313     46.988     58.946      0.486      0.277      2.339
      0.020      0.015      0.007      0.007      0.015      0.007      0.047
      2.396      8.767      0.285      8.432      0.285      0.013      0.017
      0.047      0.576      0.020      3.922
    96.012
     55.316     51.475     64.488      0.584      0.500      0.490    995.000
      8.500    -43.313     47.051     58.945      0.488      0.279      2.345
      0.020      0.015      0.007      0.007      0.015      0.007      0.046
      2.351      8.485      0.283      8.507      0.285      0.013      0.017
      0.047      0.486      0.020      3.922
    96.164
     55.316     56.039     70.206      0.552      0.524      0.551    995.000
      8.500    -43.313     50.561     63.343      0.535      0.269      2.339
      0.020      0.015      0.007      0.007      0.015      0.007      0.047
      2.327      8.406      0.289      8.492      0.287      0.013      0.017
      0.047      0.448      0.020      3.922
    96.317
     55.316     51.264     64.224      0.584      0.498      0.525    995.000
      8.500    -43.313     56.179     70.382      0.550      0.266      2.342
      0.020      0.015      0.007      0.007      0.015      0.007      0.047
      2.316      8.302      0.290      8.421      0.288      0.013      0.017
      0.047      0.449      0.020      3.922
    96.469
     55.316     48.244     60.441      0.483      0.647      0.633    995.000
      8.500    -43.313     45.647     57.186      0.591      0.258      2.324
      0.020      0.015      0.007      0.007      0.015      0.007      0.047
      2.327      8.367      0.286      8.335      0.288      0.013      0.017
      0.047      0.481      0.020      3.899
    96.622
     55.316     47.261     59.209      0.544      0.462      0.470    995.000
      8.500    -43.313     47.050     58.945      0.514      0.259      2.319
      0.020      0.015      0.007      0.007      0.015      0.007      0.047
      2.311      8.225      0.289      8.271      0.290      0.013      0.017
      0.047      0.472      0.020      3.922
