~Version Information
VERS.                     2.0: CWLS log ASCII Standard Version 2.00
WRAP.                     YES: Multiple lines per depth step

~Well Information Block
#MNEM.UNIT                 Value                       Information
#------------              -----                       -----------
STRT.M                      83.363                    :START
STOP.M                    1576.273                    :STOP
STEP.M                       0.152                    :STEP
NULL.                     -999.25                     :NULL VALUE
COMP.         TAG Oil                                 :Company
WELL.         Cheal-A10                               :Well
FLD .                                                 :Field Name
LOC .         Geodetic Datum 2000                     :Location
PROV.                                                 :Province
CNTY.         Taranaki                                :County
STATE.                                                 :State
CTRY.         New Zealand                             :Country
DATE.                                                 :Log Date
SRVC.                                                 :Service Company
UWI .                                                 :Unique Well Identifier
API .                                                 :API Number
FL1 .         5639460.731                             :Field Loc. 1 / Northing
FL2 .         1712320.438                             :Field Loc. 2 / Easting
LATI.         039 23' 13.335" N    DMS                :Latitude
LONG.         174 18' 15.262" E    DMS                :Longtitude
PD  .         MSL                                     :Permanent Datum
EPD .M             0.000                              :Elevation
EDF .M           269.800                              :Elevations D.F.
EGL .M           264.650                              :Elevations G.L.
ELZ .M           269.800                              :Elev. Log Zero
APD .M           269.800                              :Above Permanent Datum
LMF .         DF                                      :Log Measured From

~Curve Information
#MNEM   .UNIT             API CODE Curve Description
#------------             -------- -----------------
DEPT    .M            00 001 00 00:   0  Depth
DT      .US/F         60 520 32 01:  22  Delta-T (also called Slowness or Interval Transit Time)
ECGR    .API          30 150 01 01:  23  Environmentally Corrected Gamma Ray
GR      .API          30 150 01 01:  24  Gamma Ray
NPHI    .V/V          42 890 01 01:  25  Thermal Neutron Porosity (original Ratio Method) in Selected Lithology
NPOR    .V/V          42 890 01 01:  26  Enhanced Thermal Neutron Porosity in Selected Lithology
TNPH    .V/V          42 890 01 01:  27  Thermal Neutron Porosity (Ratio Method) in Selected Lithology
TENS    .lbf          84 635 11 01:  28  Cable Tension
BS      .INCH         00 000 00 00:  29  Bit Size
SP      .MV           05 010 01 01:  30  Spontaneous Potential
EHGR    .API          00 000 00 00:  31  High Resolution Corrected Gamma Ray
HGR     .API          30 150 01 01:  32  High Resolution Gamma Ray
HTNP    .V/V          00 000 00 00:  33  High Resolution Thermal Neutron Porosity (Ratio Method) in Selected Lithology
HDRA    .G/CC         45 356 01 01:  34  Density Standoff Correction
RHOZ    .G/CC         45 350 01 01:  35  Standard Resolution Formation Density
RLA0    .OHMM         00 000 00 00:  36  Apparent Resistivity from Computed Focusing Mode 0
RM_HRLT .OHMM         00 000 00 00:  37  HRLT Computed Mud Resistivity
RLA5    .OHMM         00 000 00 00:  38  Apparent Resistivity from Computed Focusing Mode 5
RT_HRLT .OHMM         00 000 00 00:  39  HRLT True Formation Resistivity
RLA3    .OHMM         00 000 00 00:  40  Apparent Resistivity from Computed Focusing Mode 3
RXO_HRLT.OHMM         00 000 00 00:  41  HRLT Invaded Zone Resistivity
RXO8    .OHMM         00 000 00 00:  42  Invaded Formation Resistivity filtered at 8 inches
RHO8    .G/CC         45 350 01 01:  43  High Resolution Formation Density
PEF8    .B/E          00 000 00 00:  44  High Resolution Formation Photoelectric Factor
RSO8    .INCH         00 000 00 00:  45  Resistivity Standoff High Resolution
PEFZ    .B/E          45 358 01 01:  46  Standard Resolution Formation Photoelectric Factor
RSOZ    .INCH         00 000 00 00:  47  Resistivity Standoff Standard Resolution
RLA4    .OHMM         00 000 00 00:  48  Apparent Resistivity from Computed Focusing Mode 4
RLA2    .OHMM         00 000 00 00:  49  Apparent Resistivity from Computed Focusing Mode 2
RXOZ    .OHMM         00 000 00 00:  50  Invaded Formation Resistivity filtered at 18 inches
DSO8    .INCH         00 000 00 00:  51  High Resolution Density Standoff
RLA1    .OHMM         95 220 00 01:  52  Apparent Resistivity from Computed Focusing Mode 1
HCAL    .INCH         70 280 00 01:  53  HRCC Caliper Calibrated

~Parameter Information
#MNEM.UNIT       Value           Description
#------------    -----           -----------
RUN .         1                 :Run Number
DATE.         03-Mar-2012       :Date
TDD .M        1577.000          :Depth Driller
TDL .M        1388.000          :Depth Logger
BLI .M        108.890           :First Reading
TLI .M        1392.940          :Last Reading
CBD .M        277.000           :Casing Driller
CBL .M        278.000           :Casing Logger
CS  .IN       9.625             :Casing Size
CW1 .LBCF     47.000            :Casing Weight
BS  .IN       8.500             :Bit Size
BSDF.M        208.500           :Bit Size Depth From
BSDT.M        1577.000          :Bit Size Depth To
DFT .         Water             :Hole Fluid Type
DFD .G/C3     1.108             :Density
DFV .SEC      61.000            :Viscosity
DFPH.         9.5               :pH
DFL .C3       6.000             :Fluid Loss
MSS .         Active Tank       :Sample Source
RM  .OHMM     0.124             :Rm @ Measured Temperature
RMT .DEGC     26.300            :Mud temp @ Surface
RMF .OHMM     0.093             :Rmf @ Measured Temperature
RMFT.DEGC     26.300            :MF temp @ Surface
RMC .OHMM     0.140             :RMC @ Measured Temperature
RMCT.DEGC     26.500            :MC temp @ Surface
MFSS.         Calculated        :Source Rmf
MCSS.         Pressed           :Source Rmc
RMB .OHMM     0.049             :Rm @ BHT
MST .DEGC     100.000           :Rm temp @ Bottom
RMFB.OHMM     0.037             :Rmf @ BHT
MFST.DEGC     100.000           :Rmf temp @ Bottom
RMCB.OHMM     0.060             :Rmc @ BHT
MCST.DEGC     100.000           :Rmc temp @ Bottom
TCS .         202000            :Time Since Circulation
DCS .         03-Mar-2012       :Date circ. stopped
TLAB.         004411            :Tool on Bottom
DLAB.         04-Mar-2012       :Date logger at btm
BHT .DEGC     40.630            :Bottom Hole Temperature
LUN .         2268              :Equipment No.
LUL .         NZNP              :Base Location
LCC .         440               :Logging Company ID
ENGI.         Jessica Riese     :Recorded By
WITN.         Graeme Timmis     :Witnessed By
RUN .         2                 :Run Number
DATE.         04-Mar-2012       :Date
TDD .M        1577.000          :Depth Driller
TDL .M        1574.000          :Depth Logger
BLI .M        108.890           :First Reading
TLI .M        1576.340          :Last Reading
CBD .M        277.000           :Casing Driller
CBL .M        278.000           :Casing Logger
CS  .IN       9.625             :Casing Size
CW1 .LB/FT    47.000            :Casing Weight
BS  .IN       8.500             :Bit Size
BSDF.M        208.500           :Bit Size Depth From
BSDT.M        1577.000          :Bit Size Depth To
DFT .         Water             :Hole Fluid Type
DFD .G/C3     1.108             :Density
DFV .SEC      61.000            :Viscosity
DFPH.         9.5               :pH
DFL .C3       6.000             :Fluid Loss
MSS .         Active Tank       :Sample Source
RM  .OHMM     0.124             :Rm @ Measured Temperature
RMT .DEGC     26.300            :Mud temp @ Surface
RMF .OHMM     0.093             :Rmf @ Measured Temperature
RMFT.DEGC     26.300            :MF temp @ Surface
RMC .OHMM     0.140             :RMC @ Measured Temperature
RMCT.DEGC     26.500            :MC temp @ Surface
MFSS.         Calculated        :Source Rmf
MCSS.         Pressed           :Source Rmc
RMB .OHMM     0.049             :Rm @ BHT
MST .DEGC     100.000           :Rm temp @ Bottom
RMFB.OHMM     0.037             :Rmf @ BHT
MFST.DEGC     100.000           :Rmf temp @ Bottom
RMCB.OHMM     0.060             :Rmc @ BHT
MCST.DEGC     100.000           :Rmc temp @ Bottom
TCS .         202000            :Time Since Circulation
DCS .         03-Mar-2012       :Date circ. stopped
TLAB.         063203            :Tool on Bottom
DLAB.         05-Mar-2012       :Date logger at btm
SHT .DEGC     16.000            :Surface hole temp
BHT .DEGC     41.600            :Bottom Hole Temperature
LUN .         2268              :Equipment No.
LUL .         NZNP              :Base Location
LCC .         440               :Logging Company ID
ENGI.         Jessica Riese     :Recorded By
WITN.         Graeme Timmis     :Witnessed By

~Other Information
Cheal A10_RUN2:
Log objective: Log PEX-HRLA-BHC-SP in 8.5" open hole section.
TD not tagged, lowest depth reached was 1388m.
Toolstring run with bowspring and 7x 1.5" standoffs as per toolsketch.
Log spliced between 1299-1321m
All wellsite data provided by client.
Maximum recorded temperature was 40.6degC recorded by head thermometers.

#
# --- LOG MNEMONICS ---
#
#Depth    
#DT         ECGR       GR         NPHI       NPOR       TNPH       TENS      
#BS         SP         EHGR       HGR        HTNP       HDRA       RHOZ      
#RLA0       RM_HRLT    RLA5       RT_HRLT    RLA3       RXO_HRLT   RXO8      
#RHO8       PEF8       RSO8       PEFZ       RSOZ       RLA4       RLA2      
#RXOZ       DSO8       RLA1       HCAL      
#
# --- LOG UNITS ---
#
#M        
#US/F       API        API        V/V        V/V        V/V        lbf       
#INCH       MV         API        API        V/V        G/CC       G/CC      
#OHMM       OHMM       OHMM       OHMM       OHMM       OHMM       OHMM      
#G/CC       B/E        INCH       B/E        INCH       OHMM       OHMM      
#OHMM       INCH       OHMM       INCH      

~A
# ...
  1266.901
     93.215    105.806    109.326      0.298      0.333      0.327   2409.267
      8.500    -47.496    104.898    108.387      0.326      0.037      2.402
      0.106      0.096      5.565      6.186      5.138      3.058      2.219
      2.410      2.979      0.112      3.061      0.109      5.306      4.904
      2.147      0.131      4.574      7.819
  1267.054
     93.238    103.186    105.455      0.282      0.318      0.335   2375.133
      8.500    -47.792    109.155    111.555      0.326      0.037      2.430
      0.104      0.098      5.648      6.281      5.211      3.133      2.727
      2.440      3.025      0.096      3.051      0.105      5.384      4.987
      2.580      0.146      4.639      8.018
  1267.206
     92.705    103.606    105.103      0.280      0.309      0.338   2391.733
      8.500    -47.750     97.824     99.237      0.334      0.037      2.443
      0.102      0.098      6.148      6.880      5.674      3.363      3.272
      2.465      3.137      0.105      3.050      0.100      5.866      5.437
      3.080      0.147      5.018      8.225
  1267.358
     92.573    105.462    107.567      0.291      0.363      0.356   2424.688
      8.500    -48.047    103.507    105.573      0.356      0.036      2.449
      0.100      0.099      6.112      6.860      5.655      3.374      3.698
      2.441      3.032      0.104      3.053      0.104      5.827      5.390
      3.572      0.109      4.978      8.156
  1267.511
     92.786    108.926    110.499      0.324      0.390      0.366   2389.067
      8.500    -48.000    110.660    112.259      0.364      0.028      2.444
      0.100      0.098      6.647      7.461      6.146      3.650      3.972
      2.457      2.965      0.094      3.048      0.082      6.325      5.828
      4.017      0.152      5.404      8.168
  1267.663
     95.416    107.705    108.622      0.323      0.388      0.389   2386.533
      8.500    -48.167    107.123    108.035      0.382      0.019      2.432
      0.099      0.097      6.962      7.804      6.435      3.795      4.537
      2.441      3.067      0.054      3.050      0.071      6.615      6.086
      4.268      0.027      5.661      8.409
  1267.816
     95.700    111.497    112.610      0.328      0.396      0.382   2443.267
      8.500    -48.346    106.619    107.685      0.386      0.015      2.415
      0.098      0.098      6.559      7.301      6.057      3.725      4.305
      2.423      3.053      0.067      3.052      0.069      6.238      5.748
      4.393      0.011      5.397      8.375
  1267.968
     95.648    114.651    116.365      0.312      0.381      0.376   2448.733
      8.500    -48.521    118.232    120.000      0.381      0.026      2.410
      0.098      0.097      6.568      7.270      6.026      4.010      4.158
      2.401      3.034      0.096      3.057      0.101      6.232      5.738
      3.902      0.078      5.459      8.260
  1268.120
     96.161    115.467    117.772      0.304      0.358      0.349   2422.000
      8.500    -48.221    119.033    121.409      0.362      0.038      2.407
      0.101      0.097      6.751      7.360      6.143      4.086      3.406
      2.380      2.980      0.136      3.057      0.121      6.403      5.900
      3.453      0.167      5.679      8.156
  1268.273
     97.525    114.666    117.303      0.291      0.326      0.332   2362.400
      8.500    -47.904    115.928    118.594      0.340      0.045      2.408
      0.107      0.099      6.366      6.904      5.779      3.881      3.027
      2.406      3.103      0.126      3.066      0.127      6.033      5.576
      2.997      0.128      5.376      8.087
  1268.425
     98.088    114.515    117.654      0.287      0.320      0.319   2435.533
      8.500    -47.396    105.153    108.036      0.324      0.045      2.401
      0.111      0.101      6.010      6.564      5.474      3.692      2.700
      2.433      3.071      0.114      3.080      0.113      5.702      5.286
      2.754      0.130      5.056      7.995
  1268.578
     97.524    114.438    117.772      0.307      0.310      0.318   2435.000
      8.500    -47.433    122.759    126.336      0.317      0.048      2.406
      0.113      0.103      5.667      6.227      5.201      3.593      2.753
      2.391      3.076      0.109      3.095      0.114      5.371      4.983
      2.905      0.101      4.759      7.972
  1268.730
     97.552    114.133    116.951      0.306      0.341      0.343   2406.267
      8.500    -47.805    107.492    110.147      0.329      0.050      2.413
      0.112      0.103      6.487      7.224      5.978      4.223      3.506
      2.415      3.196      0.124      3.109      0.120      6.140      5.718
      3.119      0.164      5.407      7.926
  1268.882
     98.618    112.366    114.723      0.327      0.355      0.349   2424.438
      8.500    -47.884    117.881    120.353      0.344      0.050      2.425
      0.108      0.102      6.570      7.311      6.088      4.241      3.399
      2.411      3.037      0.131      3.127      0.123      6.222      5.843
      3.461      0.171      5.488      8.133
  1269.035
    100.548    111.683    113.725      0.322      0.360      0.371   2399.867
      8.500    -47.672    110.589    112.611      0.361      0.049      2.431
      0.105      0.101      6.468      7.164      6.017      4.007      3.440
      2.454      3.164      0.110      3.151      0.113      6.131      5.792
      3.323      0.165      5.411      8.179
  1269.187
    100.892    110.934    113.373      0.344      0.387      0.370   2401.133
      8.500    -47.450    109.156    111.556      0.370      0.048      2.430
      0.105      0.100      6.352      6.960      5.916      3.867      3.144
      2.445      3.193      0.101      3.157      0.104      6.034      5.707
      3.209      0.142      5.366      8.087
  1269.340
    101.673    110.882    113.960      0.342      0.387      0.394   2410.400
      8.500    -47.150    110.424    113.490      0.392      0.046      2.415
      0.107      0.099      6.437      6.995      5.996      3.897      2.985
      2.394      3.102      0.104      3.142      0.102      6.118      5.778
      2.884      0.105      5.488      7.995
  1269.492
    100.397    111.822    115.426      0.332      0.389      0.388   2399.000
      8.500    -46.475    113.186    116.834      0.384      0.038      2.396
      0.108      0.100      4.940      5.300      4.606      3.004      2.435
      2.373      3.125      0.097      3.108      0.100      4.703      4.457
      2.540      0.070      4.275      7.911
  1269.644
     98.798    111.713    116.013      0.316      0.381      0.378   2390.800
      8.500    -45.938    109.792    114.018      0.380      0.036      2.394
      0.113      0.101      4.839      5.186      4.498      2.978      2.309
      2.377      3.043      0.097      3.098      0.098      4.622      4.350
      2.420      0.096      4.179      7.765
  1269.797
     98.597    109.109    113.080      0.297      0.338      0.360   2453.467
      8.500    -46.092    116.806    121.057      0.363      0.042      2.405
      0.118      0.102      5.589      6.044      5.188      3.406      2.550
      2.423      3.170      0.100      3.124      0.099      5.346      5.028
      2.362      0.147      4.794      7.750
  1269.949
     97.291    109.095    112.611      0.312      0.345      0.352   2457.933
      8.500    -46.425    106.708    110.147      0.360      0.058      2.420
      0.114      0.104      5.668      6.176      5.264      3.436      2.242
      2.426      3.125      0.097      3.182      0.098      5.443      5.101
      2.345      0.160      4.838      7.811
  1270.102
     96.303    109.081    112.259      0.310      0.390      0.373   2430.733
      8.500    -46.938    100.191    103.110      0.355      0.068      2.425
      0.115      0.106      5.739      6.396      5.342      3.471      2.333
      2.429      3.268      0.100      3.231      0.105      5.520      5.141
      2.387      0.178      4.805      7.903
