~Version Information
VERS.                     2.0: CWLS log ASCII Standard Version 2.00
WRAP.                     YES: Multiple lines per depth step

~Well Information Block
#MNEM.UNIT                 Value                       Information
#------------              -----                       -----------
STRT.M                      83.363                    :START
STOP.M                    1576.273                    :STOP
STEP.M                       0.152                    :STEP
NULL.                     -999.25                     :NULL VALUE
COMP.         TAG Oil                                 :Company
WELL.         Cheal-A10                               :Well
FLD .                                                 :Field Name
LOC .         Geodetic Datum 2000                     :Location
PROV.                                                 :Province
CNTY.         Taranaki                                :County
STATE.                                                 :State
CTRY.         New Zealand                             :Country
DATE.                                                 :Log Date
SRVC.                                                 :Service Company
UWI .                                                 :Unique Well Identifier
API .                                                 :API Number
FL1 .         5639460.731                             :Field Loc. 1 / Northing
FL2 .         1712320.438                             :Field Loc. 2 / Easting
LATI.         039 23' 13.335" N    DMS                :Latitude
LONG.         174 18' 15.262" E    DMS                :Longtitude
PD  .         MSL                                     :Permanent Datum
EPD .M             0.000                              :Elevation
EDF .M           269.800                              :Elevations D.F.
EGL .M           264.650                              :Elevations G.L.
ELZ .M           269.800                              :Elev. Log Zero
APD .M           269.800                              :Above Permanent Datum
LMF .         DF                                      :Log Measured From

~Curve Information
#MNEM   .UNIT             API CODE Curve Description
#------------             -------- -----------------
DEPT    .M            00 001 00 00:   0  Depth
DT      .US/F         60 520 32 01:  22  Delta-T (also called Slowness or Interval Transit Time)
ECGR    .API          30 150 01 01:  23  Environmentally Corrected Gamma Ray
GR      .API          30 150 01 01:  24  Gamma Ray
NPHI    .V/V          42 890 01 01:  25  Thermal Neutron Porosity (original Ratio Method) in Selected Lithology
NPOR    .V/V          42 890 01 01:  26  Enhanced Thermal Neutron Porosity in Selected Lithology
TNPH    .V/V          42 890 01 01:  27  Thermal Neutron Porosity (Ratio Method) in Selected Lithology
TENS    .lbf          84 635 11 01:  28  Cable Tension
BS      .INCH         00 000 00 00:  29  Bit Size
SP      .MV           05 010 01 01:  30  Spontaneous Potential
EHGR    .API          00 000 00 00:  31  High Resolution Corrected Gamma Ray
HGR     .API          30 150 01 01:  32  High Resolution Gamma Ray
HTNP    .V/V          00 000 00 00:  33  High Resolution Thermal Neutron Porosity (Ratio Method) in Selected Lithology
HDRA    .G/CC         45 356 01 01:  34  Density Standoff Correction
RHOZ    .G/CC         45 350 01 01:  35  Standard Resolution Formation Density
RLA0    .OHMM         00 000 00 00:  36  Apparent Resistivity from Computed Focusing Mode 0
RM_HRLT .OHMM         00 000 00 00:  37  HRLT Computed Mud Resistivity
RLA5    .OHMM         00 000 00 00:  38  Apparent Resistivity from Computed Focusing Mode 5
RT_HRLT .OHMM         00 000 00 00:  39  HRLT True Formation Resistivity
RLA3    .OHMM         00 000 00 00:  40  Apparent Resistivity from Computed Focusing Mode 3
RXO_HRLT.OHMM         00 000 00 00:  41  HRLT Invaded Zone Resistivity
RXO8    .OHMM         00 000 00 00:  42  Invaded Formation Resistivity filtered at 8 inches
RHO8    .G/CC         45 350 01 01:  43  High Resolution Formation Density
PEF8    .B/E          00 000 00 00:  44  High Resolution Formation Photoelectric Factor
RSO8    .INCH         00 000 00 00:  45  Resistivity Standoff High Resolution
PEFZ    .B/E          45 358 01 01:  46  Standard Resolution Formation Photoelectric Factor
RSOZ    .INCH         00 000 00 00:  47  Resistivity Standoff Standard Resolution
RLA4    .OHMM         00 000 00 00:  48  Apparent Resistivity from Computed Focusing Mode 4
RLA2    .OHMM         00 000 00 00:  49  Apparent Resistivity from Computed Focusing Mode 2
RXOZ    .OHMM         00 000 00 00:  50  Invaded Formation Resistivity filtered at 18 inches
DSO8    .INCH         00 000 00 00:  51  High Resolution Density Standoff
RLA1    .OHMM         95 220 00 01:  52  Apparent Resistivity from Computed Focusing Mode 1
HCAL    .INCH         70 280 00 01:  53  HRCC Caliper Calibrated

~Parameter Information
#MNEM.UNIT       Value           Description
#------------    -----           -----------
RUN .         1                 :Run Number
DATE.         03-Mar-2012       :Date
TDD .M        1577.000          :Depth Driller
TDL .M        1388.000          :Depth Logger
BLI .M        108.890           :First Reading
TLI .M        1392.940          :Last Reading
CBD .M        277.000           :Casing Driller
CBL .M        278.000           :Casing Logger
CS  .IN       9.625             :Casing Size
CW1 .LBCF     47.000            :Casing Weight
BS  .IN       8.500             :Bit Size
BSDF.M        208.500           :Bit Size Depth From
BSDT.M        1577.000          :Bit Size Depth To
DFT .         Water             :Hole Fluid Type
DFD .G/C3     1.108             :Density
DFV .SEC      61.000            :Viscosity
DFPH.         9.5               :pH
DFL .C3       6.000             :Fluid Loss
MSS .         Active Tank       :Sample Source
RM  .OHMM     0.124             :Rm @ Measured Temperature
RMT .DEGC     26.300            :Mud temp @ Surface
RMF .OHMM     0.093             :Rmf @ Measured Temperature
RMFT.DEGC     26.300            :MF temp @ Surface
RMC .OHMM     0.140             :RMC @ Measured Temperature
RMCT.DEGC     26.500            :MC temp @ Surface
MFSS.         Calculated        :Source Rmf
MCSS.         Pressed           :Source Rmc
RMB .OHMM     0.049             :Rm @ BHT
MST .DEGC     100.000           :Rm temp @ Bottom
RMFB.OHMM     0.037             :Rmf @ BHT
MFST.DEGC     100.000           :Rmf temp @ Bottom
RMCB.OHMM     0.060             :Rmc @ BHT
MCST.DEGC     100.000           :Rmc temp @ Bottom
TCS .         202000            :Time Since Circulation
DCS .         03-Mar-2012       :Date circ. stopped
TLAB.         004411            :Tool on Bottom
DLAB.         04-Mar-2012       :Date logger at btm
BHT .DEGC     40.630            :Bottom Hole Temperature
LUN .         2268              :Equipment No.
LUL .         NZNP              :Base Location
LCC .         440               :Logging Company ID
ENGI.         Jessica Riese     :Recorded By
WITN.         Graeme Timmis     :Witnessed By
RUN .         2                 :Run Number
DATE.         04-Mar-2012       :Date
TDD .M        1577.000          :Depth Driller
TDL .M        1574.000          :Depth Logger
BLI .M        108.890           :First Reading
TLI .M        1576.340          :Last Reading
CBD .M        277.000           :Casing Driller
CBL .M        278.000           :Casing Logger
CS  .IN       9.625             :Casing Size
CW1 .LB/FT    47.000            :Casing Weight
BS  .IN       8.500             :Bit Size
BSDF.M        208.500           :Bit Size Depth From
BSDT.M        1577.000          :Bit Size Depth To
DFT .         Water             :Hole Fluid Type
DFD .G/C3     1.108             :Density
DFV .SEC      61.000            :Viscosity
DFPH.         9.5               :pH
DFL .C3       6.000             :Fluid Loss
MSS .         Active Tank       :Sample Source
RM  .OHMM     0.124             :Rm @ Measured Temperature
RMT .DEGC     26.300            :Mud temp @ Surface
RMF .OHMM     0.093             :Rmf @ Measured Temperature
RMFT.DEGC     26.300            :MF temp @ Surface
RMC .OHMM     0.140             :RMC @ Measured Temperature
RMCT.DEGC     26.500            :MC temp @ Surface
MFSS.         Calculated        :Source Rmf
MCSS.         Pressed           :Source Rmc
RMB .OHMM     0.049             :Rm @ BHT
MST .DEGC     100.000           :Rm temp @ Bottom
RMFB.OHMM     0.037             :Rmf @ BHT
MFST.DEGC     100.000           :Rmf temp @ Bottom
RMCB.OHMM     0.060             :Rmc @ BHT
MCST.DEGC     100.000           :Rmc temp @ Bottom
TCS .         202000            :Time Since Circulation
DCS .         03-Mar-2012       :Date circ. stopped
TLAB.         063203            :Tool on Bottom
DLAB.         05-Mar-2012       :Date logger at btm
SHT .DEGC     16.000            :Surface hole temp
BHT .DEGC     41.600            :Bottom Hole Temperature
LUN .         2268              :Equipment No.
LUL .         NZNP              :Base Location
LCC .         440               :Logging Company ID
ENGI.         Jessica Riese     :Recorded By
WITN.         Graeme Timmis     :Witnessed By

~Other Information
Cheal A10_RUN2:
Log objective: Log PEX-HRLA-BHC-SP in 8.5" open hole section.
TD not tagged, lowest depth reached was 1388m.
Toolstring run with bowspring and 7x 1.5" standoffs as per toolsketch.
Log spliced between 1299-1321m
All wellsite data provided by client.
Maximum recorded temperature was 40.6degC recorded by head thermometers.

#
# --- LOG MNEMONICS ---
#
#Depth    
#DT         ECGR       GR         NPHI       NPOR       TNPH       TENS      
#BS         SP         EHGR       HGR        HTNP       HDRA       RHOZ      
#RLA0       RM_HRLT    RLA5       RT_HRLT    RLA3       RXO_HRLT   RXO8      
#RHO8       PEF8       RSO8       PEFZ       RSOZ       RLA4       RLA2      
#RXOZ       DSO8       RLA1       HCAL      
#
# --- LOG UNITS ---
#
#M        
#US/F       API        API        V/V        V/V        V/V        lbf       
#INCH       MV         API        API        V/V        G/CC       G/CC      
#OHMM       OHMM       OHMM       OHMM       OHMM       OHMM       OHMM      
#G/CC       B/E        INCH       B/E        INCH       OHMM       OHMM      
#OHMM       INCH       OHMM       INCH      

~A
# ...
   485.699
    127.531    111.517    113.556      0.387      0.416      0.415   1347.562
      8.500    -91.277    114.189    116.276      0.406      0.003      2.191
      0.075      0.067     36.992     49.196     30.729      6.136      1.038
      2.203      2.632      0.107      2.679      0.108     33.242     26.153
      1.087      0.052     15.915      8.087
   485.851
    127.004    111.878    113.886      0.368      0.399      0.405   1345.867
      8.500    -90.900    115.811    117.889      0.433      0.000      2.200
      0.075      0.068     37.131     49.469     30.463      5.821      1.194
      2.215      2.676      0.083      2.679      0.083     33.348     26.015
      1.097     -0.016     15.428      8.164
   486.004
    123.928    106.712    108.842      0.375      0.385      0.387   1343.938
      8.500    -90.398    108.336    110.499      0.387     -0.003      2.202
      0.075      0.067     31.388     41.624     25.594      4.993      1.012
      2.227      2.658      0.059      2.711      0.062     28.181     22.157
      1.115     -0.003     13.201      8.217
   486.156
    124.427    104.699    106.614      0.376      0.398      0.398   1367.467
      8.500    -89.792    100.826    102.669      0.404     -0.006      2.189
      0.072      0.065     55.510     74.288     43.606      3.938      1.027
      2.222      2.745      0.035      2.721      0.045     49.259     34.307
      0.965     -0.026     15.090      8.156
   486.308
    124.239    103.569    105.220      0.386      0.397      0.404   1369.467
      8.500    -89.625    106.167    107.860      0.392     -0.007      2.171
      0.069      0.065     64.075     85.545     50.732      4.162      0.831
      2.136      2.738      0.037      2.692      0.042     56.801     39.303
      0.888      0.085     16.837      8.202
   486.461
    125.144    100.193    100.411      0.368      0.415      0.418   1382.933
      8.500    -89.817     99.725     99.941      0.403     -0.006      2.159
      0.065      0.066     71.373     93.271     56.592      3.146      0.831
      2.151      2.543      0.045      2.647      0.043     63.088     43.238
      0.848      0.046     15.984      8.317
   486.613
    125.247     99.548     98.065      0.384      0.409      0.397   1411.533
      8.500    -90.414    100.739     99.238      0.405     -0.004      2.158
      0.064      0.067     78.979    101.969     62.918      2.902      0.904
      2.161      2.612      0.053      2.621      0.053     69.535     48.557
      0.878      0.027     16.341      8.877
   486.766
    124.966    101.669     99.825      0.370      0.408      0.410   1393.375
      8.500    -90.883     97.786     96.013      0.413     -0.003      2.159
      0.063      0.069     76.553     99.856     61.724      3.582      0.888
      2.162      2.628      0.061      2.617      0.059     67.744     48.478
      0.905      0.012     17.648      9.019
   486.918
    124.720    104.390    102.288      0.420      0.401      0.388   1408.000
      8.500    -91.529    103.074    100.998      0.403     -0.001      2.163
      0.063      0.070     67.439     90.769     54.437      5.974      0.911
      2.156      2.595      0.065      2.651      0.075     59.673     43.360
      0.906     -0.029     19.140      9.092
   487.070
    124.183    109.518    107.852      0.432      0.445      0.435   1421.333
      8.500    -92.422    108.275    106.628      0.421     -0.001      2.175
      0.066      0.069     44.657     59.328     36.741      6.538      0.924
      2.163      2.688      0.116      2.709      0.101     39.736     31.221
      1.017      0.058     17.495      8.996
   487.223
    123.625    113.311    112.545      0.458      0.456      0.439   1361.000
      8.500    -93.296    108.712    107.977      0.427      0.000      2.207
      0.069      0.070     33.068     43.441     27.557      5.991      1.285
      2.226      2.776      0.120      2.770      0.100     29.527     24.467
      1.194      0.006     14.898      8.927
   487.375
    122.631    113.179    114.422      0.419      0.449      0.471   1368.600
      8.500    -93.633    119.046    120.353      0.473      0.000      2.243
      0.075      0.069     25.735     32.594     21.714      7.131      1.553
      2.266      2.883      0.062      2.823      0.080     22.959     19.721
      1.495      0.014     14.281      8.509
   487.528
    121.935    110.406    111.673      0.397      0.413      0.433   1386.133
      8.500    -93.949    118.988    120.353      0.443     -0.001      2.250
      0.076      0.069     37.289     48.478     31.374      7.370      1.633
      2.281      2.912      0.062      2.885      0.060     33.218     27.973
      1.549      0.001     17.899      8.302
   487.680
    122.968    103.180    104.517      0.385      0.430      0.426   1371.188
      8.500    -93.925     99.474    100.763      0.428     -0.003      2.234
      0.074      0.068     42.753     56.338     35.951      6.464      1.385
      2.257      2.923      0.052      2.915      0.053     38.227     31.505
      1.275     -0.039     18.337      8.306
   487.832
    122.395    105.365    107.098      0.398      0.417      0.407   1333.333
      8.500    -93.667    104.471    106.189      0.415     -0.004      2.221
      0.074      0.069     31.979     41.807     27.233      6.162      0.961
      2.149      2.786      0.042      2.884      0.053     28.914     24.376
      1.102      0.104     15.495      8.279
   487.985
    123.739    106.136    107.757      0.376      0.423      0.418   1353.800
      8.500    -93.660    106.179    107.801      0.423     -0.003      2.229
      0.074      0.069     40.316     53.485     34.579      5.895      1.109
      2.244      2.757      0.065      2.825      0.058     36.775     30.118
      1.131     -0.003     17.505      8.225
   488.137
    123.233    112.834    113.740      0.367      0.369      0.391   1341.875
      8.500    -93.358    106.478    107.332      0.411     -0.001      2.243
      0.074      0.070     44.397     59.936     38.435      5.862      1.526
      2.272      2.854      0.054      2.778      0.060     40.661     31.742
      1.186     -0.014     17.874      8.294
   488.290
    122.612    112.737    113.975      0.372      0.399      0.394   1354.600
      8.500    -93.221    114.463    115.719      0.387      0.001      2.240
      0.076      0.070     32.592     43.947     28.712      5.507      1.108
      2.232      2.702      0.060      2.760      0.064     30.066     23.619
      1.283      0.024     14.694      8.348
   488.442
    124.396    116.533    118.043      0.390      0.407      0.394   1388.267
      8.500    -93.051    112.908    114.371      0.382      0.001      2.222
      0.075      0.070     37.490     50.794     32.716      5.272      1.345
      2.237      2.823      0.077      2.748      0.063     34.735     27.068
      1.143     -0.019     15.613      8.271
   488.594
    124.306    116.612    118.278      0.400      0.412      0.405   1365.500
      8.500    -93.037    119.236    120.939      0.401     -0.001      2.196
      0.073      0.068     37.932     51.113     32.400      5.745      1.067
      2.167      2.740      0.054      2.752      0.060     35.126     27.598
      1.085     -0.034     16.172      8.248
   488.747
    124.560    118.786    120.858      0.390      0.402      0.408   1348.533
      8.500    -93.508    115.868    117.889      0.411     -0.001      2.191
      0.074      0.068     37.955     50.666     32.417      5.431      0.898
      2.186      2.596      0.055      2.776      0.054     35.202     28.323
      1.045      0.042     16.332      8.225
   488.899
    124.844    114.715    116.716      0.386      0.412      0.398   1324.688
      8.500    -94.221    118.635    120.705      0.401      0.006      2.217
      0.074      0.068     43.795     58.319     37.644      5.210      1.271
      2.240      2.840      0.062      2.832      0.077     40.768     33.024
      1.178     -0.001     17.938      8.187
