~Version Information
VERS.                     2.0: CWLS log ASCII Standard Version 2.00
WRAP.                     YES: Multiple lines per depth step

~Well Information Block
#MNEM.UNIT                 Value                       Information
#------------              -----                       -----------
STRT.M                      83.363                    :START
STOP.M                    1576.273                    :STOP
STEP.M                       0.152                    :STEP
NULL.                     -999.25                     :NULL VALUE
COMP.         TAG Oil                                 :Company
WELL.         Cheal-A10                               :Well
FLD .                                                 :Field Name
LOC .         Geodetic Datum 2000                     :Location
PROV.                                                 :Province
CNTY.         Taranaki                                :County
STATE.                                                 :State
CTRY.         New Zealand                             :Country
DATE.                                                 :Log Date
SRVC.                                                 :Service Company
UWI .                                                 :Unique Well Identifier
API .                                                 :API Number
FL1 .         5639460.731                             :Field Loc. 1 / Northing
FL2 .         1712320.438                             :Field Loc. 2 / Easting
LATI.         039 23' 13.335" N    DMS                :Latitude
LONG.         174 18' 15.262" E    DMS                :Longtitude
PD  .         MSL                                     :Permanent Datum
EPD .M             0.000                              :Elevation
EDF .M           269.800                              :Elevations D.F.
EGL .M           264.650                              :Elevations G.L.
ELZ .M           269.800                              :Elev. Log Zero
APD .M           269.800                              :Above Permanent Datum
LMF .         DF                                      :Log Measured From

~Curve Information
#MNEM   .UNIT             API CODE Curve Description
#------------             -------- -----------------
DEPT    .M            00 001 00 00:   0  Depth
DT      .US/F         60 520 32 01:  22  Delta-T (also called Slowness or Interval Transit Time)
ECGR    .API          30 150 01 01:  23  Environmentally Corrected Gamma Ray
GR      .API          30 150 01 01:  24  Gamma Ray
NPHI    .V/V          42 890 01 01:  25  Thermal Neutron Porosity (original Ratio Method) in Selected Lithology
NPOR    .V/V          42 890 01 01:  26  Enhanced Thermal Neutron Porosity in Selected Lithology
TNPH    .V/V          42 890 01 01:  27  Thermal Neutron Porosity (Ratio Method) in Selected Lithology
TENS    .lbf          84 635 11 01:  28  Cable Tension
BS      .INCH         00 000 00 00:  29  Bit Size
SP      .MV           05 010 01 01:  30  Spontaneous Potential
EHGR    .API          00 000 00 00:  31  High Resolution Corrected Gamma Ray
HGR     .API          30 150 01 01:  32  High Resolution Gamma Ray
HTNP    .V/V          00 000 00 00:  33  High Resolution Thermal Neutron Porosity (Ratio Method) in Selected Lithology
HDRA    .G/CC         45 356 01 01:  34  Density Standoff Correction
RHOZ    .G/CC         45 350 01 01:  35  Standard Resolution Formation Density
RLA0    .OHMM         00 000 00 00:  36  Apparent Resistivity from Computed Focusing Mode 0
RM_HRLT .OHMM         00 000 00 00:  37  HRLT Computed Mud Resistivity
RLA5    .OHMM         00 000 00 00:  38  Apparent Resistivity from Computed Focusing Mode 5
RT_HRLT .OHMM         00 000 00 00:  39  HRLT True Formation Resistivity
RLA3    .OHMM         00 000 00 00:  40  Apparent Resistivity from Computed Focusing Mode 3
RXO_HRLT.OHMM         00 000 00 00:  41  HRLT Invaded Zone Resistivity
RXO8    .OHMM         00 000 00 00:  42  Invaded Formation Resistivity filtered at 8 inches
RHO8    .G/CC         45 350 01 01:  43  High Resolution Formation Density
PEF8    .B/E          00 000 00 00:  44  High Resolution Formation Photoelectric Factor
RSO8    .INCH         00 000 00 00:  45  Resistivity Standoff High Resolution
PEFZ    .B/E          45 358 01 01:  46  Standard Resolution Formation Photoelectric Factor
RSOZ    .INCH         00 000 00 00:  47  Resistivity Standoff Standard Resolution
RLA4    .OHMM         00 000 00 00:  48  Apparent Resistivity from Computed Focusing Mode 4
RLA2    .OHMM         00 000 00 00:  49  Apparent Resistivity from Computed Focusing Mode 2
RXOZ    .OHMM         00 000 00 00:  50  Invaded Formation Resistivity filtered at 18 inches
DSO8    .INCH         00 000 00 00:  51  High Resolution Density Standoff
RLA1    .OHMM         95 220 00 01:  52  Apparent Resistivity from Computed Focusing Mode 1
HCAL    .INCH         70 280 00 01:  53  HRCC Caliper Calibrated

~Parameter Information
#MNEM.UNIT       Value           Description
#------------    -----           -----------
RUN .         1                 :Run Number
DATE.         03-Mar-2012       :Date
TDD .M        1577.000          :Depth Driller
TDL .M        1388.000          :Depth Logger
BLI .M        108.890           :First Reading
TLI .M        1392.940          :Last Reading
CBD .M        277.000           :Casing Driller
CBL .M        278.000           :Casing Logger
CS  .IN       9.625             :Casing Size
CW1 .LBCF     47.000            :Casing Weight
BS  .IN       8.500             :Bit Size
BSDF.M        208.500           :Bit Size Depth From
BSDT.M        1577.000          :Bit Size Depth To
DFT .         Water             :Hole Fluid Type
DFD .G/C3     1.108             :Density
DFV .SEC      61.000            :Viscosity
DFPH.         9.5               :pH
DFL .C3       6.000             :Fluid Loss
MSS .         Active Tank       :Sample Source
RM  .OHMM     0.124             :Rm @ Measured Temperature
RMT .DEGC     26.300            :Mud temp @ Surface
RMF .OHMM     0.093             :Rmf @ Measured Temperature
RMFT.DEGC     26.300            :MF temp @ Surface
RMC .OHMM     0.140             :RMC @ Measured Temperature
RMCT.DEGC     26.500            :MC temp @ Surface
MFSS.         Calculated        :Source Rmf
MCSS.         Pressed           :Source Rmc
RMB .OHMM     0.049             :Rm @ BHT
MST .DEGC     100.000           :Rm temp @ Bottom
RMFB.OHMM     0.037             :Rmf @ BHT
MFST.DEGC     100.000           :Rmf temp @ Bottom
RMCB.OHMM     0.060             :Rmc @ BHT
MCST.DEGC     100.000           :Rmc temp @ Bottom
TCS .         202000            :Time Since Circulation
DCS .         03-Mar-2012       :Date circ. stopped
TLAB.         004411            :Tool on Bottom
DLAB.         04-Mar-2012       :Date logger at btm
BHT .DEGC     40.630            :Bottom Hole Temperature
LUN .         2268              :Equipment No.
LUL .         NZNP              :Base Location
LCC .         440               :Logging Company ID
ENGI.         Jessica Riese     :Recorded By
WITN.         Graeme Timmis     :Witnessed By
RUN .         2                 :Run Number
DATE.         04-Mar-2012       :Date
TDD .M        1577.000          :Depth Driller
TDL .M        1574.000          :Depth Logger
BLI .M        108.890           :First Reading
TLI .M        1576.340          :Last Reading
CBD .M        277.000           :Casing Driller
CBL .M        278.000           :Casing Logger
CS  .IN       9.625             :Casing Size
CW1 .LB/FT    47.000            :Casing Weight
BS  .IN       8.500             :Bit Size
BSDF.M        208.500           :Bit Size Depth From
BSDT.M        1577.000          :Bit Size Depth To
DFT .         Water             :Hole Fluid Type
DFD .G/C3     1.108             :Density
DFV .SEC      61.000            :Viscosity
DFPH.         9.5               :pH
DFL .C3       6.000             :Fluid Loss
MSS .         Active Tank       :Sample Source
RM  .OHMM     0.124             :Rm @ Measured Temperature
RMT .DEGC     26.300            :Mud temp @ Surface
RMF .OHMM     0.093             :Rmf @ Measured Temperature
RMFT.DEGC     26.300            :MF temp @ Surface
RMC .OHMM     0.140             :RMC @ Measured Temperature
RMCT.DEGC     26.500            :MC temp @ Surface
MFSS.         Calculated        :Source Rmf
MCSS.         Pressed           :Source Rmc
RMB .OHMM     0.049             :Rm @ BHT
MST .DEGC     100.000           :Rm temp @ Bottom
RMFB.OHMM     0.037             :Rmf @ BHT
MFST.DEGC     100.000           :Rmf temp @ Bottom
RMCB.OHMM     0.060             :Rmc @ BHT
MCST.DEGC     100.000           :Rmc temp @ Bottom
TCS .         202000            :Time Since Circulation
DCS .         03-Mar-2012       :Date circ. stopped
TLAB.         063203            :Tool on Bottom
DLAB.         05-Mar-2012       :Date logger at btm
SHT .DEGC     16.000            :Surface hole temp
BHT .DEGC     41.600            :Bottom Hole Temperature
LUN .         2268              :Equipment No.
LUL .         NZNP              :Base Location
LCC .         440               :Logging Company ID
ENGI.         Jessica Riese     :Recorded By
WITN.         Graeme Timmis     :Witnessed By

~Other Information
Cheal A10_RUN2:
Log objective: Log PEX-HRLA-BHC-SP in 8.5" open hole section.
TD not tagged, lowest depth reached was 1388m.
Toolstring run with bowspring and 7x 1.5" standoffs as per toolsketch.
Log spliced between 1299-1321m
All wellsite data provided by client.
Maximum recorded temperature was 40.6degC recorded by head thermometers.

#
# --- LOG MNEMONICS ---
#
#Depth    
#DT         ECGR       GR         NPHI       NPOR       TNPH       TENS      
#BS         SP         EHGR       HGR        HTNP       HDRA       RHOZ      
#RLA0       RM_HRLT    RLA5       RT_HRLT    RLA3       RXO_HRLT   RXO8      
#RHO8       PEF8       RSO8       PEFZ       RSOZ       RLA4       RLA2      
#RXOZ       DSO8       RLA1       HCAL      
#
# --- LOG UNITS ---
#
#M        
#US/F       API        API        V/V        V/V        V/V        lbf       
#INCH       MV         API        API        V/V        G/CC       G/CC      
#OHMM       OHMM       OHMM       OHMM       OHMM       OHMM       OHMM      
#G/CC       B/E        INCH       B/E        INCH       OHMM       OHMM      
#OHMM       INCH       OHMM       INCH      

~A
# ...
   874.624
    105.106    119.578    119.781      0.357      0.372      0.348   1803.467
      8.500   -118.175    119.447    119.649      0.345      0.037      2.345
      0.070      0.070     16.019     19.669     14.329      6.464      2.334
      2.349      3.080      0.102      3.018      0.107     15.121     13.234
      2.133      0.078     10.971      8.513
   874.776
    105.936    124.004    123.283      0.353      0.374      0.386   1798.133
      8.500   -118.071    127.252    126.512      0.368      0.047      2.356
      0.070      0.071     13.263     16.036     11.915      5.858      1.913
      2.360      3.075      0.118      3.030      0.111     12.508     10.999
      2.092      0.140      9.418      8.708
   874.928
    107.271    120.073    119.412      0.354      0.379      0.395   1801.800
      8.500   -118.042    119.249    118.593      0.394      0.047      2.363
      0.069      0.071     15.547     19.014     13.880      6.410      2.128
      2.397      2.949      0.109      3.004      0.108     14.591     12.687
      2.057      0.151     10.675      8.731
   875.081
    106.375    119.753    118.811      0.329      0.407      0.405   1811.867
      8.500   -117.783    120.953    120.001      0.403      0.035      2.359
      0.068      0.071     13.753     16.436     12.329      6.222      2.226
      2.344      2.967      0.094      2.959      0.097     12.910     11.345
      2.154      0.056      9.914      8.789
   875.233
    106.190    118.752    117.537      0.338      0.397      0.373   1844.467
      8.500   -117.674    118.040    116.833      0.384      0.021      2.348
      0.067      0.070     12.220     14.382     10.999      5.957      2.032
      2.331      2.852      0.092      2.931      0.090     11.470     10.222
      2.131      0.053      9.089      8.777
   875.386
    109.292    118.988    117.772      0.329      0.358      0.374   1793.867
      8.500   -117.508    119.818    118.592      0.368      0.011      2.336
      0.067      0.070     15.944     19.196     14.358      7.041      2.148
      2.315      2.949      0.087      2.931      0.088     14.953     13.250
      2.134      0.010     11.346      8.854
   875.538
    105.432    124.322    123.050      0.338      0.366      0.366   1829.867
      8.500   -117.017    112.708    111.555      0.361      0.009      2.335
      0.067      0.070     16.924     20.395     15.320      7.417      2.313
      2.347      3.028      0.083      2.952      0.088     15.898     14.123
      2.292      0.034     12.068      8.862
   875.690
    105.790    127.233    125.396      0.325      0.396      0.373   1876.400
      8.500   -116.617    139.610    137.595      0.363      0.009      2.337
      0.066      0.070     15.870     19.061     14.374      7.088      2.410
      2.344      2.990      0.094      2.955      0.092     14.895     13.230
      2.342      0.058     11.398      8.846
   875.843
    106.665    128.711    127.273      0.334      0.352      0.348   1806.333
      8.500   -116.679    124.914    123.520      0.358      0.008      2.341
      0.067      0.070     16.429     19.817     14.814      7.230      2.408
      2.357      2.891      0.091      2.921      0.090     15.399     13.690
      2.450      0.058     11.659      8.881
   875.995
    112.675    124.518    123.754      0.320      0.332      0.358   1876.500
      8.500   -116.808    123.929    123.169      0.362      0.003      2.332
      0.068      0.069     17.839     21.508     15.946      7.809      2.533
      2.342      2.895      0.079      2.896      0.089     16.715     14.593
      2.414     -0.011     12.598      8.800
   876.148
    105.957    120.703    120.001      0.321      0.363      0.362   1852.375
      8.500   -116.422    127.074    126.334      0.368      0.000      2.323
      0.067      0.068     17.312     20.518     15.372      8.089      2.285
      2.326      2.838      0.098      2.880      0.092     16.224     14.012
      2.297     -0.006     12.613      8.731
   876.300
    106.312    120.700    119.883      0.300      0.359      0.371   1825.467
      8.500   -115.800    119.046    118.241      0.362      0.002      2.321
      0.066      0.069     15.978     18.798     14.143      7.704      2.074
      2.307      2.906      0.101      2.898      0.099     14.999     12.928
      2.199      0.003     11.812      8.747
   876.452
    100.432    118.720    116.951      0.330      0.356      0.344   1822.267
      8.500   -115.397    120.387    118.593      0.344      0.005      2.324
      0.065      0.069     15.114     17.853     13.289      7.136      2.175
      2.327      2.970      0.098      2.895      0.100     14.146     12.172
      2.106      0.033     11.012      8.869
   876.605
     93.517    120.296    118.784      0.346      0.385      0.371   1804.143
      8.500   -115.125    119.746    118.241      0.370      0.010      2.335
      0.066      0.069     16.833     20.081     14.764      7.560      2.098
      2.355      2.851      0.097      2.904      0.092     15.719     13.583
      2.145      0.075     11.971      8.938
   876.757
     94.819    114.908    114.167      0.359      0.384      0.376   1813.867
      8.500   -115.004    112.988    112.259      0.386      0.011      2.343
      0.067      0.069     17.726     21.011     15.668      8.104      2.170
      2.344      2.858      0.069      2.910      0.083     16.488     14.480
      2.193      0.030     12.758      8.766
   876.910
     96.579    113.255    112.525      0.332      0.381      0.391   1827.533
      8.500   -114.875    111.128    110.411      0.397      0.011      2.345
      0.067      0.068     18.712     22.229     16.603      8.388      2.440
      2.342      2.885      0.074      2.926      0.079     17.317     15.295
      2.380      0.027     13.365      8.731
   877.062
    103.068    113.998    113.155      0.324      0.352      0.366   1819.200
      8.500   -114.317    114.778    113.929      0.364      0.007      2.344
      0.068      0.068     18.439     21.806     16.433      8.387      2.614
      2.335      2.979      0.094      2.941      0.086     17.033     15.176
      2.551      0.051     13.290      8.812
   877.214
    103.606    116.784    116.365      0.330      0.377      0.369   1803.467
      8.500   -113.675    120.140    119.708      0.367      0.005      2.347
      0.068      0.069     17.593     20.816     15.675      7.989      2.630
      2.350      2.922      0.090      2.960      0.093     16.227     14.498
      2.506      0.042     12.666      8.716
   877.367
    102.571    119.842    119.297      0.337      0.372      0.370   1843.267
      8.500   -112.825    118.251    117.713      0.366      0.005      2.353
      0.067      0.069     15.092     17.750     13.375      6.959      2.354
      2.351      3.027      0.092      2.969      0.094     13.912     12.402
      2.374      0.043     10.938      8.685
   877.519
    102.465    117.671    116.247      0.330      0.375      0.372   1831.800
      8.500   -112.233    118.264    116.833      0.379      0.006      2.345
      0.066      0.069     12.683     14.568     11.265      6.540      2.247
      2.327      2.919      0.106      2.951      0.099     11.708     10.559
      2.376      0.017      9.620      8.808
   877.672
    103.200    116.695    114.957      0.330      0.365      0.368   1847.734
      8.500   -111.983    116.994    115.251      0.371      0.009      2.341
      0.065      0.070     17.856     21.208     15.661      7.984      2.584
      2.346      2.915      0.102      2.951      0.098     16.478     14.467
      2.475      0.033     12.656      8.938
   877.824
    104.258    116.551    114.027      0.335      0.352      0.371   1809.667
      8.500   -111.575    116.542    114.018      0.364      0.016      2.342
      0.063      0.070     15.990     18.684     13.992      7.570      2.530
      2.370      3.065      0.088      2.962      0.087     14.819     12.988
      2.471      0.083     11.723      9.053
