~Version Information
VERS.                     2.0: CWLS log ASCII Standard Version 2.00
WRAP.                     YES: Multiple lines per depth step

~Well Information Block
#MNEM.UNIT                 Value                       Information
#------------              -----                       -----------
STRT.M                      83.363                    :START
STOP.M                    1576.273                    :STOP
STEP.M                       0.152                    :STEP
NULL.                     -999.25                     :NULL VALUE
COMP.         TAG Oil                                 :Company
WELL.         Cheal-A10                               :Well
FLD .                                                 :Field Name
LOC .         Geodetic Datum 2000                     :Location
PROV.                                                 :Province
CNTY.         Taranaki                                :County
STATE.                                                 :State
CTRY.         New Zealand                             :Country
DATE.                                                 :Log Date
SRVC.                                                 :Service Company
UWI .                                                 :Unique Well Identifier
API .                                                 :API Number
FL1 .         5639460.731                             :Field Loc. 1 / Northing
FL2 .         1712320.438                             :Field Loc. 2 / Easting
LATI.         039 23' 13.335" N    DMS                :Latitude
LONG.         174 18' 15.262" E    DMS                :Longtitude
PD  .         MSL                                     :Permanent Datum
EPD .M             0.000                              :Elevation
EDF .M           269.800                              :Elevations D.F.
EGL .M           264.650                              :Elevations G.L.
ELZ .M           269.800                              :Elev. Log Zero
APD .M           269.800                              :Above Permanent Datum
LMF .         DF                                      :Log Measured From

~Curve Information
#MNEM   .UNIT             API CODE Curve Description
#------------             -------- -----------------
DEPT    .M            00 001 00 00:   0  Depth
DT      .US/F         60 520 32 01:  22  Delta-T (also called Slowness or Interval Transit Time)
ECGR    .API          30 150 01 01:  23  Environmentally Corrected Gamma Ray
GR      .API          30 150 01 01:  24  Gamma Ray
NPHI    .V/V          42 890 01 01:  25  Thermal Neutron Porosity (original Ratio Method) in Selected Lithology
NPOR    .V/V          42 890 01 01:  26  Enhanced Thermal Neutron Porosity in Selected Lithology
TNPH    .V/V          42 890 01 01:  27  Thermal Neutron Porosity (Ratio Method) in Selected Lithology
TENS    .lbf          84 635 11 01:  28  Cable Tension
BS      .INCH         00 000 00 00:  29  Bit Size
SP      .MV           05 010 01 01:  30  Spontaneous Potential
EHGR    .API          00 000 00 00:  31  High Resolution Corrected Gamma Ray
HGR     .API          30 150 01 01:  32  High Resolution Gamma Ray
HTNP    .V/V          00 000 00 00:  33  High Resolution Thermal Neutron Porosity (Ratio Method) in Selected Lithology
HDRA    .G/CC         45 356 01 01:  34  Density Standoff Correction
RHOZ    .G/CC         45 350 01 01:  35  Standard Resolution Formation Density
RLA0    .OHMM         00 000 00 00:  36  Apparent Resistivity from Computed Focusing Mode 0
RM_HRLT .OHMM         00 000 00 00:  37  HRLT Computed Mud Resistivity
RLA5    .OHMM         00 000 00 00:  38  Apparent Resistivity from Computed Focusing Mode 5
RT_HRLT .OHMM         00 000 00 00:  39  HRLT True Formation Resistivity
RLA3    .OHMM         00 000 00 00:  40  Apparent Resistivity from Computed Focusing Mode 3
RXO_HRLT.OHMM         00 000 00 00:  41  HRLT Invaded Zone Resistivity
RXO8    .OHMM         00 000 00 00:  42  Invaded Formation Resistivity filtered at 8 inches
RHO8    .G/CC         45 350 01 01:  43  High Resolution Formation Density
PEF8    .B/E          00 000 00 00:  44  High Resolution Formation Photoelectric Factor
RSO8    .INCH         00 000 00 00:  45  Resistivity Standoff High Resolution
PEFZ    .B/E          45 358 01 01:  46  Standard Resolution Formation Photoelectric Factor
RSOZ    .INCH         00 000 00 00:  47  Resistivity Standoff Standard Resolution
RLA4    .OHMM         00 000 00 00:  48  Apparent Resistivity from Computed Focusing Mode 4
RLA2    .OHMM         00 000 00 00:  49  Apparent Resistivity from Computed Focusing Mode 2
RXOZ    .OHMM         00 000 00 00:  50  Invaded Formation Resistivity filtered at 18 inches
DSO8    .INCH         00 000 00 00:  51  High Resolution Density Standoff
RLA1    .OHMM         95 220 00 01:  52  Apparent Resistivity from Computed Focusing Mode 1
HCAL    .INCH         70 280 00 01:  53  HRCC Caliper Calibrated

~Parameter Information
#MNEM.UNIT       Value           Description
#------------    -----           -----------
RUN .         1                 :Run Number
DATE.         03-Mar-2012       :Date
TDD .M        1577.000          :Depth Driller
TDL .M        1388.000          :Depth Logger
BLI .M        108.890           :First Reading
TLI .M        1392.940          :Last Reading
CBD .M        277.000           :Casing Driller
CBL .M        278.000           :Casing Logger
CS  .IN       9.625             :Casing Size
CW1 .LBCF     47.000            :Casing Weight
BS  .IN       8.500             :Bit Size
BSDF.M        208.500           :Bit Size Depth From
BSDT.M        1577.000          :Bit Size Depth To
DFT .         Water             :Hole Fluid Type
DFD .G/C3     1.108             :Density
DFV .SEC      61.000            :Viscosity
DFPH.         9.5               :pH
DFL .C3       6.000             :Fluid Loss
MSS .         Active Tank       :Sample Source
RM  .OHMM     0.124             :Rm @ Measured Temperature
RMT .DEGC     26.300            :Mud temp @ Surface
RMF .OHMM     0.093             :Rmf @ Measured Temperature
RMFT.DEGC     26.300            :MF temp @ Surface
RMC .OHMM     0.140             :RMC @ Measured Temperature
RMCT.DEGC     26.500            :MC temp @ Surface
MFSS.         Calculated        :Source Rmf
MCSS.         Pressed           :Source Rmc
RMB .OHMM     0.049             :Rm @ BHT
MST .DEGC     100.000           :Rm temp @ Bottom
RMFB.OHMM     0.037             :Rmf @ BHT
MFST.DEGC     100.000           :Rmf temp @ Bottom
RMCB.OHMM     0.060             :Rmc @ BHT
MCST.DEGC     100.000           :Rmc temp @ Bottom
TCS .         202000            :Time Since Circulation
DCS .         03-Mar-2012       :Date circ. stopped
TLAB.         004411            :Tool on Bottom
DLAB.         04-Mar-2012       :Date logger at btm
BHT .DEGC     40.630            :Bottom Hole Temperature
LUN .         2268              :Equipment No.
LUL .         NZNP              :Base Location
LCC .         440               :Logging Company ID
ENGI.         Jessica Riese     :Recorded By
WITN.         Graeme Timmis     :Witnessed By
RUN .         2                 :Run Number
DATE.         04-Mar-2012       :Date
TDD .M        1577.000          :Depth Driller
TDL .M        1574.000          :Depth Logger
BLI .M        108.890           :First Reading
TLI .M        1576.340          :Last Reading
CBD .M        277.000           :Casing Driller
CBL .M        278.000           :Casing Logger
CS  .IN       9.625             :Casing Size
CW1 .LB/FT    47.000            :Casing Weight
BS  .IN       8.500             :Bit Size
BSDF.M        208.500           :Bit Size Depth From
BSDT.M        1577.000          :Bit Size Depth To
DFT .         Water             :Hole Fluid Type
DFD .G/C3     1.108             :Density
DFV .SEC      61.000            :Viscosity
DFPH.         9.5               :pH
DFL .C3       6.000             :Fluid Loss
MSS .         Active Tank       :Sample Source
RM  .OHMM     0.124             :Rm @ Measured Temperature
RMT .DEGC     26.300            :Mud temp @ Surface
RMF .OHMM     0.093             :Rmf @ Measured Temperature
RMFT.DEGC     26.300            :MF temp @ Surface
RMC .OHMM     0.140             :RMC @ Measured Temperature
RMCT.DEGC     26.500            :MC temp @ Surface
MFSS.         Calculated        :Source Rmf
MCSS.         Pressed           :Source Rmc
RMB .OHMM     0.049             :Rm @ BHT
MST .DEGC     100.000           :Rm temp @ Bottom
RMFB.OHMM     0.037             :Rmf @ BHT
MFST.DEGC     100.000           :Rmf temp @ Bottom
RMCB.OHMM     0.060             :Rmc @ BHT
MCST.DEGC     100.000           :Rmc temp @ Bottom
TCS .         202000            :Time Since Circulation
DCS .         03-Mar-2012       :Date circ. stopped
TLAB.         063203            :Tool on Bottom
DLAB.         05-Mar-2012       :Date logger at btm
SHT .DEGC     16.000            :Surface hole temp
BHT .DEGC     41.600            :Bottom Hole Temperature
LUN .         2268              :Equipment No.
LUL .         NZNP              :Base Location
LCC .         440               :Logging Company ID
ENGI.         Jessica Riese     :Recorded By
WITN.         Graeme Timmis     :Witnessed By

~Other Information
Cheal A10_RUN2:
Log objective: Log PEX-HRLA-BHC-SP in 8.5" open hole section.
TD not tagged, lowest depth reached was 1388m.
Toolstring run with bowspring and 7x 1.5" standoffs as per toolsketch.
Log spliced between 1299-1321m
All wellsite data provided by client.
Maximum recorded temperature was 40.6degC recorded by head thermometers.

#
# --- LOG MNEMONICS ---
#
#Depth    
#DT         ECGR       GR         NPHI       NPOR       TNPH       TENS      
#BS         SP         EHGR       HGR        HTNP       HDRA       RHOZ      
#RLA0       RM_HRLT    RLA5       RT_HRLT    RLA3       RXO_HRLT   RXO8      
#RHO8       PEF8       RSO8       PEFZ       RSOZ       RLA4       RLA2      
#RXOZ       DSO8       RLA1       HCAL      
#
# --- LOG UNITS ---
#
#M        
#US/F       API        API        V/V        V/V        V/V        lbf       
#INCH       MV         API        API        V/V        G/CC       G/CC      
#OHMM       OHMM       OHMM       OHMM       OHMM       OHMM       OHMM      
#G/CC       B/E        INCH       B/E        INCH       OHMM       OHMM      
#OHMM       INCH       OHMM       INCH      

~A
# ...
  1461.364
     94.985    126.480    128.324      0.311      0.389      0.368   2833.933
      8.500    -32.811    128.604    130.478      0.372      0.025      2.409
      0.086      0.086      3.588      3.849      3.375      2.227      2.602
      2.444      3.080      0.060      3.115      0.054      3.413      3.286
      2.415      0.099      3.109      8.241
  1461.516
     94.371    126.197    127.745      0.329      0.349      0.355   2814.688
      8.500    -33.252    119.036    120.496      0.361      0.026      2.417
      0.086      0.087      3.826      4.135      3.602      2.363      2.567
      2.399      3.194      0.063      3.166      0.063      3.632      3.504
      2.624      0.045      3.292      8.310
  1461.668
     94.661    127.966    129.408      0.329      0.365      0.381   2817.933
      8.500    -33.248    133.960    135.470      0.375      0.015      2.406
      0.087      0.088      3.755      4.039      3.520      2.334      2.566
      2.395      3.205      0.052      3.167      0.058      3.547      3.430
      2.684      0.011      3.231      8.333
  1461.821
     94.627    128.613    129.936      0.335      0.410      0.392   2795.000
      8.500    -33.392    127.737    129.051      0.386      0.007      2.394
      0.086      0.088      3.749      3.997      3.509      2.333      2.705
      2.384      3.137      0.038      3.155      0.046      3.536      3.413
      2.664     -0.001      3.250      8.356
  1461.973
     94.814    129.725    131.124      0.331      0.384      0.396   2772.438
      8.500    -33.461    125.735    127.091      0.395      0.009      2.393
      0.086      0.089      3.846      4.075      3.588      2.397      2.684
      2.416      3.114      0.045      3.173      0.056      3.618      3.477
      2.744      0.041      3.342      8.368
  1462.126
     95.020    126.383    127.559      0.327      0.391      0.393   2763.267
      8.500    -33.881    135.633    136.895      0.386      0.010      2.390
      0.088      0.091      3.874      4.092      3.601      2.419      2.784
      2.388      3.235      0.073      3.200      0.057      3.634      3.509
      2.649      0.031      3.371      8.345
  1462.278
     95.286    123.628    124.536      0.328      0.398      0.391   2814.938
      8.500    -33.990    120.325    121.209      0.396      0.014      2.392
      0.090      0.093      3.830      4.066      3.549      2.408      2.596
      2.371      3.216      0.056      3.235      0.063      3.582      3.470
      2.728      0.024      3.306      8.402
  1462.430
     95.505    124.922    125.962      0.320      0.388      0.388   2793.733
      8.500    -34.415    119.501    120.496      0.385      0.021      2.402
      0.093      0.094      4.110      4.426      3.790      2.570      2.808
      2.420      3.327      0.054      3.239      0.045      3.839      3.711
      2.722      0.074      3.489      8.402
  1462.583
     95.449    124.862    125.963      0.312      0.375      0.376   2729.000
      8.500    -34.396    132.872    134.043      0.390      0.029      2.419
      0.094      0.095      4.144      4.514      3.798      2.605      2.882
      2.423      3.189      0.038      3.217      0.058      3.878      3.728
      2.839      0.054      3.479      8.402
  1462.735
     95.044    121.835    122.969      0.303      0.361      0.365   2794.438
      8.500    -34.190    118.326    119.427      0.363      0.032      2.424
      0.092      0.096      3.807      4.100      3.490      2.347      2.714
      2.445      3.138      0.075      3.170      0.058      3.613      3.449
      2.660      0.064      3.257      8.402
  1462.888
     94.450    119.991    121.068      0.314      0.363      0.359   2784.067
      8.500    -33.830    119.777    120.853      0.365      0.035      2.423
      0.093      0.097      3.820      4.167      3.507      2.336      2.462
      2.410      3.072      0.071      3.141      0.079      3.671      3.433
      2.625      0.069      3.244      8.387
  1463.040
     94.815    123.257    123.682      0.325      0.361      0.373   2765.188
      8.500    -33.507    122.212    122.634      0.373      0.038      2.417
      0.092      0.098      4.099      4.578      3.764      2.493      2.819
      2.410      3.206      0.096      3.144      0.086      3.958      3.636
      2.756      0.072      3.417      8.456
  1463.192
     95.364    121.301    121.447      0.326      0.403      0.390   2858.333
      8.500    -32.832    127.118    127.270      0.381      0.051      2.418
      0.094      0.101      4.081      4.607      3.787      2.248      3.021
      2.395      3.108      0.122      3.180      0.120      3.977      3.613
      2.738      0.064      3.359      8.563
  1463.345
     95.518    121.219    121.209      0.342      0.396      0.388   2819.625
      8.500    -32.115    116.228    116.218      0.383      0.057      2.418
      0.096      0.103      3.698      4.280      3.500      2.010      2.509
      2.437      3.199      0.157      3.191      0.142      3.631      3.288
      2.710      0.134      2.994      8.632
  1463.497
     95.781    118.448    118.476      0.332      0.392      0.398   2802.067
      8.500    -31.740    125.814    125.844      0.392      0.059      2.422
      0.096      0.104      4.136      4.887      3.961      2.076      2.736
      2.463      3.298      0.135      3.165      0.111      4.076      3.681
      2.534      0.172      3.265      8.586
  1463.650
     95.519    122.460    121.826      0.346      0.394      0.385   2772.938
      8.500    -31.049    116.106    115.505      0.395      0.055      2.426
      0.094      0.104      3.948      4.669      3.827      1.957      2.535
      2.422      3.071      0.046      3.119      0.088      3.903      3.564
      2.609      0.081      3.134      8.700
  1463.802
     95.818    117.674    116.953      0.330      0.399      0.403   2769.467
      8.500    -30.557    127.635    126.854      0.398      0.044      2.408
      0.097      0.103      3.934      4.697      3.856      1.848      2.488
      2.428      3.034      0.083      3.071      0.054      3.899      3.621
      2.042      0.092      3.098      8.746
  1463.954
     96.689    112.207    113.032      0.355      0.385      0.394   2793.933
      8.500    -29.873    107.230    108.018      0.394      0.034      2.372
      0.095      0.102      2.716      3.164      2.693      1.408      1.402
      2.353      3.099      0.056      3.022      0.056      2.700      2.595
      1.395      0.047      2.240      8.494
  1464.107
     97.603    109.601    110.514      0.330      0.419      0.428   2750.688
      8.500    -28.878    106.773    107.662      0.418      0.021      2.323
      0.090      0.101      1.951      2.143      1.936      1.178      0.941
      2.294      2.916      0.018      2.938      0.031      1.938      1.895
      1.015      0.053      1.718      8.402
  1464.259
     98.654    106.867    108.019      0.345      0.416      0.399   2787.667
      8.500    -28.294    112.157    113.366      0.406      0.013      2.288
      0.088      0.097      1.835      1.982      1.817      1.140      0.869
      2.271      2.798      0.031      2.837      0.034      1.820      1.784
      0.879      0.023      1.638      8.333
  1464.412
     98.814    102.235    103.421      0.332      0.397      0.404   2794.467
      8.500    -28.432     99.731    100.888      0.407      0.011      2.285
      0.085      0.098      1.730      1.818      1.714      1.164      0.829
      2.280      2.669      0.045      2.802      0.047      1.717      1.690
      0.868      0.033      1.584      8.379
  1464.564
     97.391    104.065    105.204      0.339      0.403      0.389   2879.667
      8.500    -28.650     98.386     99.463      0.394      0.018      2.314
      0.087      0.098      1.764      1.888      1.747      1.131      0.987
      2.315      2.791      0.077      2.853      0.081      1.750      1.726
      1.036      0.074      1.588      8.333
