~Version Information
VERS.                     2.0: CWLS log ASCII Standard Version 2.00
WRAP.                     YES: Multiple lines per depth step

~Well Information Block
#MNEM.UNIT                 Value                       Information
#------------              -----                       -----------
STRT.M                      83.363                    :START
STOP.M                    1576.273                    :STOP
STEP.M                       0.152                    :STEP
NULL.                     -999.25                     :NULL VALUE
COMP.         TAG Oil                                 :Company
WELL.         Cheal-A10                               :Well
FLD .                                                 :Field Name
LOC .         Geodetic Datum 2000                     :Location
PROV.                                                 :Province
CNTY.         Taranaki                                :County
STATE.                                                 :State
CTRY.         New Zealand                             :Country
DATE.                                                 :Log Date
SRVC.                                                 :Service Company
UWI .                                                 :Unique Well Identifier
API .                                                 :API Number
FL1 .         5639460.731                             :Field Loc. 1 / Northing
FL2 .         1712320.438                             :Field Loc. 2 / Easting
LATI.         039 23' 13.335" N    DMS                :Latitude
LONG.         174 18' 15.262" E    DMS                :Longtitude
PD  .         MSL                                     :Permanent Datum
EPD .M             0.000                              :Elevation
EDF .M           269.800                              :Elevations D.F.
EGL .M           264.650                              :Elevations G.L.
ELZ .M           269.800                              :Elev. Log Zero
APD .M           269.800                              :Above Permanent Datum
LMF .         DF                                      :Log Measured From

~Curve Information
#MNEM   .UNIT             API CODE Curve Description
#------------             -------- -----------------
DEPT    .M            00 001 00 00:   0  Depth
DT      .US/F         60 520 32 01:  22  Delta-T (also called Slowness or Interval Transit Time)
ECGR    .API          30 150 01 01:  23  Environmentally Corrected Gamma Ray
GR      .API          30 150 01 01:  24  Gamma Ray
NPHI    .V/V          42 890 01 01:  25  Thermal Neutron Porosity (original Ratio Method) in Selected Lithology
NPOR    .V/V          42 890 01 01:  26  Enhanced Thermal Neutron Porosity in Selected Lithology
TNPH    .V/V          42 890 01 01:  27  Thermal Neutron Porosity (Ratio Method) in Selected Lithology
TENS    .lbf          84 635 11 01:  28  Cable Tension
BS      .INCH         00 000 00 00:  29  Bit Size
SP      .MV           05 010 01 01:  30  Spontaneous Potential
EHGR    .API          00 000 00 00:  31  High Resolution Corrected Gamma Ray
HGR     .API          30 150 01 01:  32  High Resolution Gamma Ray
HTNP    .V/V          00 000 00 00:  33  High Resolution Thermal Neutron Porosity (Ratio Method) in Selected Lithology
HDRA    .G/CC         45 356 01 01:  34  Density Standoff Correction
RHOZ    .G/CC         45 350 01 01:  35  Standard Resolution Formation Density
RLA0    .OHMM         00 000 00 00:  36  Apparent Resistivity from Computed Focusing Mode 0
RM_HRLT .OHMM         00 000 00 00:  37  HRLT Computed Mud Resistivity
RLA5    .OHMM         00 000 00 00:  38  Apparent Resistivity from Computed Focusing Mode 5
RT_HRLT .OHMM         00 000 00 00:  39  HRLT True Formation Resistivity
RLA3    .OHMM         00 000 00 00:  40  Apparent Resistivity from Computed Focusing Mode 3
RXO_HRLT.OHMM         00 000 00 00:  41  HRLT Invaded Zone Resistivity
RXO8    .OHMM         00 000 00 00:  42  Invaded Formation Resistivity filtered at 8 inches
RHO8    .G/CC         45 350 01 01:  43  High Resolution Formation Density
PEF8    .B/E          00 000 00 00:  44  High Resolution Formation Photoelectric Factor
RSO8    .INCH         00 000 00 00:  45  Resistivity Standoff High Resolution
PEFZ    .B/E          45 358 01 01:  46  Standard Resolution Formation Photoelectric Factor
RSOZ    .INCH         00 000 00 00:  47  Resistivity Standoff Standard Resolution
RLA4    .OHMM         00 000 00 00:  48  Apparent Resistivity from Computed Focusing Mode 4
RLA2    .OHMM         00 000 00 00:  49  Apparent Resistivity from Computed Focusing Mode 2
RXOZ    .OHMM         00 000 00 00:  50  Invaded Formation Resistivity filtered at 18 inches
DSO8    .INCH         00 000 00 00:  51  High Resolution Density Standoff
RLA1    .OHMM         95 220 00 01:  52  Apparent Resistivity from Computed Focusing Mode 1
HCAL    .INCH         70 280 00 01:  53  HRCC Caliper Calibrated

~Parameter Information
#MNEM.UNIT       Value           Description
#------------    -----           -----------
RUN .         1                 :Run Number
DATE.         03-Mar-2012       :Date
TDD .M        1577.000          :Depth Driller
TDL .M        1388.000          :Depth Logger
BLI .M        108.890           :First Reading
TLI .M        1392.940          :Last Reading
CBD .M        277.000           :Casing Driller
CBL .M        278.000           :Casing Logger
CS  .IN       9.625             :Casing Size
CW1 .LBCF     47.000            :Casing Weight
BS  .IN       8.500             :Bit Size
BSDF.M        208.500           :Bit Size Depth From
BSDT.M        1577.000          :Bit Size Depth To
DFT .         Water             :Hole Fluid Type
DFD .G/C3     1.108             :Density
DFV .SEC      61.000            :Viscosity
DFPH.         9.5               :pH
DFL .C3       6.000             :Fluid Loss
MSS .         Active Tank       :Sample Source
RM  .OHMM     0.124             :Rm @ Measured Temperature
RMT .DEGC     26.300            :Mud temp @ Surface
RMF .OHMM     0.093             :Rmf @ Measured Temperature
RMFT.DEGC     26.300            :MF temp @ Surface
RMC .OHMM     0.140             :RMC @ Measured Temperature
RMCT.DEGC     26.500            :MC temp @ Surface
MFSS.         Calculated        :Source Rmf
MCSS.         Pressed           :Source Rmc
RMB .OHMM     0.049             :Rm @ BHT
MST .DEGC     100.000           :Rm temp @ Bottom
RMFB.OHMM     0.037             :Rmf @ BHT
MFST.DEGC     100.000           :Rmf temp @ Bottom
RMCB.OHMM     0.060             :Rmc @ BHT
MCST.DEGC     100.000           :Rmc temp @ Bottom
TCS .         202000            :Time Since Circulation
DCS .         03-Mar-2012       :Date circ. stopped
TLAB.         004411            :Tool on Bottom
DLAB.         04-Mar-2012       :Date logger at btm
BHT .DEGC     40.630            :Bottom Hole Temperature
LUN .         2268              :Equipment No.
LUL .         NZNP              :Base Location
LCC .         440               :Logging Company ID
ENGI.         Jessica Riese     :Recorded By
WITN.         Graeme Timmis     :Witnessed By
RUN .         2                 :Run Number
DATE.         04-Mar-2012       :Date
TDD .M        1577.000          :Depth Driller
TDL .M        1574.000          :Depth Logger
BLI .M        108.890           :First Reading
TLI .M        1576.340          :Last Reading
CBD .M        277.000           :Casing Driller
CBL .M        278.000           :Casing Logger
CS  .IN       9.625             :Casing Size
CW1 .LB/FT    47.000            :Casing Weight
BS  .IN       8.500             :Bit Size
BSDF.M        208.500           :Bit Size Depth From
BSDT.M        1577.000          :Bit Size Depth To
DFT .         Water             :Hole Fluid Type
DFD .G/C3     1.108             :Density
DFV .SEC      61.000            :Viscosity
DFPH.         9.5               :pH
DFL .C3       6.000             :Fluid Loss
MSS .         Active Tank       :Sample Source
RM  .OHMM     0.124             :Rm @ Measured Temperature
RMT .DEGC     26.300            :Mud temp @ Surface
RMF .OHMM     0.093             :Rmf @ Measured Temperature
RMFT.DEGC     26.300            :MF temp @ Surface
RMC .OHMM     0.140             :RMC @ Measured Temperature
RMCT.DEGC     26.500            :MC temp @ Surface
MFSS.         Calculated        :Source Rmf
MCSS.         Pressed           :Source Rmc
RMB .OHMM     0.049             :Rm @ BHT
MST .DEGC     100.000           :Rm temp @ Bottom
RMFB.OHMM     0.037             :Rmf @ BHT
MFST.DEGC     100.000           :Rmf temp @ Bottom
RMCB.OHMM     0.060             :Rmc @ BHT
MCST.DEGC     100.000           :Rmc temp @ Bottom
TCS .         202000            :Time Since Circulation
DCS .         03-Mar-2012       :Date circ. stopped
TLAB.         063203            :Tool on Bottom
DLAB.         05-Mar-2012       :Date logger at btm
SHT .DEGC     16.000            :Surface hole temp
BHT .DEGC     41.600            :Bottom Hole Temperature
LUN .         2268              :Equipment No.
LUL .         NZNP              :Base Location
LCC .         440               :Logging Company ID
ENGI.         Jessica Riese     :Recorded By
WITN.         Graeme Timmis     :Witnessed By

~Other Information
Cheal A10_RUN2:
Log objective: Log PEX-HRLA-BHC-SP in 8.5" open hole section.
TD not tagged, lowest depth reached was 1388m.
Toolstring run with bowspring and 7x 1.5" standoffs as per toolsketch.
Log spliced between 1299-1321m
All wellsite data provided by client.
Maximum recorded temperature was 40.6degC recorded by head thermometers.

#
# --- LOG MNEMONICS ---
#
#Depth    
#DT         ECGR       GR         NPHI       NPOR       TNPH       TENS      
#BS         SP         EHGR       HGR        HTNP       HDRA       RHOZ      
#RLA0       RM_HRLT    RLA5       RT_HRLT    RLA3       RXO_HRLT   RXO8      
#RHO8       PEF8       RSO8       PEFZ       RSOZ       RLA4       RLA2      
#RXOZ       DSO8       RLA1       HCAL      
#
# --- LOG UNITS ---
#
#M        
#US/F       API        API        V/V        V/V        V/V        lbf       
#INCH       MV         API        API        V/V        G/CC       G/CC      
#OHMM       OHMM       OHMM       OHMM       OHMM       OHMM       OHMM      
#G/CC       B/E        INCH       B/E        INCH       OHMM       OHMM      
#OHMM       INCH       OHMM       INCH      

~A
# ...
   582.930
    127.879    122.115    123.395      0.358      0.423      0.400   1497.000
      8.500   -123.705    122.240    123.521      0.400      0.035      2.261
      0.078      0.073     17.782     21.049     15.668      8.189      1.626
      2.274      3.052      0.147      3.025      0.147     16.561     14.660
      1.635      0.145     12.833      8.340
   583.082
    128.572    122.686    123.630      0.338      0.368      0.365   1524.000
      8.500   -123.575    125.835    126.804      0.367      0.044      2.267
      0.080      0.074     19.263     23.131     16.892      8.304      1.815
      2.273      2.984      0.128      3.023      0.131     17.917     15.860
      1.782      0.108     13.458      8.401
   583.235
    129.107    118.147    119.172      0.356      0.341      0.347   1512.933
      8.500   -123.329    115.130    116.130      0.347      0.036      2.260
      0.079      0.075     19.830     23.972     17.337      8.230      1.892
      2.249      2.958      0.127      3.009      0.133     18.382     16.095
      1.848      0.075     13.585      8.409
   583.387
    129.455    116.255    117.302      0.361      0.350      0.375   1478.067
      8.500   -123.208    113.698    114.722      0.372      0.033      2.262
      0.077      0.075     18.731     22.537     16.363      7.963      1.871
      2.269      3.045      0.136      3.000      0.128     17.305     15.150
      1.888      0.114     12.926      8.386
   583.540
    130.029    117.651    118.710      0.375      0.415      0.394   1514.800
      8.500   -123.067    120.673    121.760      0.399      0.029      2.264
      0.078      0.074     18.581     22.184     16.210      8.124      1.872
      2.269      2.964      0.120      2.997      0.137     17.106     14.817
      1.835      0.091     12.974      8.386
   583.692
    131.227    116.701    117.638      0.370      0.408      0.401   1504.000
      8.500   -122.912    115.904    116.834      0.404      0.030      2.272
      0.077      0.075     19.748     23.624     17.216      8.382      1.778
      2.245      2.954      0.148      3.013      0.131     18.085     15.693
      1.823      0.112     13.629      8.394
   583.844
    132.577    115.073    115.996      0.393      0.389      0.387   1535.400
      8.500   -122.775    116.630    117.566      0.399      0.025      2.274
      0.078      0.076     18.404     21.887     16.141      8.136      1.840
      2.282      3.087      0.131      3.045      0.127     16.892     14.822
      1.879      0.102     12.943      8.409
   583.997
    133.603    113.394    114.119      0.382      0.405      0.411   1521.933
      8.500   -122.662    111.547    112.259      0.395      0.016      2.266
      0.079      0.077     20.205     23.904     17.657      9.005      2.039
      2.275      3.126      0.099      3.075      0.104     18.539     16.342
      1.995      0.078     14.298      8.440
   584.149
    133.814    116.246    116.951      0.405      0.410      0.405   1488.357
      8.500   -122.420    112.282    112.963      0.403      0.008      2.259
      0.081      0.078     20.153     23.774     17.589      9.090      2.177
      2.266      3.075      0.090      3.061      0.092     18.517     16.468
      2.160      0.031     14.355      8.478
   584.302
    133.236    118.578    119.297      0.386      0.412      0.432   1484.400
      8.500   -122.262    118.228    118.945      0.413      0.004      2.255
      0.082      0.078     18.315     21.556     15.920      8.264      2.233
      2.251      3.003      0.088      3.020      0.087     16.802     14.914
      2.070      0.011     13.056      8.432
   584.454
    132.626    124.174    124.927      0.397      0.430      0.418   1488.333
      8.500   -121.729    118.928    119.650      0.426      0.003      2.260
      0.080      0.078     14.536     16.689     12.665      7.307      1.913
      2.263      2.928      0.084      2.983      0.086     13.297     11.833
      1.944      0.006     10.836      8.455
   584.606
    132.075    126.371    127.075      0.395      0.428      0.426   1456.143
      8.500   -121.259    139.281    140.058      0.439      0.005      2.266
      0.079      0.077     16.806     19.332     14.587      8.271      1.796
      2.288      2.966      0.089      2.975      0.088     15.322     13.517
      1.829      0.045     12.418      8.432
   584.759
    131.305    124.207    125.366      0.403      0.423      0.416   1522.200
      8.500   -120.846    118.252    119.356      0.419      0.004      2.265
      0.078      0.076     16.855     19.536     14.633      8.031      1.877
      2.256      2.967      0.092      2.963      0.088     15.375     13.509
      1.799      0.018     12.289      8.371
   584.911
    131.603    118.199    119.032      0.394      0.425      0.419   1517.200
      8.500   -120.704    124.665    125.543      0.420      0.003      2.259
      0.079      0.077     15.280     17.869     13.357      7.162      1.700
      2.255      2.968      0.085      2.939      0.089     13.971     12.435
      1.678     -0.009     11.040      8.348
   585.064
    132.396    112.383    113.951      0.391      0.404      0.406   1468.467
      8.500   -120.758    111.061    112.611      0.401      0.005      2.263
      0.084      0.076     17.568     21.258     15.352      7.132      1.495
      2.273      2.948      0.091      2.927      0.093     16.087     14.273
      1.624      0.032     11.859      8.394
   585.216
    133.015    112.139    114.604      0.399      0.395      0.408   1468.200
      8.500   -120.545    106.744    109.091      0.401      0.007      2.269
      0.085      0.076     20.696     25.461     18.139      7.769      1.779
      2.270      2.922      0.102      2.924      0.099     19.044     16.756
      1.780      0.046     13.525      8.087
   585.368
    133.979    113.742    116.012      0.414      0.416      0.428   1497.714
      8.500   -120.429    120.067    122.464      0.419      0.008      2.274
      0.082      0.075     20.440     24.996     17.978      8.035      2.128
      2.272      2.913      0.100      2.915      0.100     18.882     16.486
      1.937      0.036     13.654      8.087
   585.521
    134.753    116.653    118.242      0.379      0.466      0.460   1486.600
      8.500   -120.238    115.263    116.833      0.448      0.004      2.266
      0.080      0.075     18.822     22.982     16.507      7.514      1.862
      2.279      2.875      0.094      2.899      0.092     17.417     15.066
      1.904      0.049     12.638      8.087
   585.673
    136.014    117.902    118.007      0.372      0.415      0.417   1488.067
      8.500   -119.917    119.545    119.650      0.442      0.001      2.262
      0.077      0.076     16.327     19.634     14.304      7.074      1.749
      2.271      2.836      0.086      2.880      0.088     15.112     13.092
      1.744     -0.003     11.335      8.582
   585.826
    134.107    119.323    119.180      0.390      0.402      0.410   1498.286
      8.500   -119.661    117.678    117.537      0.414      0.000      2.259
      0.074      0.075     18.656     22.375     16.346      8.091      1.670
      2.237      2.933      0.088      2.884      0.086     17.263     14.797
      1.697     -0.018     13.002      8.616
   585.978
    132.834    122.396    122.229      0.427      0.449      0.427   1488.733
      8.500   -119.396    116.640    116.482      0.426      0.000      2.257
      0.073      0.074     17.730     20.804     15.631      8.363      1.702
      2.269      2.888      0.087      2.891      0.089     16.351     14.133
      1.677      0.006     12.895      8.639
   586.130
    131.648    120.323    120.353      0.433      0.478      0.468   1516.933
      8.500   -119.179    128.767    128.798      0.453      0.001      2.255
      0.073      0.073     19.078     22.517     16.803      8.713      1.675
      2.279      2.856      0.091      2.909      0.091     17.565     15.437
      1.691      0.027     13.680      8.616
