~Version Information
VERS.                     2.0: CWLS log ASCII Standard Version 2.00
WRAP.                     YES: Multiple lines per depth step

~Well Information Block
#MNEM.UNIT                 Value                       Information
#------------              -----                       -----------
STRT.M                      83.363                    :START
STOP.M                    1576.273                    :STOP
STEP.M                       0.152                    :STEP
NULL.                     -999.25                     :NULL VALUE
COMP.         TAG Oil                                 :Company
WELL.         Cheal-A10                               :Well
FLD .                                                 :Field Name
LOC .         Geodetic Datum 2000                     :Location
PROV.                                                 :Province
CNTY.         Taranaki                                :County
STATE.                                                 :State
CTRY.         New Zealand                             :Country
DATE.                                                 :Log Date
SRVC.                                                 :Service Company
UWI .                                                 :Unique Well Identifier
API .                                                 :API Number
FL1 .         5639460.731                             :Field Loc. 1 / Northing
FL2 .         1712320.438                             :Field Loc. 2 / Easting
LATI.         039 23' 13.335" N    DMS                :Latitude
LONG.         174 18' 15.262" E    DMS                :Longtitude
PD  .         MSL                                     :Permanent Datum
EPD .M             0.000                              :Elevation
EDF .M           269.800                              :Elevations D.F.
EGL .M           264.650                              :Elevations G.L.
ELZ .M           269.800                              :Elev. Log Zero
APD .M           269.800                              :Above Permanent Datum
LMF .         DF                                      :Log Measured From

~Curve Information
#MNEM   .UNIT             API CODE Curve Description
#------------             -------- -----------------
DEPT    .M            00 001 00 00:   0  Depth
DT      .US/F         60 520 32 01:  22  Delta-T (also called Slowness or Interval Transit Time)
ECGR    .API          30 150 01 01:  23  Environmentally Corrected Gamma Ray
GR      .API          30 150 01 01:  24  Gamma Ray
NPHI    .V/V          42 890 01 01:  25  Thermal Neutron Porosity (original Ratio Method) in Selected Lithology
NPOR    .V/V          42 890 01 01:  26  Enhanced Thermal Neutron Porosity in Selected Lithology
TNPH    .V/V          42 890 01 01:  27  Thermal Neutron Porosity (Ratio Method) in Selected Lithology
TENS    .lbf          84 635 11 01:  28  Cable Tension
BS      .INCH         00 000 00 00:  29  Bit Size
SP      .MV           05 010 01 01:  30  Spontaneous Potential
EHGR    .API          00 000 00 00:  31  High Resolution Corrected Gamma Ray
HGR     .API          30 150 01 01:  32  High Resolution Gamma Ray
HTNP    .V/V          00 000 00 00:  33  High Resolution Thermal Neutron Porosity (Ratio Method) in Selected Lithology
HDRA    .G/CC         45 356 01 01:  34  Density Standoff Correction
RHOZ    .G/CC         45 350 01 01:  35  Standard Resolution Formation Density
RLA0    .OHMM         00 000 00 00:  36  Apparent Resistivity from Computed Focusing Mode 0
RM_HRLT .OHMM         00 000 00 00:  37  HRLT Computed Mud Resistivity
RLA5    .OHMM         00 000 00 00:  38  Apparent Resistivity from Computed Focusing Mode 5
RT_HRLT .OHMM         00 000 00 00:  39  HRLT True Formation Resistivity
RLA3    .OHMM         00 000 00 00:  40  Apparent Resistivity from Computed Focusing Mode 3
RXO_HRLT.OHMM         00 000 00 00:  41  HRLT Invaded Zone Resistivity
RXO8    .OHMM         00 000 00 00:  42  Invaded Formation Resistivity filtered at 8 inches
RHO8    .G/CC         45 350 01 01:  43  High Resolution Formation Density
PEF8    .B/E          00 000 00 00:  44  High Resolution Formation Photoelectric Factor
RSO8    .INCH         00 000 00 00:  45  Resistivity Standoff High Resolution
PEFZ    .B/E          45 358 01 01:  46  Standard Resolution Formation Photoelectric Factor
RSOZ    .INCH         00 000 00 00:  47  Resistivity Standoff Standard Resolution
RLA4    .OHMM         00 000 00 00:  48  Apparent Resistivity from Computed Focusing Mode 4
RLA2    .OHMM         00 000 00 00:  49  Apparent Resistivity from Computed Focusing Mode 2
RXOZ    .OHMM         00 000 00 00:  50  Invaded Formation Resistivity filtered at 18 inches
DSO8    .INCH         00 000 00 00:  51  High Resolution Density Standoff
RLA1    .OHMM         95 220 00 01:  52  Apparent Resistivity from Computed Focusing Mode 1
HCAL    .INCH         70 280 00 01:  53  HRCC Caliper Calibrated

~Parameter Information
#MNEM.UNIT       Value           Description
#------------    -----           -----------
RUN .         1                 :Run Number
DATE.         03-Mar-2012       :Date
TDD .M        1577.000          :Depth Driller
TDL .M        1388.000          :Depth Logger
BLI .M        108.890           :First Reading
TLI .M        1392.940          :Last Reading
CBD .M        277.000           :Casing Driller
CBL .M        278.000           :Casing Logger
CS  .IN       9.625             :Casing Size
CW1 .LBCF     47.000            :Casing Weight
BS  .IN       8.500             :Bit Size
BSDF.M        208.500           :Bit Size Depth From
BSDT.M        1577.000          :Bit Size Depth To
DFT .         Water             :Hole Fluid Type
DFD .G/C3     1.108             :Density
DFV .SEC      61.000            :Viscosity
DFPH.         9.5               :pH
DFL .C3       6.000             :Fluid Loss
MSS .         Active Tank       :Sample Source
RM  .OHMM     0.124             :Rm @ Measured Temperature
RMT .DEGC     26.300            :Mud temp @ Surface
RMF .OHMM     0.093             :Rmf @ Measured Temperature
RMFT.DEGC     26.300            :MF temp @ Surface
RMC .OHMM     0.140             :RMC @ Measured Temperature
RMCT.DEGC     26.500            :MC temp @ Surface
MFSS.         Calculated        :Source Rmf
MCSS.         Pressed           :Source Rmc
RMB .OHMM     0.049             :Rm @ BHT
MST .DEGC     100.000           :Rm temp @ Bottom
RMFB.OHMM     0.037             :Rmf @ BHT
MFST.DEGC     100.000           :Rmf temp @ Bottom
RMCB.OHMM     0.060             :Rmc @ BHT
MCST.DEGC     100.000           :Rmc temp @ Bottom
TCS .         202000            :Time Since Circulation
DCS .         03-Mar-2012       :Date circ. stopped
TLAB.         004411            :Tool on Bottom
DLAB.         04-Mar-2012       :Date logger at btm
BHT .DEGC     40.630            :Bottom Hole Temperature
LUN .         2268              :Equipment No.
LUL .         NZNP              :Base Location
LCC .         440               :Logging Company ID
ENGI.         Jessica Riese     :Recorded By
WITN.         Graeme Timmis     :Witnessed By
RUN .         2                 :Run Number
DATE.         04-Mar-2012       :Date
TDD .M        1577.000          :Depth Driller
TDL .M        1574.000          :Depth Logger
BLI .M        108.890           :First Reading
TLI .M        1576.340          :Last Reading
CBD .M        277.000           :Casing Driller
CBL .M        278.000           :Casing Logger
CS  .IN       9.625             :Casing Size
CW1 .LB/FT    47.000            :Casing Weight
BS  .IN       8.500             :Bit Size
BSDF.M        208.500           :Bit Size Depth From
BSDT.M        1577.000          :Bit Size Depth To
DFT .         Water             :Hole Fluid Type
DFD .G/C3     1.108             :Density
DFV .SEC      61.000            :Viscosity
DFPH.         9.5               :pH
DFL .C3       6.000             :Fluid Loss
MSS .         Active Tank       :Sample Source
RM  .OHMM     0.124             :Rm @ Measured Temperature
RMT .DEGC     26.300            :Mud temp @ Surface
RMF .OHMM     0.093             :Rmf @ Measured Temperature
RMFT.DEGC     26.300            :MF temp @ Surface
RMC .OHMM     0.140             :RMC @ Measured Temperature
RMCT.DEGC     26.500            :MC temp @ Surface
MFSS.         Calculated        :Source Rmf
MCSS.         Pressed           :Source Rmc
RMB .OHMM     0.049             :Rm @ BHT
MST .DEGC     100.000           :Rm temp @ Bottom
RMFB.OHMM     0.037             :Rmf @ BHT
MFST.DEGC     100.000           :Rmf temp @ Bottom
RMCB.OHMM     0.060             :Rmc @ BHT
MCST.DEGC     100.000           :Rmc temp @ Bottom
TCS .         202000            :Time Since Circulation
DCS .         03-Mar-2012       :Date circ. stopped
TLAB.         063203            :Tool on Bottom
DLAB.         05-Mar-2012       :Date logger at btm
SHT .DEGC     16.000            :Surface hole temp
BHT .DEGC     41.600            :Bottom Hole Temperature
LUN .         2268              :Equipment No.
LUL .         NZNP              :Base Location
LCC .         440               :Logging Company ID
ENGI.         Jessica Riese     :Recorded By
WITN.         Graeme Timmis     :Witnessed By

~Other Information
Cheal A10_RUN2:
Log objective: Log PEX-HRLA-BHC-SP in 8.5" open hole section.
TD not tagged, lowest depth reached was 1388m.
Toolstring run with bowspring and 7x 1.5" standoffs as per toolsketch.
Log spliced between 1299-1321m
All wellsite data provided by client.
Maximum recorded temperature was 40.6degC recorded by head thermometers.

#
# --- LOG MNEMONICS ---
#
#Depth    
#DT         ECGR       GR         NPHI       NPOR       TNPH       TENS      
#BS         SP         EHGR       HGR        HTNP       HDRA       RHOZ      
#RLA0       RM_HRLT    RLA5       RT_HRLT    RLA3       RXO_HRLT   RXO8      
#RHO8       PEF8       RSO8       PEFZ       RSOZ       RLA4       RLA2      
#RXOZ       DSO8       RLA1       HCAL      
#
# --- LOG UNITS ---
#
#M        
#US/F       API        API        V/V        V/V        V/V        lbf       
#INCH       MV         API        API        V/V        G/CC       G/CC      
#OHMM       OHMM       OHMM       OHMM       OHMM       OHMM       OHMM      
#G/CC       B/E        INCH       B/E        INCH       OHMM       OHMM      
#OHMM       INCH       OHMM       INCH      

~A
# ...
   971.855
    106.234    104.525    104.955      0.350      0.442      0.462   1973.067
      8.500    -74.517    108.294    108.740      0.448     -0.001      2.293
      0.076      0.075     21.981     28.770     18.200      4.922      1.531
      2.309      2.877      0.035      2.866      0.017     19.629     15.755
      1.513      0.018     10.697      8.501
   972.007
    106.735    104.058    104.486      0.338      0.407      0.407   1954.133
      8.500    -74.925    101.460    101.878      0.435      0.000      2.295
      0.077      0.075     21.003     27.452     17.357      4.781      1.518
      2.290      2.929      0.003      2.888      0.014     18.737     15.066
      1.472     -0.010     10.284      8.486
   972.160
    106.722    102.740    103.497      0.341      0.386      0.390   1920.667
      8.500    -75.533    109.168    109.972      0.403      0.001      2.301
      0.077      0.075     19.931     26.005     16.443      4.607      1.334
      2.290      2.858      0.011      2.873      0.010     17.725     14.272
      1.427      0.001      9.799      8.493
   972.312
    106.845    107.443    108.623      0.359      0.413      0.387   1942.067
      8.500    -75.775    101.988    103.107      0.384     -0.001      2.302
      0.078      0.075     20.338     26.499     16.722      4.651      1.489
      2.314      2.871      0.015      2.868      0.014     18.023     14.573
      1.420      0.009      9.941      8.340
   972.464
    106.295    108.951    110.147      0.356      0.397      0.395   1942.867
      8.500    -75.866    112.201    113.433      0.395     -0.004      2.301
      0.078      0.075     18.771     24.328     15.514      4.532      1.494
      2.315      2.799      0.013      2.887      0.015     16.638     13.536
      1.537      0.007      9.457      8.348
   972.617
    105.688    111.149    112.259      0.356      0.377      0.387   1921.333
      8.500    -76.082    103.831    104.869      0.387     -0.006      2.303
      0.079      0.076     19.825     25.899     16.430      4.234      1.632
      2.317      2.862      0.008      2.931      0.000     17.569     14.130
      1.533     -0.025      9.469      8.363
   972.769
    106.188    108.656    109.209      0.354      0.391      0.396   1981.929
      8.500    -76.029    114.491    115.074      0.397     -0.004      2.316
      0.079      0.078     18.370     23.939     15.409      4.185      1.551
      2.321      2.941      0.000      2.935      0.000     16.423     13.362
      1.564      0.047      9.143      8.386
   972.922
    106.126    110.718    110.851      0.378      0.402      0.401   1913.750
      8.500    -76.107    107.554    107.684      0.386     -0.001      2.329
      0.080      0.078     21.706     28.572     18.104      4.347      1.545
      2.345      2.883      0.018      2.909      0.008     19.508     15.559
      1.495     -0.016     10.172      8.570
   973.074
    106.093    109.502    109.634      0.380      0.430      0.435   1940.500
      8.500    -76.179    113.881    114.018      0.419      0.000      2.327
      0.079      0.079     20.105     26.436     16.848      4.313      1.445
      2.330      2.969      0.034      2.883      0.026     18.216     14.607
      1.477      0.002      9.762      8.547
   973.226
    106.777    108.324    108.612      0.390      0.444      0.444   1963.733
      8.500    -76.242    105.877    106.159      0.445     -0.001      2.313
      0.078      0.078     19.712     26.084     16.525      4.209      1.456
      2.305      2.783      0.019      2.868      0.024     17.950     14.187
      1.455     -0.021      9.477      8.547
   973.379
    106.998    108.558    108.847      0.377      0.451      0.457   1950.533
      8.500    -76.162    102.398    102.670      0.459     -0.001      2.303
      0.078      0.078     18.853     24.987     15.841      4.196      1.479
      2.288      2.813      0.019      2.854      0.023     17.257     13.563
      1.476     -0.002      9.216      8.524
   973.531
    106.528    110.196    110.276      0.360      0.456      0.439   1920.600
      8.500    -76.133    112.529    112.611      0.468     -0.002      2.299
      0.078      0.078     19.015     25.320     16.003      4.191      1.485
      2.289      2.856      0.030      2.862      0.028     17.482     13.585
      1.477      0.025      9.226      8.570
   973.684
    105.658    112.670    112.589      0.345      0.404      0.412   1926.667
      8.500    -76.429    112.398    112.318      0.421     -0.002      2.304
      0.079      0.080     17.287     22.934     14.658      3.931      1.386
      2.313      2.873      0.032      2.883      0.028     16.020     12.537
      1.426      0.003      8.632      8.601
   973.836
    105.154    113.989    113.761      0.325      0.387      0.392   1921.333
      8.500    -76.546    119.887    119.648      0.404     -0.002      2.313
      0.079      0.081     20.285     27.240     17.275      4.092      1.353
      2.332      2.862      0.014      2.911      0.019     19.053     14.701
      1.439      0.003      9.657      8.639
   973.988
    105.358    109.119    108.622      0.316      0.381      0.375   1910.400
      8.500    -76.333    115.953    115.426      0.367      0.001      2.331
      0.080      0.081     22.707     30.810     19.340      4.161      1.549
      2.346      2.915      0.011      2.918      0.021     21.534     16.333
      1.515     -0.019     10.330      8.708
   974.141
    105.139    112.654    112.142      0.301      0.347      0.360   1953.800
      8.500    -76.154    103.227    102.758      0.371      0.003      2.336
      0.080      0.081     21.137     28.770     18.187      4.045      1.573
      2.329      2.886      0.033      2.893      0.024     20.300     15.350
      1.549      0.007      9.885      8.701
   974.293
    106.279    108.401    107.977      0.303      0.360      0.343   1943.067
      8.500    -75.238    111.286    110.851      0.345      0.004      2.331
      0.080      0.081     19.991     27.288     17.340      3.915      1.503
      2.336      2.857      0.023      2.884      0.022     19.307     14.504
      1.506      0.017      9.464      8.724
   974.446
    106.591    113.228    113.256      0.304      0.341      0.340   1937.333
      8.500    -74.758    114.401    114.429      0.344      0.005      2.322
      0.080      0.081     17.469     23.720     15.395      3.782      1.381
      2.319      2.861      0.009      2.881      0.011     16.848     12.781
      1.407      0.030      8.722      8.624
   974.598
    106.718    107.502    107.391      0.320      0.329      0.332   1929.733
      8.500    -74.479    109.205    109.091      0.333      0.006      2.316
      0.080      0.080     19.238     26.303     17.229      3.775      1.326
      2.311      2.890      0.003      2.899      0.008     18.442     13.936
      1.420      0.016      9.217      8.609
   974.750
    105.756    103.592    103.369      0.333      0.363      0.351   1925.267
      8.500    -74.313    103.332    103.109      0.342      0.009      2.313
      0.079      0.081     18.890     25.779     17.231      3.484      1.389
      2.298      2.968      0.016      2.915      0.020     17.976     13.837
      1.348      0.006      8.976      8.639
   974.903
    104.587    104.826    104.549      0.350      0.363      0.359   1919.400
      8.500    -74.363     99.854     99.590      0.363      0.009      2.305
      0.079      0.082     17.990     24.261     16.465      3.130      1.259
      2.298      2.903      0.039      2.915      0.031     17.029     13.704
      1.355      0.064      8.640      8.670
   975.055
    103.720    106.794    106.309      0.334      0.374      0.375   1917.333
      8.500    -74.613    110.443    109.941      0.378      0.009      2.307
      0.081      0.082     19.922     26.390     18.094      2.965      1.398
      2.330      2.904      0.029      2.912      0.033     18.775     15.894
      1.363      0.058      9.489      8.662
