~Version Information
VERS.                     2.0: CWLS log ASCII Standard Version 2.00
WRAP.                     YES: Multiple lines per depth step

~Well Information Block
#MNEM.UNIT                 Value                       Information
#------------              -----                       -----------
STRT.M                      83.363                    :START
STOP.M                    1576.273                    :STOP
STEP.M                       0.152                    :STEP
NULL.                     -999.25                     :NULL VALUE
COMP.         TAG Oil                                 :Company
WELL.         Cheal-A10                               :Well
FLD .                                                 :Field Name
LOC .         Geodetic Datum 2000                     :Location
PROV.                                                 :Province
CNTY.         Taranaki                                :County
STATE.                                                 :State
CTRY.         New Zealand                             :Country
DATE.                                                 :Log Date
SRVC.                                                 :Service Company
UWI .                                                 :Unique Well Identifier
API .                                                 :API Number
FL1 .         5639460.731                             :Field Loc. 1 / Northing
FL2 .         1712320.438                             :Field Loc. 2 / Easting
LATI.         039 23' 13.335" N    DMS                :Latitude
LONG.         174 18' 15.262" E    DMS                :Longtitude
PD  .         MSL                                     :Permanent Datum
EPD .M             0.000                              :Elevation
EDF .M           269.800                              :Elevations D.F.
EGL .M           264.650                              :Elevations G.L.
ELZ .M           269.800                              :Elev. Log Zero
APD .M           269.800                              :Above Permanent Datum
LMF .         DF                                      :Log Measured From

~Curve Information
#MNEM   .UNIT             API CODE Curve Description
#------------             -------- -----------------
DEPT    .M            00 001 00 00:   0  Depth
DT      .US/F         60 520 32 01:  22  Delta-T (also called Slowness or Interval Transit Time)
ECGR    .API          30 150 01 01:  23  Environmentally Corrected Gamma Ray
GR      .API          30 150 01 01:  24  Gamma Ray
NPHI    .V/V          42 890 01 01:  25  Thermal Neutron Porosity (original Ratio Method) in Selected Lithology
NPOR    .V/V          42 890 01 01:  26  Enhanced Thermal Neutron Porosity in Selected Lithology
TNPH    .V/V          42 890 01 01:  27  Thermal Neutron Porosity (Ratio Method) in Selected Lithology
TENS    .lbf          84 635 11 01:  28  Cable Tension
BS      .INCH         00 000 00 00:  29  Bit Size
SP      .MV           05 010 01 01:  30  Spontaneous Potential
EHGR    .API          00 000 00 00:  31  High Resolution Corrected Gamma Ray
HGR     .API          30 150 01 01:  32  High Resolution Gamma Ray
HTNP    .V/V          00 000 00 00:  33  High Resolution Thermal Neutron Porosity (Ratio Method) in Selected Lithology
HDRA    .G/CC         45 356 01 01:  34  Density Standoff Correction
RHOZ    .G/CC         45 350 01 01:  35  Standard Resolution Formation Density
RLA0    .OHMM         00 000 00 00:  36  Apparent Resistivity from Computed Focusing Mode 0
RM_HRLT .OHMM         00 000 00 00:  37  HRLT Computed Mud Resistivity
RLA5    .OHMM         00 000 00 00:  38  Apparent Resistivity from Computed Focusing Mode 5
RT_HRLT .OHMM         00 000 00 00:  39  HRLT True Formation Resistivity
RLA3    .OHMM         00 000 00 00:  40  Apparent Resistivity from Computed Focusing Mode 3
RXO_HRLT.OHMM         00 000 00 00:  41  HRLT Invaded Zone Resistivity
RXO8    .OHMM         00 000 00 00:  42  Invaded Formation Resistivity filtered at 8 inches
RHO8    .G/CC         45 350 01 01:  43  High Resolution Formation Density
PEF8    .B/E          00 000 00 00:  44  High Resolution Formation Photoelectric Factor
RSO8    .INCH         00 000 00 00:  45  Resistivity Standoff High Resolution
PEFZ    .B/E          45 358 01 01:  46  Standard Resolution Formation Photoelectric Factor
RSOZ    .INCH         00 000 00 00:  47  Resistivity Standoff Standard Resolution
RLA4    .OHMM         00 000 00 00:  48  Apparent Resistivity from Computed Focusing Mode 4
RLA2    .OHMM         00 000 00 00:  49  Apparent Resistivity from Computed Focusing Mode 2
RXOZ    .OHMM         00 000 00 00:  50  Invaded Formation Resistivity filtered at 18 inches
DSO8    .INCH         00 000 00 00:  51  High Resolution Density Standoff
RLA1    .OHMM         95 220 00 01:  52  Apparent Resistivity from Computed Focusing Mode 1
HCAL    .INCH         70 280 00 01:  53  HRCC Caliper Calibrated

~Parameter Information
#MNEM.UNIT       Value           Description
#------------    -----           -----------
RUN .         1                 :Run Number
DATE.         03-Mar-2012       :Date
TDD .M        1577.000          :Depth Driller
TDL .M        1388.000          :Depth Logger
BLI .M        108.890           :First Reading
TLI .M        1392.940          :Last Reading
CBD .M        277.000           :Casing Driller
CBL .M        278.000           :Casing Logger
CS  .IN       9.625             :Casing Size
CW1 .LBCF     47.000            :Casing Weight
BS  .IN       8.500             :Bit Size
BSDF.M        208.500           :Bit Size Depth From
BSDT.M        1577.000          :Bit Size Depth To
DFT .         Water             :Hole Fluid Type
DFD .G/C3     1.108             :Density
DFV .SEC      61.000            :Viscosity
DFPH.         9.5               :pH
DFL .C3       6.000             :Fluid Loss
MSS .         Active Tank       :Sample Source
RM  .OHMM     0.124             :Rm @ Measured Temperature
RMT .DEGC     26.300            :Mud temp @ Surface
RMF .OHMM     0.093             :Rmf @ Measured Temperature
RMFT.DEGC     26.300            :MF temp @ Surface
RMC .OHMM     0.140             :RMC @ Measured Temperature
RMCT.DEGC     26.500            :MC temp @ Surface
MFSS.         Calculated        :Source Rmf
MCSS.         Pressed           :Source Rmc
RMB .OHMM     0.049             :Rm @ BHT
MST .DEGC     100.000           :Rm temp @ Bottom
RMFB.OHMM     0.037             :Rmf @ BHT
MFST.DEGC     100.000           :Rmf temp @ Bottom
RMCB.OHMM     0.060             :Rmc @ BHT
MCST.DEGC     100.000           :Rmc temp @ Bottom
TCS .         202000            :Time Since Circulation
DCS .         03-Mar-2012       :Date circ. stopped
TLAB.         004411            :Tool on Bottom
DLAB.         04-Mar-2012       :Date logger at btm
BHT .DEGC     40.630            :Bottom Hole Temperature
LUN .         2268              :Equipment No.
LUL .         NZNP              :Base Location
LCC .         440               :Logging Company ID
ENGI.         Jessica Riese     :Recorded By
WITN.         Graeme Timmis     :Witnessed By
RUN .         2                 :Run Number
DATE.         04-Mar-2012       :Date
TDD .M        1577.000          :Depth Driller
TDL .M        1574.000          :Depth Logger
BLI .M        108.890           :First Reading
TLI .M        1576.340          :Last Reading
CBD .M        277.000           :Casing Driller
CBL .M        278.000           :Casing Logger
CS  .IN       9.625             :Casing Size
CW1 .LB/FT    47.000            :Casing Weight
BS  .IN       8.500             :Bit Size
BSDF.M        208.500           :Bit Size Depth From
BSDT.M        1577.000          :Bit Size Depth To
DFT .         Water             :Hole Fluid Type
DFD .G/C3     1.108             :Density
DFV .SEC      61.000            :Viscosity
DFPH.         9.5               :pH
DFL .C3       6.000             :Fluid Loss
MSS .         Active Tank       :Sample Source
RM  .OHMM     0.124             :Rm @ Measured Temperature
RMT .DEGC     26.300            :Mud temp @ Surface
RMF .OHMM     0.093             :Rmf @ Measured Temperature
RMFT.DEGC     26.300            :MF temp @ Surface
RMC .OHMM     0.140             :RMC @ Measured Temperature
RMCT.DEGC     26.500            :MC temp @ Surface
MFSS.         Calculated        :Source Rmf
MCSS.         Pressed           :Source Rmc
RMB .OHMM     0.049             :Rm @ BHT
MST .DEGC     100.000           :Rm temp @ Bottom
RMFB.OHMM     0.037             :Rmf @ BHT
MFST.DEGC     100.000           :Rmf temp @ Bottom
RMCB.OHMM     0.060             :Rmc @ BHT
MCST.DEGC     100.000           :Rmc temp @ Bottom
TCS .         202000            :Time Since Circulation
DCS .         03-Mar-2012       :Date circ. stopped
TLAB.         063203            :Tool on Bottom
DLAB.         05-Mar-2012       :Date logger at btm
SHT .DEGC     16.000            :Surface hole temp
BHT .DEGC     41.600            :Bottom Hole Temperature
LUN .         2268              :Equipment No.
LUL .         NZNP              :Base Location
LCC .         440               :Logging Company ID
ENGI.         Jessica Riese     :Recorded By
WITN.         Graeme Timmis     :Witnessed By

~Other Information
Cheal A10_RUN2:
Log objective: Log PEX-HRLA-BHC-SP in 8.5" open hole section.
TD not tagged, lowest depth reached was 1388m.
Toolstring run with bowspring and 7x 1.5" standoffs as per toolsketch.
Log spliced between 1299-1321m
All wellsite data provided by client.
Maximum recorded temperature was 40.6degC recorded by head thermometers.

#
# --- LOG MNEMONICS ---
#
#Depth    
#DT         ECGR       GR         NPHI       NPOR       TNPH       TENS      
#BS         SP         EHGR       HGR        HTNP       HDRA       RHOZ      
#RLA0       RM_HRLT    RLA5       RT_HRLT    RLA3       RXO_HRLT   RXO8      
#RHO8       PEF8       RSO8       PEFZ       RSOZ       RLA4       RLA2      
#RXOZ       DSO8       RLA1       HCAL      
#
# --- LOG UNITS ---
#
#M        
#US/F       API        API        V/V        V/V        V/V        lbf       
#INCH       MV         API        API        V/V        G/CC       G/CC      
#OHMM       OHMM       OHMM       OHMM       OHMM       OHMM       OHMM      
#G/CC       B/E        INCH       B/E        INCH       OHMM       OHMM      
#OHMM       INCH       OHMM       INCH      

~A
# ...
   777.392
    109.955    110.820    111.438      0.349      0.387      0.399   1740.875
      8.500   -102.477    117.585    118.241      0.411      0.002      2.305
      0.069      0.068     14.290     18.400     11.707      3.992      1.664
      2.319      2.951      0.052      2.905      0.051     12.592     10.285
      1.639      0.010      7.543      8.467
   777.545
    110.020    115.019    115.661      0.351      0.391      0.385   1721.067
      8.500   -102.688    111.286    111.907      0.381      0.005      2.317
      0.070      0.069     13.921     17.869     11.396      3.940      1.691
      2.319      2.825      0.054      2.907      0.057     12.201     10.049
      1.706      0.018      7.374      8.455
   777.697
    110.383    117.156    117.676      0.339      0.386      0.387   1701.800
      8.500   -102.733    116.318    116.834      0.387      0.004      2.314
      0.070      0.069     14.737     18.982     12.062      4.165      1.775
      2.308      2.935      0.063      2.922      0.060     12.916     10.562
      1.731      0.005      7.765      8.493
   777.850
    109.424    118.298    118.900      0.354      0.370      0.367   1700.000
      8.500   -102.754    119.743    120.352      0.372      0.003      2.307
      0.070      0.069     14.070     18.171     11.541      3.996      1.737
      2.300      2.928      0.064      2.947      0.064     12.369     10.041
      1.696      0.001      7.420      8.478
   778.002
    110.070    118.005    118.644      0.353      0.389      0.379   1685.267
      8.500   -102.887    121.046    121.701      0.378      0.001      2.297
      0.069      0.069     13.426     17.314     11.045      3.947      1.644
      2.299      2.937      0.064      2.960      0.061     11.880      9.639
      1.665      0.011      7.218      8.478
   778.154
    109.816    116.740    117.449      0.371      0.375      0.375   1682.733
      8.500   -103.324    111.057    111.731      0.373     -0.001      2.297
      0.070      0.069     13.494     17.428     11.127      3.923      1.690
      2.306      2.958      0.057      2.987      0.058     11.986      9.716
      1.670      0.014      7.243      8.470
   778.307
    109.986    117.040    117.750      0.357      0.383      0.400   1705.267
      8.500   -103.858    121.726    122.465      0.395     -0.001      2.302
      0.071      0.070     13.859     17.899     11.460      3.962      1.775
      2.315      2.985      0.058      2.999      0.060     12.341     10.019
      1.764     -0.005      7.426      8.455
   778.459
    109.552    116.419    117.068      0.358      0.403      0.391   1731.000
      8.500   -104.175    118.286    118.946      0.394     -0.001      2.302
      0.072      0.070     14.741     19.160     12.187      3.972      1.888
      2.304      2.994      0.066      3.021      0.066     13.162     10.578
      1.815     -0.014      7.694      8.463
   778.612
    108.394    114.725    115.309      0.357      0.390      0.387   1752.688
      8.500   -104.238    110.990    111.555      0.386      0.001      2.307
      0.073      0.071     13.889     17.986     11.507      3.791      1.772
      2.305      3.048      0.074      2.999      0.070     12.410     10.057
      1.814      0.018      7.330      8.478
   778.764
    109.974    115.537    116.012      0.360      0.383      0.384   1759.867
      8.500   -104.233    118.106    118.592      0.392      0.001      2.305
      0.072      0.071     14.245     18.518     11.797      3.768      1.807
      2.301      2.981      0.069      3.001      0.068     12.711     10.283
      1.811     -0.006      7.388      8.501
   778.916
    109.228    115.415    115.778      0.338      0.381      0.393   1729.333
      8.500   -104.113    121.730    122.113      0.392      0.001      2.308
      0.072      0.071     13.788     17.908     11.456      3.871      1.846
      2.302      3.005      0.061      2.992      0.064     12.323      9.968
      1.830      0.001      7.316      8.501
   779.069
    108.902    112.041    112.611      0.334      0.371      0.372   1737.533
      8.500   -103.825    110.989    111.554      0.375      0.003      2.309
      0.071      0.070     14.588     18.984     12.116      4.166      1.861
      2.318      3.016      0.064      3.003      0.066     13.073     10.476
      1.871      0.006      7.780      8.524
   779.221
    108.808    115.381    115.800      0.338      0.376      0.366   1713.467
      8.500   -103.342    104.840    105.221      0.363      0.004      2.312
      0.071      0.070     13.986     18.116     11.599      4.065      1.884
      2.317      2.933      0.073      2.952      0.071     12.545     10.112
      1.810      0.014      7.555      8.509
   779.374
    109.176    116.038    116.855      0.366      0.371      0.365   1711.312
      8.500   -103.363    121.492    122.347      0.367      0.003      2.310
      0.071      0.070     12.570     16.181     10.447      3.793      1.714
      2.321      2.849      0.074      2.909      0.068     11.305      9.219
      1.728      0.039      6.950      8.440
   779.526
    109.525    121.630    122.486      0.369      0.381      0.397   1687.533
      8.500   -103.204    119.161    120.001      0.392      0.001      2.307
      0.071      0.070     12.245     15.697     10.223      3.886      1.699
      2.306      2.872      0.062      2.889      0.069     11.018      9.010
      1.760     -0.010      6.928      8.447
   779.678
    109.593    121.203    121.760      0.363      0.406      0.410   1687.800
      8.500   -103.567    120.151    120.704      0.418      0.001      2.305
      0.072      0.070     13.914     17.904     11.622      4.272      1.938
      2.310      2.961      0.076      2.913      0.067     12.521     10.184
      1.803      0.000      7.768      8.432
   779.831
    109.207    121.724    122.581      0.359      0.420      0.406   1725.000
      8.500   -104.088    124.054    124.928      0.419      0.001      2.304
      0.071      0.070     12.288     15.693     10.335      3.969      1.804
      2.295      2.960      0.068      2.935      0.070     11.080      9.090
      1.879     -0.002      7.069      8.432
   779.983
    108.958    119.452    120.235      0.355      0.393      0.388   1726.867
      8.500   -104.566    119.919    120.704      0.398      0.001      2.301
      0.070      0.070     12.499     15.966     10.516      3.930      1.809
      2.299      2.896      0.071      2.945      0.071     11.258      9.253
      1.808     -0.008      7.127      8.432
   780.136
    109.630    119.711    119.971      0.362      0.386      0.380   1683.062
      8.500   -105.063    117.048    117.302      0.378      0.001      2.305
      0.070      0.070     13.340     17.146     11.214      3.995      1.893
      2.311      2.926      0.079      2.913      0.077     12.047      9.877
      1.906      0.009      7.445      8.593
   780.288
    109.184    118.486    118.916      0.356      0.372      0.387   1708.867
      8.500   -105.279    117.989    118.417      0.380      0.002      2.309
      0.071      0.070     13.625     17.568     11.483      4.120      2.033
      2.321      2.858      0.082      2.886      0.081     12.331     10.040
      1.926      0.000      7.616      8.501
   780.440
    108.892    120.064    120.558      0.366      0.398      0.389   1711.667
      8.500   -105.467    124.416    124.928      0.386      0.003      2.314
      0.071      0.070     13.366     17.271     11.274      4.090      1.924
      2.316      2.874      0.084      2.860      0.083     12.130      9.839
      1.922      0.023      7.489      8.501
   780.593
    108.285    118.493    118.828      0.370      0.395      0.398   1689.600
      8.500   -105.500    119.839    120.177      0.383      0.003      2.310
      0.071      0.070     13.399     17.370     11.276      4.114      1.868
      2.316      2.809      0.081      2.876      0.079     12.180      9.801
      1.836      0.010      7.479      8.501
