~Version Information
VERS.                     2.0: CWLS log ASCII Standard Version 2.00
WRAP.                     YES: Multiple lines per depth step

~Well Information Block
#MNEM.UNIT                 Value                       Information
#------------              -----                       -----------
STRT.M                      83.363                    :START
STOP.M                    1576.273                    :STOP
STEP.M                       0.152                    :STEP
NULL.                     -999.25                     :NULL VALUE
COMP.         TAG Oil                                 :Company
WELL.         Cheal-A10                               :Well
FLD .                                                 :Field Name
LOC .         Geodetic Datum 2000                     :Location
PROV.                                                 :Province
CNTY.         Taranaki                                :County
STATE.                                                 :State
CTRY.         New Zealand                             :Country
DATE.                                                 :Log Date
SRVC.                                                 :Service Company
UWI .                                                 :Unique Well Identifier
API .                                                 :API Number
FL1 .         5639460.731                             :Field Loc. 1 / Northing
FL2 .         1712320.438                             :Field Loc. 2 / Easting
LATI.         039 23' 13.335" N    DMS                :Latitude
LONG.         174 18' 15.262" E    DMS                :Longtitude
PD  .         MSL                                     :Permanent Datum
EPD .M             0.000                              :Elevation
EDF .M           269.800                              :Elevations D.F.
EGL .M           264.650                              :Elevations G.L.
ELZ .M           269.800                              :Elev. Log Zero
APD .M           269.800                              :Above Permanent Datum
LMF .         DF                                      :Log Measured From

~Curve Information
#MNEM   .UNIT             API CODE Curve Description
#------------             -------- -----------------
DEPT    .M            00 001 00 00:   0  Depth
DT      .US/F         60 520 32 01:  22  Delta-T (also called Slowness or Interval Transit Time)
ECGR    .API          30 150 01 01:  23  Environmentally Corrected Gamma Ray
GR      .API          30 150 01 01:  24  Gamma Ray
NPHI    .V/V          42 890 01 01:  25  Thermal Neutron Porosity (original Ratio Method) in Selected Lithology
NPOR    .V/V          42 890 01 01:  26  Enhanced Thermal Neutron Porosity in Selected Lithology
TNPH    .V/V          42 890 01 01:  27  Thermal Neutron Porosity (Ratio Method) in Selected Lithology
TENS    .lbf          84 635 11 01:  28  Cable Tension
BS      .INCH         00 000 00 00:  29  Bit Size
SP      .MV           05 010 01 01:  30  Spontaneous Potential
EHGR    .API          00 000 00 00:  31  High Resolution Corrected Gamma Ray
HGR     .API          30 150 01 01:  32  High Resolution Gamma Ray
HTNP    .V/V          00 000 00 00:  33  High Resolution Thermal Neutron Porosity (Ratio Method) in Selected Lithology
HDRA    .G/CC         45 356 01 01:  34  Density Standoff Correction
RHOZ    .G/CC         45 350 01 01:  35  Standard Resolution Formation Density
RLA0    .OHMM         00 000 00 00:  36  Apparent Resistivity from Computed Focusing Mode 0
RM_HRLT .OHMM         00 000 00 00:  37  HRLT Computed Mud Resistivity
RLA5    .OHMM         00 000 00 00:  38  Apparent Resistivity from Computed Focusing Mode 5
RT_HRLT .OHMM         00 000 00 00:  39  HRLT True Formation Resistivity
RLA3    .OHMM         00 000 00 00:  40  Apparent Resistivity from Computed Focusing Mode 3
RXO_HRLT.OHMM         00 000 00 00:  41  HRLT Invaded Zone Resistivity
RXO8    .OHMM         00 000 00 00:  42  Invaded Formation Resistivity filtered at 8 inches
RHO8    .G/CC         45 350 01 01:  43  High Resolution Formation Density
PEF8    .B/E          00 000 00 00:  44  High Resolution Formation Photoelectric Factor
RSO8    .INCH         00 000 00 00:  45  Resistivity Standoff High Resolution
PEFZ    .B/E          45 358 01 01:  46  Standard Resolution Formation Photoelectric Factor
RSOZ    .INCH         00 000 00 00:  47  Resistivity Standoff Standard Resolution
RLA4    .OHMM         00 000 00 00:  48  Apparent Resistivity from Computed Focusing Mode 4
RLA2    .OHMM         00 000 00 00:  49  Apparent Resistivity from Computed Focusing Mode 2
RXOZ    .OHMM         00 000 00 00:  50  Invaded Formation Resistivity filtered at 18 inches
DSO8    .INCH         00 000 00 00:  51  High Resolution Density Standoff
RLA1    .OHMM         95 220 00 01:  52  Apparent Resistivity from Computed Focusing Mode 1
HCAL    .INCH         70 280 00 01:  53  HRCC Caliper Calibrated

~Parameter Information
#MNEM.UNIT       Value           Description
#------------    -----           -----------
RUN .         1                 :Run Number
DATE.         03-Mar-2012       :Date
TDD .M        1577.000          :Depth Driller
TDL .M        1388.000          :Depth Logger
BLI .M        108.890           :First Reading
TLI .M        1392.940          :Last Reading
CBD .M        277.000           :Casing Driller
CBL .M        278.000           :Casing Logger
CS  .IN       9.625             :Casing Size
CW1 .LBCF     47.000            :Casing Weight
BS  .IN       8.500             :Bit Size
BSDF.M        208.500           :Bit Size Depth From
BSDT.M        1577.000          :Bit Size Depth To
DFT .         Water             :Hole Fluid Type
DFD .G/C3     1.108             :Density
DFV .SEC      61.000            :Viscosity
DFPH.         9.5               :pH
DFL .C3       6.000             :Fluid Loss
MSS .         Active Tank       :Sample Source
RM  .OHMM     0.124             :Rm @ Measured Temperature
RMT .DEGC     26.300            :Mud temp @ Surface
RMF .OHMM     0.093             :Rmf @ Measured Temperature
RMFT.DEGC     26.300            :MF temp @ Surface
RMC .OHMM     0.140             :RMC @ Measured Temperature
RMCT.DEGC     26.500            :MC temp @ Surface
MFSS.         Calculated        :Source Rmf
MCSS.         Pressed           :Source Rmc
RMB .OHMM     0.049             :Rm @ BHT
MST .DEGC     100.000           :Rm temp @ Bottom
RMFB.OHMM     0.037             :Rmf @ BHT
MFST.DEGC     100.000           :Rmf temp @ Bottom
RMCB.OHMM     0.060             :Rmc @ BHT
MCST.DEGC     100.000           :Rmc temp @ Bottom
TCS .         202000            :Time Since Circulation
DCS .         03-Mar-2012       :Date circ. stopped
TLAB.         004411            :Tool on Bottom
DLAB.         04-Mar-2012       :Date logger at btm
BHT .DEGC     40.630            :Bottom Hole Temperature
LUN .         2268              :Equipment No.
LUL .         NZNP              :Base Location
LCC .         440               :Logging Company ID
ENGI.         Jessica Riese     :Recorded By
WITN.         Graeme Timmis     :Witnessed By
RUN .         2                 :Run Number
DATE.         04-Mar-2012       :Date
TDD .M        1577.000          :Depth Driller
TDL .M        1574.000          :Depth Logger
BLI .M        108.890           :First Reading
TLI .M        1576.340          :Last Reading
CBD .M        277.000           :Casing Driller
CBL .M        278.000           :Casing Logger
CS  .IN       9.625             :Casing Size
CW1 .LB/FT    47.000            :Casing Weight
BS  .IN       8.500             :Bit Size
BSDF.M        208.500           :Bit Size Depth From
BSDT.M        1577.000          :Bit Size Depth To
DFT .         Water             :Hole Fluid Type
DFD .G/C3     1.108             :Density
DFV .SEC      61.000            :Viscosity
DFPH.         9.5               :pH
DFL .C3       6.000             :Fluid Loss
MSS .         Active Tank       :Sample Source
RM  .OHMM     0.124             :Rm @ Measured Temperature
RMT .DEGC     26.300            :Mud temp @ Surface
RMF .OHMM     0.093             :Rmf @ Measured Temperature
RMFT.DEGC     26.300            :MF temp @ Surface
RMC .OHMM     0.140             :RMC @ Measured Temperature
RMCT.DEGC     26.500            :MC temp @ Surface
MFSS.         Calculated        :Source Rmf
MCSS.         Pressed           :Source Rmc
RMB .OHMM     0.049             :Rm @ BHT
MST .DEGC     100.000           :Rm temp @ Bottom
RMFB.OHMM     0.037             :Rmf @ BHT
MFST.DEGC     100.000           :Rmf temp @ Bottom
RMCB.OHMM     0.060             :Rmc @ BHT
MCST.DEGC     100.000           :Rmc temp @ Bottom
TCS .         202000            :Time Since Circulation
DCS .         03-Mar-2012       :Date circ. stopped
TLAB.         063203            :Tool on Bottom
DLAB.         05-Mar-2012       :Date logger at btm
SHT .DEGC     16.000            :Surface hole temp
BHT .DEGC     41.600            :Bottom Hole Temperature
LUN .         2268              :Equipment No.
LUL .         NZNP              :Base Location
LCC .         440               :Logging Company ID
ENGI.         Jessica Riese     :Recorded By
WITN.         Graeme Timmis     :Witnessed By

~Other Information
Cheal A10_RUN2:
Log objective: Log PEX-HRLA-BHC-SP in 8.5" open hole section.
TD not tagged, lowest depth reached was 1388m.
Toolstring run with bowspring and 7x 1.5" standoffs as per toolsketch.
Log spliced between 1299-1321m
All wellsite data provided by client.
Maximum recorded temperature was 40.6degC recorded by head thermometers.

#
# --- LOG MNEMONICS ---
#
#Depth    
#DT         ECGR       GR         NPHI       NPOR       TNPH       TENS      
#BS         SP         EHGR       HGR        HTNP       HDRA       RHOZ      
#RLA0       RM_HRLT    RLA5       RT_HRLT    RLA3       RXO_HRLT   RXO8      
#RHO8       PEF8       RSO8       PEFZ       RSOZ       RLA4       RLA2      
#RXOZ       DSO8       RLA1       HCAL      
#
# --- LOG UNITS ---
#
#M        
#US/F       API        API        V/V        V/V        V/V        lbf       
#INCH       MV         API        API        V/V        G/CC       G/CC      
#OHMM       OHMM       OHMM       OHMM       OHMM       OHMM       OHMM      
#G/CC       B/E        INCH       B/E        INCH       OHMM       OHMM      
#OHMM       INCH       OHMM       INCH      

~A
# ...
   680.161
    114.550    110.856    112.845      0.386      0.436      0.431   1602.733
      8.500   -118.583    105.094    106.980      0.436     -0.006      2.281
      0.075      0.069     14.853     17.199     13.028      7.239      1.977
      2.294      2.913      0.068      2.951      0.067     13.641     12.234
      1.977      0.057     10.966      8.179
   680.314
    114.879    111.190    112.963      0.366      0.405      0.417   1609.867
      8.500   -118.900    116.039    117.889      0.429     -0.004      2.286
      0.075      0.069     17.426     20.454     15.296      8.052      2.318
      2.284      2.958      0.070      2.948      0.068     16.074     14.438
      2.222      0.050     12.616      8.225
   680.466
    115.045    110.598    112.142      0.353      0.411      0.397   1622.133
      8.500   -119.037    105.508    106.980      0.405     -0.002      2.285
      0.075      0.069     14.676     17.303     12.907      6.714      2.306
      2.285      2.964      0.067      2.938      0.067     13.546     12.104
      2.205      0.026     10.569      8.240
   680.618
    114.772    112.510    114.605      0.350      0.372      0.379   1649.933
      8.500   -118.792    115.043    117.185      0.369     -0.001      2.282
      0.073      0.068     12.273     14.454     10.822      5.782      1.886
      2.279      2.962      0.064      2.918      0.067     11.333     10.037
      1.946      0.014      8.888      8.225
   680.771
    114.494    110.752    112.963      0.340      0.368      0.371   1597.733
      8.500   -118.692    114.548    116.834      0.373     -0.001      2.278
      0.073      0.067     13.462     16.018     11.884      6.070      1.717
      2.267      2.870      0.071      2.886      0.069     12.423     10.746
      1.754     -0.004      9.561      8.141
   680.923
    114.256    116.099    118.124      0.369      0.379      0.362   1642.400
      8.500   -118.325    114.139    116.131      0.359      0.001      2.278
      0.072      0.067     12.637     15.030     11.205      5.748      1.680
      2.277      2.874      0.074      2.846      0.080     11.691     10.105
      1.703     -0.009      9.028      8.294
   681.076
    114.193    116.963    119.062      0.373      0.377      0.384   1642.812
      8.500   -117.988    117.193    119.297      0.379      0.006      2.273
      0.072      0.067     13.534     16.363     11.981      5.782      1.714
      2.286      2.762      0.103      2.838      0.117     12.592     10.976
      1.732     -0.001      9.395      8.214
   681.228
    114.316    118.689    120.939      0.374      0.394      0.390   1617.214
      8.500   -117.664    115.005    117.185      0.391      0.018      2.267
      0.073      0.066     16.319     20.170     14.390      6.183      1.789
      2.264      2.844      0.192      2.867      0.170     15.227     13.279
      1.808      0.058     10.767      8.260
   681.380
    114.518    115.715    118.967      0.357      0.392      0.396   1636.563
      8.500   -117.287    113.640    116.834      0.398      0.032      2.265
      0.074      0.065     15.527     19.309     13.679      5.671      1.835
      2.270      2.849      0.227      2.903      0.206     14.484     12.626
      1.764      0.140     10.086      7.983
   681.533
    114.610    118.458    121.665      0.372      0.363      0.380   1640.000
      8.500   -117.079    115.466    118.593      0.392      0.043      2.267
      0.073      0.064     12.220     15.028     10.833      4.860      1.656
      2.285      3.037      0.191      2.914      0.208     11.407      9.908
      1.685      0.177      8.218      7.957
   681.685
    114.601    116.973    120.140      0.387      0.412      0.403   1596.467
      8.500   -116.717    120.549    123.813      0.392      0.044      2.272
      0.072      0.064     11.510     14.176     10.210      4.569      1.592
      2.294      2.823      0.189      2.897      0.189     10.738      9.238
      1.538      0.155      7.716      7.972
   681.838
    114.545    115.810    118.828      0.376      0.440      0.416   1584.400
      8.500   -116.558    113.410    116.365      0.415      0.041      2.276
      0.072      0.064     10.668     13.008      9.470      4.440      1.460
      2.273      2.915      0.165      2.877      0.171      9.935      8.560
      1.511      0.121      7.302      7.995
   681.990
    114.470    112.152    115.074      0.373      0.373      0.389   1601.800
      8.500   -116.683    120.040    123.168      0.408      0.039      2.282
      0.072      0.064     12.685     15.802     11.208      4.674      1.547
      2.254      2.812      0.143      2.872      0.140     11.833     10.183
      1.521      0.075      8.235      8.003
   682.142
    114.402    118.129    121.408      0.382      0.388      0.390   1585.733
      8.500   -116.792    110.254    113.314      0.385      0.035      2.283
      0.073      0.064     12.330     15.405     10.921      4.428      1.574
      2.271      2.892      0.121      2.880      0.124     11.512     10.046
      1.563      0.072      7.953      8.049
   682.295
    114.507    119.795    123.285      0.405      0.418      0.410   1642.267
      8.500   -116.646    121.734    125.280      0.398      0.028      2.281
      0.074      0.064     13.282     16.751     11.777      4.502      1.534
      2.283      2.895      0.114      2.893      0.111     12.385     10.806
      1.555      0.092      8.349      7.934
   682.447
    114.675    119.300    122.347      0.390      0.417      0.436   1632.267
      8.500   -116.676    129.364    132.668      0.419      0.016      2.274
      0.073      0.064     13.260     16.702     11.791      4.543      1.566
      2.285      2.918      0.100      2.889      0.097     12.334     10.693
      1.567      0.050      8.363      7.949
   682.600
    114.872    114.972    117.655      0.381      0.436      0.425   1598.375
      8.500   -116.692    110.731    113.315      0.430      0.008      2.273
      0.072      0.066     12.291     15.389     10.989      4.449      1.634
      2.286      2.860      0.082      2.863      0.082     11.434      9.903
      1.603      0.038      7.925      8.033
   682.752
    115.283    114.749    115.896      0.390      0.413      0.412   1614.667
      8.500   -116.708    112.543    113.667      0.414      0.003      2.274
      0.070      0.067     12.334     15.364     10.996      4.611      1.621
      2.276      2.801      0.071      2.845      0.073     11.487      9.896
      1.600     -0.001      8.056      8.317
   682.904
    115.016    117.359    118.358      0.404      0.424      0.421   1648.400
      8.500   -116.733    116.196    117.186      0.427      0.001      2.271
      0.071      0.067     12.074     14.995     10.698      4.586      1.562
      2.271      2.866      0.066      2.864      0.068     11.258      9.714
      1.582     -0.021      7.921      8.348
   683.057
    115.072    115.850    118.124      0.415      0.442      0.440   1606.133
      8.500   -116.733    112.859    115.074      0.438      0.001      2.268
      0.071      0.066     13.353     16.584     11.727      5.025      1.584
      2.274      2.885      0.067      2.897      0.071     12.454     10.706
      1.591     -0.002      8.704      8.317
   683.209
    115.057    113.519    116.129      0.404      0.446      0.446   1612.267
      8.500   -117.042    115.927    118.593      0.441      0.002      2.267
      0.072      0.065     13.416     16.590     11.792      5.130      1.614
      2.273      2.892      0.076      2.929      0.072     12.504     10.788
      1.575      0.029      8.836      8.052
   683.362
    114.790    111.613    114.180      0.403      0.439      0.431   1591.933
      8.500   -117.450    116.442    119.120      0.434      0.003      2.272
      0.072      0.064     11.681     14.268     10.326      4.797      1.570
      2.259      2.935      0.074      2.931      0.075     10.875      9.423
      1.639     -0.011      7.941      8.064
