~Version Information
VERS.                     2.0: CWLS log ASCII Standard Version 2.00
WRAP.                     YES: Multiple lines per depth step

~Well Information Block
#MNEM.UNIT                 Value                       Information
#------------              -----                       -----------
STRT.M                      83.363                    :START
STOP.M                    1576.273                    :STOP
STEP.M                       0.152                    :STEP
NULL.                     -999.25                     :NULL VALUE
COMP.         TAG Oil                                 :Company
WELL.         Cheal-A10                               :Well
FLD .                                                 :Field Name
LOC .         Geodetic Datum 2000                     :Location
PROV.                                                 :Province
CNTY.         Taranaki                                :County
STATE.                                                 :State
CTRY.         New Zealand                             :Country
DATE.                                                 :Log Date
SRVC.                                                 :Service Company
UWI .                                                 :Unique Well Identifier
API .                                                 :API Number
FL1 .         5639460.731                             :Field Loc. 1 / Northing
FL2 .         1712320.438                             :Field Loc. 2 / Easting
LATI.         039 23' 13.335" N    DMS                :Latitude
LONG.         174 18' 15.262" E    DMS                :Longtitude
PD  .         MSL                                     :Permanent Datum
EPD .M             0.000                              :Elevation
EDF .M           269.800                              :Elevations D.F.
EGL .M           264.650                              :Elevations G.L.
ELZ .M           269.800                              :Elev. Log Zero
APD .M           269.800                              :Above Permanent Datum
LMF .         DF                                      :Log Measured From

~Curve Information
#MNEM   .UNIT             API CODE Curve Description
#------------             -------- -----------------
DEPT    .M            00 001 00 00:   0  Depth
DT      .US/F         60 520 32 01:  22  Delta-T (also called Slowness or Interval Transit Time)
ECGR    .API          30 150 01 01:  23  Environmentally Corrected Gamma Ray
GR      .API          30 150 01 01:  24  Gamma Ray
NPHI    .V/V          42 890 01 01:  25  Thermal Neutron Porosity (original Ratio Method) in Selected Lithology
NPOR    .V/V          42 890 01 01:  26  Enhanced Thermal Neutron Porosity in Selected Lithology
TNPH    .V/V          42 890 01 01:  27  Thermal Neutron Porosity (Ratio Method) in Selected Lithology
TENS    .lbf          84 635 11 01:  28  Cable Tension
BS      .INCH         00 000 00 00:  29  Bit Size
SP      .MV           05 010 01 01:  30  Spontaneous Potential
EHGR    .API          00 000 00 00:  31  High Resolution Corrected Gamma Ray
HGR     .API          30 150 01 01:  32  High Resolution Gamma Ray
HTNP    .V/V          00 000 00 00:  33  High Resolution Thermal Neutron Porosity (Ratio Method) in Selected Lithology
HDRA    .G/CC         45 356 01 01:  34  Density Standoff Correction
RHOZ    .G/CC         45 350 01 01:  35  Standard Resolution Formation Density
RLA0    .OHMM         00 000 00 00:  36  Apparent Resistivity from Computed Focusing Mode 0
RM_HRLT .OHMM         00 000 00 00:  37  HRLT Computed Mud Resistivity
RLA5    .OHMM         00 000 00 00:  38  Apparent Resistivity from Computed Focusing Mode 5
RT_HRLT .OHMM         00 000 00 00:  39  HRLT True Formation Resistivity
RLA3    .OHMM         00 000 00 00:  40  Apparent Resistivity from Computed Focusing Mode 3
RXO_HRLT.OHMM         00 000 00 00:  41  HRLT Invaded Zone Resistivity
RXO8    .OHMM         00 000 00 00:  42  Invaded Formation Resistivity filtered at 8 inches
RHO8    .G/CC         45 350 01 01:  43  High Resolution Formation Density
PEF8    .B/E          00 000 00 00:  44  High Resolution Formation Photoelectric Factor
RSO8    .INCH         00 000 00 00:  45  Resistivity Standoff High Resolution
PEFZ    .B/E          45 358 01 01:  46  Standard Resolution Formation Photoelectric Factor
RSOZ    .INCH         00 000 00 00:  47  Resistivity Standoff Standard Resolution
RLA4    .OHMM         00 000 00 00:  48  Apparent Resistivity from Computed Focusing Mode 4
RLA2    .OHMM         00 000 00 00:  49  Apparent Resistivity from Computed Focusing Mode 2
RXOZ    .OHMM         00 000 00 00:  50  Invaded Formation Resistivity filtered at 18 inches
DSO8    .INCH         00 000 00 00:  51  High Resolution Density Standoff
RLA1    .OHMM         95 220 00 01:  52  Apparent Resistivity from Computed Focusing Mode 1
HCAL    .INCH         70 280 00 01:  53  HRCC Caliper Calibrated

~Parameter Information
#MNEM.UNIT       Value           Description
#------------    -----           -----------
RUN .         1                 :Run Number
DATE.         03-Mar-2012       :Date
TDD .M        1577.000          :Depth Driller
TDL .M        1388.000          :Depth Logger
BLI .M        108.890           :First Reading
TLI .M        1392.940          :Last Reading
CBD .M        277.000           :Casing Driller
CBL .M        278.000           :Casing Logger
CS  .IN       9.625             :Casing Size
CW1 .LBCF     47.000            :Casing Weight
BS  .IN       8.500             :Bit Size
BSDF.M        208.500           :Bit Size Depth From
BSDT.M        1577.000          :Bit Size Depth To
DFT .         Water             :Hole Fluid Type
DFD .G/C3     1.108             :Density
DFV .SEC      61.000            :Viscosity
DFPH.         9.5               :pH
DFL .C3       6.000             :Fluid Loss
MSS .         Active Tank       :Sample Source
RM  .OHMM     0.124             :Rm @ Measured Temperature
RMT .DEGC     26.300            :Mud temp @ Surface
RMF .OHMM     0.093             :Rmf @ Measured Temperature
RMFT.DEGC     26.300            :MF temp @ Surface
RMC .OHMM     0.140             :RMC @ Measured Temperature
RMCT.DEGC     26.500            :MC temp @ Surface
MFSS.         Calculated        :Source Rmf
MCSS.         Pressed           :Source Rmc
RMB .OHMM     0.049             :Rm @ BHT
MST .DEGC     100.000           :Rm temp @ Bottom
RMFB.OHMM     0.037             :Rmf @ BHT
MFST.DEGC     100.000           :Rmf temp @ Bottom
RMCB.OHMM     0.060             :Rmc @ BHT
MCST.DEGC     100.000           :Rmc temp @ Bottom
TCS .         202000            :Time Since Circulation
DCS .         03-Mar-2012       :Date circ. stopped
TLAB.         004411            :Tool on Bottom
DLAB.         04-Mar-2012       :Date logger at btm
BHT .DEGC     40.630            :Bottom Hole Temperature
LUN .         2268              :Equipment No.
LUL .         NZNP              :Base Location
LCC .         440               :Logging Company ID
ENGI.         Jessica Riese     :Recorded By
WITN.         Graeme Timmis     :Witnessed By
RUN .         2                 :Run Number
DATE.         04-Mar-2012       :Date
TDD .M        1577.000          :Depth Driller
TDL .M        1574.000          :Depth Logger
BLI .M        108.890           :First Reading
TLI .M        1576.340          :Last Reading
CBD .M        277.000           :Casing Driller
CBL .M        278.000           :Casing Logger
CS  .IN       9.625             :Casing Size
CW1 .LB/FT    47.000            :Casing Weight
BS  .IN       8.500             :Bit Size
BSDF.M        208.500           :Bit Size Depth From
BSDT.M        1577.000          :Bit Size Depth To
DFT .         Water             :Hole Fluid Type
DFD .G/C3     1.108             :Density
DFV .SEC      61.000            :Viscosity
DFPH.         9.5               :pH
DFL .C3       6.000             :Fluid Loss
MSS .         Active Tank       :Sample Source
RM  .OHMM     0.124             :Rm @ Measured Temperature
RMT .DEGC     26.300            :Mud temp @ Surface
RMF .OHMM     0.093             :Rmf @ Measured Temperature
RMFT.DEGC     26.300            :MF temp @ Surface
RMC .OHMM     0.140             :RMC @ Measured Temperature
RMCT.DEGC     26.500            :MC temp @ Surface
MFSS.         Calculated        :Source Rmf
MCSS.         Pressed           :Source Rmc
RMB .OHMM     0.049             :Rm @ BHT
MST .DEGC     100.000           :Rm temp @ Bottom
RMFB.OHMM     0.037             :Rmf @ BHT
MFST.DEGC     100.000           :Rmf temp @ Bottom
RMCB.OHMM     0.060             :Rmc @ BHT
MCST.DEGC     100.000           :Rmc temp @ Bottom
TCS .         202000            :Time Since Circulation
DCS .         03-Mar-2012       :Date circ. stopped
TLAB.         063203            :Tool on Bottom
DLAB.         05-Mar-2012       :Date logger at btm
SHT .DEGC     16.000            :Surface hole temp
BHT .DEGC     41.600            :Bottom Hole Temperature
LUN .         2268              :Equipment No.
LUL .         NZNP              :Base Location
LCC .         440               :Logging Company ID
ENGI.         Jessica Riese     :Recorded By
WITN.         Graeme Timmis     :Witnessed By

~Other Information
Cheal A10_RUN2:
Log objective: Log PEX-HRLA-BHC-SP in 8.5" open hole section.
TD not tagged, lowest depth reached was 1388m.
Toolstring run with bowspring and 7x 1.5" standoffs as per toolsketch.
Log spliced between 1299-1321m
All wellsite data provided by client.
Maximum recorded temperature was 40.6degC recorded by head thermometers.

#
# --- LOG MNEMONICS ---
#
#Depth    
#DT         ECGR       GR         NPHI       NPOR       TNPH       TENS      
#BS         SP         EHGR       HGR        HTNP       HDRA       RHOZ      
#RLA0       RM_HRLT    RLA5       RT_HRLT    RLA3       RXO_HRLT   RXO8      
#RHO8       PEF8       RSO8       PEFZ       RSOZ       RLA4       RLA2      
#RXOZ       DSO8       RLA1       HCAL      
#
# --- LOG UNITS ---
#
#M        
#US/F       API        API        V/V        V/V        V/V        lbf       
#INCH       MV         API        API        V/V        G/CC       G/CC      
#OHMM       OHMM       OHMM       OHMM       OHMM       OHMM       OHMM      
#G/CC       B/E        INCH       B/E        INCH       OHMM       OHMM      
#OHMM       INCH       OHMM       INCH      

~A
# ...
  1558.595
     97.240    170.209    170.632      0.385      0.351      0.360   3177.867
      8.500    -35.205    168.649    169.069    -999.25    -999.25    -999.25
      0.091      0.026      3.618      4.115      3.413      1.936      0.238
    -999.25    -999.25      0.211    -999.25      0.212      3.480      3.303
      0.238    -999.25      2.942      3.788
  1558.747
     96.098    170.209    170.632      0.385      0.351      0.360   3195.467
      8.500    -35.127    168.649    169.069    -999.25    -999.25    -999.25
      0.093      0.027      3.672      4.217      3.465      1.906      0.238
    -999.25    -999.25      0.214    -999.25      0.214      3.533      3.352
      0.238    -999.25      2.949      3.796
  1558.900
     95.856    170.209    170.632      0.385      0.351      0.360   3121.563
      8.500    -35.332    168.649    169.069    -999.25    -999.25    -999.25
      0.096      0.027      3.695      4.301      3.503      1.877      0.238
    -999.25    -999.25      0.215    -999.25      0.215      3.566      3.382
      0.238    -999.25      2.929      3.788
  1559.052
     95.096    170.209    170.632      0.385      0.351      0.360   3131.400
      8.500    -35.023    168.649    169.069    -999.25    -999.25    -999.25
      0.097      0.028      3.797      4.492      3.543      1.738      0.237
    -999.25    -999.25      0.216    -999.25      0.215      3.595      3.402
      0.237    -999.25      2.855      3.796
  1559.204
     95.154    170.209    170.632      0.385      0.351      0.360   3153.133
      8.500    -35.048    168.649    169.069    -999.25    -999.25    -999.25
      0.096      0.028      3.771      4.529      3.565      1.701      0.235
    -999.25    -999.25      0.215    -999.25      0.215      3.639      3.401
      0.236    -999.25      2.836      3.788
  1559.357
     95.564    170.209    170.632      0.385      0.351      0.360   3107.133
      8.500    -35.169    168.649    169.069    -999.25    -999.25    -999.25
      0.093      0.027      3.623      4.375      3.440      1.597      0.235
    -999.25    -999.25      0.215    -999.25      0.216      3.505      3.277
      0.235    -999.25      2.709      3.796
  1559.509
     95.592    170.209    170.632      0.385      0.351      0.360   3145.733
      8.500    -34.819    168.649    169.069    -999.25    -999.25    -999.25
      0.092      0.027      3.564      4.335      3.380      1.517      0.236
    -999.25    -999.25      0.217    -999.25      0.220      3.454      3.222
      0.238    -999.25      2.630      3.799
  1559.662
     94.053    170.209    170.632      0.385      0.351      0.360   3149.000
      8.500    -34.510    168.649    169.069    -999.25    -999.25    -999.25
      0.091      0.030      3.569      4.276      3.397      1.534      0.244
    -999.25    -999.25      0.226    -999.25      0.224      3.467      3.261
      0.242    -999.25      2.711      3.788
  1559.814
     93.927    170.209    170.632      0.385      0.351      0.360   3093.600
      8.500    -34.811    168.649    169.069    -999.25    -999.25    -999.25
      0.093      0.046      3.594      4.288      3.456      1.583      0.255
    -999.25    -999.25      0.242    -999.25      0.229      3.507      3.333
      0.246    -999.25      2.767      3.792
  1559.966
     95.531    170.209    170.632      0.385      0.351      0.360   3169.533
      8.500    -34.586    168.649    169.069    -999.25    -999.25    -999.25
      0.094      0.065      3.770      4.490      3.673      1.737      0.264
    -999.25    -999.25      0.248    -999.25      0.248      3.701      3.546
      0.264    -999.25      2.952      3.796
  1560.119
     95.531    170.209    170.632      0.385      0.351      0.360   3270.067
      8.500    -34.586    -999.25    -999.25    -999.25    -999.25    -999.25
    -999.25    -999.25    -999.25    -999.25    -999.25    -999.25    -999.25
    -999.25    -999.25    -999.25    -999.25    -999.25    -999.25    -999.25
    -999.25    -999.25    -999.25      3.796
  1560.271
     95.531    170.209    170.632      0.385      0.351      0.360   3249.438
      8.500    -34.586    -999.25    -999.25    -999.25    -999.25    -999.25
    -999.25    -999.25    -999.25    -999.25    -999.25    -999.25    -999.25
    -999.25    -999.25    -999.25    -999.25    -999.25    -999.25    -999.25
    -999.25    -999.25    -999.25      3.796
  1560.424
     95.531    170.209    170.632      0.385      0.351      0.360   3164.800
      8.500    -34.586    -999.25    -999.25    -999.25    -999.25    -999.25
    -999.25    -999.25    -999.25    -999.25    -999.25    -999.25    -999.25
    -999.25    -999.25    -999.25    -999.25    -999.25    -999.25    -999.25
    -999.25    -999.25    -999.25      3.796
  1560.576
     95.531    170.209    170.632      0.385      0.351      0.360   3248.733
      8.500    -34.586    -999.25    -999.25    -999.25    -999.25    -999.25
    -999.25    -999.25    -999.25    -999.25    -999.25    -999.25    -999.25
    -999.25    -999.25    -999.25    -999.25    -999.25    -999.25    -999.25
    -999.25    -999.25    -999.25      3.796
  1560.728
     95.531    170.209    170.632      0.385      0.351      0.360   3289.000
      8.500    -34.586    -999.25    -999.25    -999.25    -999.25    -999.25
    -999.25    -999.25    -999.25    -999.25    -999.25    -999.25    -999.25
    -999.25    -999.25    -999.25    -999.25    -999.25    -999.25    -999.25
    -999.25    -999.25    -999.25      3.796
  1560.881
     95.531    170.209    170.632      0.385      0.351      0.360   3215.800
      8.500    -34.586    -999.25    -999.25    -999.25    -999.25    -999.25
    -999.25    -999.25    -999.25    -999.25    -999.25    -999.25    -999.25
    -999.25    -999.25    -999.25    -999.25    -999.25    -999.25    -999.25
    -999.25    -999.25    -999.25      3.796
  1561.033
     95.531    170.209    170.632      0.385      0.351      0.360   3149.750
      8.500    -34.586    -999.25    -999.25    -999.25    -999.25    -999.25
    -999.25    -999.25    -999.25    -999.25    -999.25    -999.25    -999.25
    -999.25    -999.25    -999.25    -999.25    -999.25    -999.25    -999.25
    -999.25    -999.25    -999.25      3.796
  1561.186
     95.531    170.209    170.632      0.385      0.351      0.360   3279.812
      8.500    -34.586    -999.25    -999.25    -999.25    -999.25    -999.25
    -999.25    -999.25    -999.25    -999.25    -999.25    -999.25    -999.25
    -999.25    -999.25    -999.25    -999.25    -999.25    -999.25    -999.25
    -999.25    -999.25    -999.25      3.796
  1561.338
     95.531    170.209    170.632      0.385      0.351      0.360   3237.667
      8.500    -34.586    -999.25    -999.25    -999.25    -999.25    -999.25
    -999.25    -999.25    -999.25    -999.25    -999.25    -999.25    -999.25
    -999.25    -999.25    -999.25    -999.25    -999.25    -999.25    -999.25
    -999.25    -999.25    -999.25      3.796
  1561.490
     95.531    170.209    170.632      0.385      0.351      0.360   3222.875
      8.500    -34.586    -999.25    -999.25    -999.25    -999.25    -999.25
    -999.25    -999.25    -999.25    -999.25    -999.25    -999.25    -999.25
    -999.25    -999.25    -999.25    -999.25    -999.25    -999.25    -999.25
    -999.25    -999.25    -999.25      3.796
  1561.643
     95.531    170.209    170.632      0.385      0.351      0.360   3190.267
      8.500    -34.586    -999.25    -999.25    -999.25    -999.25    -999.25
    -999.25    -999.25    -999.25    -999.25    -999.25    -999.25    -999.25
    -999.25    -999.25    -999.25    -999.25    -999.25    -999.25    -999.25
    -999.25    -999.25    -999.25      3.796
  1561.795
     95.531    170.209    170.632      0.385      0.351      0.360   3163.875
      8.500    -34.586    -999.25    -999.25    -999.25    -999.25    -999.25
    -999.25    -999.25    -999.25    -999.25    -999.25    -999.25    -999.25
    -999.25    -999.25    -999.25    -999.25    -999.25    -999.25    -999.25
    -999.25    -999.25    -999.25      3.796
