~VERSION INFORMATION 
VERS  .    2.0                                     :CWLS Log ASCII Standard - VERSION2.0
WRAP  .    NO                                      :One Line per Depth step
DLM   .    SPACE                                   :Column Data section Delimiter
PROD  .    Schlumberger Technology Corp.           :LAS Producer
PROG  .    Horizon LASWriter 3.0.9609.0            :LAS Program name and version
SOURCE.    Composite 1 (PEX-HRLA-BHC-SP-Log[5]/Up + PEX-HRLA-BHC-SP 2-Main[2]/Up):Run&Pass Information
CREA  .    03/21/2012                              :LAS Creation date {MM/DD/YYYY}
#--------------------------------------------------
~WELL INFORMATION 
#MNEM           .UNIT                      DATA            :DESCRIPTION
#----            ------          --------------            -----------------------------
STRT            .m                     83.36280            :START DEPTH
STOP            .m                   1576.27320            :STOP DEPTH
STEP            .m                       0.1524            :STEP
NULL            .                       -999.25            :NULL VALUE
COMP            .                       TAG Oil            :COMPANY
WELL            .                    Cheal A-10            :WELL NAME
FLD             .                         Cheal            :FIELD NAME
RIGN            .                     Ensign 19            :Rig Name
RIGTYP          .                       -999.25            :Rig Type
SON             .                       -999.25            :Service Order Number
SRVC            .                  Schlumberger            :SERVICE COMPANY
DATE            .                    03/06/2012            :LOG DATE(Composite Date for Composite LAP) (MM/DD/YYYY)
CLAB            .                       -999.25            :County Label
CNTY            .                       -999.25            :COUNTY
SLAB            .                       Region:            :State/Province Label
STAT            .                      Taranaki            :STATE or PROVINCE
PROV            .                      Taranaki            :STATE or PROVINCE
CTRY            .                   New Zealand            :COUNTRY
CONT_REGION     .                       -999.25            :Continent Region
SECT            .                       -999.25            :Section
TOWN            .                       -999.25            :Township
RANG            .                       -999.25            :Range
API             .                       -999.25            :API NUMBER
UWI             .                     PMP 38156            :UNIQUE WELL ID
LUL             .                          NZNP            :Logging Unit Location
LUN             .                          2268            :Logging Unit Number
LOC             .                       -999.25            :FIELD LOCATION
FL1             .                       -999.25            :Field Location Line 1
FL2             .                       -999.25            :Field Location Line 2
LATI            .deg             39° 23' 19.653" S         :LATITUDE
LONG            .deg             174° 18' 14.524" E        :LONGITUDE
PDAT            .                           MSL            :Local Permanent Datum
LMF             .                            DF            :Logging Measured From
APD             .m                    269.80000            :Elevation of Depth Reference (LMF) Above Permanent Datum
EPD             .m                      0.00000            :Elevation of Permanent Datum (PDAT) above Mean Sea Level
EKB             .m                      -999.25            :Elevation of Kelly Bushing Above Permanent Datum
EDF             .m                    269.80000            :Elevation of Drill Floor Above Permanent Datum
EGL             .m                    265.00000            :Elevation of Ground Level Above Permanent Datum
ECF             .m                      -999.25            :Elevation of Casing Flange above Permanent Datum
#--------------------------------------------------
~CURVE INFORMATION
#MNEM           .UNIT                  API CODE            :DESCRIPTION
#----            ------          --------------            -----------------------------
DEPT            .m                                         :                                                        Depth Index
CALI            .in                                        :        (HDRS[1])               (1in)                   Caliper
BS              .in                                        :        (Borehole)              (6in)                   Bit Size
GR              .gAPI                                      :        (HGNS[1])               (2in)                   Gamma Ray
SP              .mV                                        :        (SPE-A[1])              (6in)                   Spontaneous Potential
DSO8            .in                                        :        (HDRS[1])               (2in)                   High Resolution Density Standoff
RSO8            .in                                        :        (HDRS[1])               (2in)                   Resistivity Standoff High Resolution
RLA1            .ohm.m                                     :        (HRLT-B[1])             (2in)                   Apparent Resistivity from Computed Focusing Mode 1
RLA2            .ohm.m                                     :        (HRLT-B[1])             (2in)                   Apparent Resistivity from Computed Focusing Mode 2
RLA3            .ohm.m                                     :        (HRLT-B[1])             (2in)                   Apparent Resistivity from Computed Focusing Mode 3
RLA4            .ohm.m                                     :        (HRLT-B[1])             (2in)                   Apparent Resistivity from Computed Focusing Mode 4
RLA5            .ohm.m                                     :        (HRLT-B[1])             (2in)                   Apparent Resistivity from Computed Focusing Mode 5
RT              .ohm.m                                     :        (HRLT-B[1])             (2in)                   True Resistivity
DT              .us/ft                                     :        (DSLT-H[1])             (6in)                   Delta-T (also called Slowness or Interval Transit Time)
HDRA            .g/cm3                                     :        (HDRS[1])               (2in)                   Density Standoff Correction
PEF8            .                                          :        (HDRS[1])               (2in)                   High Resolution Formation Photoelectric Factor
RHO8            .g/cm3                                     :        (HDRS[1])               (2in)                   High Resolution Formation Density
TNPH            .m3/m3                                     :        (HGNS[1])               (2in)                   Thermal Neutron Porosity (Ratio Method) in Selected Lithology
RXO8            .ohm.m                                     :        (HDRS[1])               (2in)                   Invaded Formation Resistivity filtered at 8 inches
TENS            .lbf                                       :        (WLWorkflow)            (6in)                   Cable Tension
#-------------------------------------------------------------
#            DEPT         CALI           BS           GR           SP         DSO8         RSO8         RLA1         RLA2         RLA3         RLA4         RLA5           RT           DT         HDRA         PEF8         RHO8         TNPH         RXO8         TENS 
#                    (HDRS[1])   (Borehole)    (HGNS[1])   (SPE-A[1])    (HDRS[1])    (HDRS[1])  (HRLT-B[1])  (HRLT-B[1])  (HRLT-B[1])  (HRLT-B[1])  (HRLT-B[1])  (HRLT-B[1])  (DSLT-H[1])    (HDRS[1])    (HDRS[1])    (HDRS[1])    (HGNS[1])    (HDRS[1])  (WLWorkflo) 
#                                                                                                                                                                                                                                                                        
#                        (1in)        (6in)        (2in)        (6in)        (2in)        (2in)        (2in)        (2in)        (2in)        (2in)        (2in)        (2in)        (6in)        (2in)        (2in)        (2in)        (2in)        (2in)        (6in) 
~ASCII
# ...
        872.33760      8.67372      8.50000    106.96200   -117.15830      0.04050      0.10010     11.49055     13.89291     15.34105     16.16188     17.40021     21.45941    104.04302      0.02000      2.91847      2.31996      0.37280      2.10472   1845.57149
        872.49000      8.63921      8.50000    112.44740   -117.20420      0.02650      0.10018     11.39235     14.05437     15.37032     16.13679     17.39256     21.51643    105.68998      0.01350      2.90464      2.31018      0.38223      1.99067   1812.26672
        872.64240      8.53183      8.50000    119.66400   -117.17500      0.04604      0.10810     11.28152     13.77523     15.04146     15.71226     16.96260     20.85951    106.08159      0.01974      2.92401      2.30635      0.35941      2.01210   1858.66684
        872.79480      8.52417      8.50000    116.81800   -117.27080      0.11719      0.14085     11.02235     13.43128     14.72656     15.38613     16.62417     20.46297    105.99646      0.03063      2.99512      2.31920      0.37368      1.88222   1856.86679
        872.94720      8.50115      8.50000    107.94320   -117.43750      0.11123      0.15625     10.62490     12.80663     14.12037     14.78532     15.98399     19.63437    105.25634      0.03951      2.91220      2.31771      0.35274      1.83010   1822.66661
        873.09960      8.64688      8.50000    117.77350   -117.16670      0.09076      0.11595      8.92107     10.60888     11.55166     12.09455     13.04227     15.85034    104.53537      0.03745      2.86745      2.34756      0.36193      1.96333   1844.13316
        873.25200      8.60086      8.50000    112.26630   -116.68750      0.09714      0.10827      8.37733     10.18154     10.98508     11.55386     12.38857     15.18135    105.34644      0.03327      2.87654      2.34945      0.36508      1.87383   1833.66673
        873.40440      8.57018      8.50000    118.09880   -116.63330      0.09569      0.13142      9.95083     12.81618     13.87175     14.67432     15.67599     19.71291    105.25527      0.02382      2.81725      2.35401      0.36032      2.01567   1819.73330
        873.55680      8.67372      8.50000    115.37530   -116.43750      0.02631      0.10605     10.53497     13.59902     14.81865     15.60057     16.61095     20.97191    107.72726      0.01514      2.92639      2.32199      0.37064      1.95425   1869.20004
        873.70920      8.68523      8.50000    124.22870   -116.59170      0.00534      0.09506     10.39557     13.34441     14.71887     15.46513     16.40489     20.79586    109.71950      0.00785      2.94764      2.31240      0.38216      1.92069   1810.53344
        873.86160      8.61620      8.50000    106.79330   -116.66250      0.00915      0.09149      9.93964     12.38023     13.67687     14.32451     15.19518     19.06405    109.76887      0.00824      2.93813      2.31416      0.38185      1.87273   1787.73332
        874.01400      8.67372      8.50000    123.90690   -116.80830      0.06373      0.09701     10.20749     12.67050     14.24079     14.84377     15.75636     19.86891    102.02701      0.01541      3.03665      2.33259      0.37494      1.97584   1841.46670
        874.16640      8.78878      8.50000    117.05060   -117.25830      0.09750      0.13521     10.63191     12.91960     14.48008     15.08242     15.96896     19.95747    101.74242      0.02025      2.86813      2.32627      0.36942      2.06298   1814.26662
        874.31880      8.63921      8.50000    129.01550   -117.88330      0.04744      0.13288     11.74304     14.22212     15.71082     16.44522     17.40227     21.58377    101.63611      0.02474      2.92066      2.33417      0.34967      2.13815   1798.93330
        874.47120      8.48965      8.50000    109.64240   -118.09170      0.05646      0.09680     11.43459     13.79407     14.98087     15.80069     16.72578     20.56876    102.84281      0.02956      3.04288      2.34313      0.33287      2.35542   1835.19993
        874.62360      8.55868      8.50000    128.22890   -118.17500      0.09695      0.11040     10.26304     12.18828     13.19101     13.89180     14.72834     17.94671    105.10604      0.04105      3.09670      2.34809      0.34776      2.14893   1803.46680
        874.77600      8.73892      8.50000    122.29590   -118.07080      0.15094      0.11740      9.58806     11.19285     12.11967     12.72679     13.52097     16.33588    105.93632      0.04873      3.02160      2.37205      0.38599      1.92585   1798.13343
        874.92840      8.73125      8.50000    122.07950   -118.04170      0.12781      0.10104     10.88965     12.92950     14.14882     14.88216     15.85480     19.37722    107.27137      0.04398      2.95181      2.39005      0.39518      2.27934   1801.80007
        875.08080      8.78878      8.50000    117.76080   -117.78330      0.05208      0.08936      9.27001     10.43667     11.27539     11.78633     12.55784     14.82528    106.37499      0.02990      2.98537      2.33225      0.40464      2.18765   1811.86656
        875.23320      8.84630      8.50000    120.17320   -117.67410      0.04141      0.09118      9.55391     10.88401     11.72614     12.21327     13.02919     15.44359    106.18979      0.01657      2.85684      2.32796      0.37278      2.04734   1844.46678
        875.38560      8.84630      8.50000    118.04060   -117.50780      0.01452      0.08246     12.10965     14.28663     15.50023     16.12880     17.19602     20.80977    109.29165      0.00941      2.94305      2.31892      0.37185      2.20760   1793.86678
        875.53800      8.84630      8.50000    118.75150   -117.01670      0.04684      0.08835     11.84559     13.64691     14.81776     15.34629     16.33496     19.53909    105.43169      0.00929      3.03786      2.34837      0.36372      2.34917   1829.86679
        875.69040      8.94984      8.50000    136.75500   -116.61670      0.06525      0.09927     11.25686     13.10598     14.23316     14.73565     15.70922     18.88536    105.78959      0.00887      2.93847      2.34443      0.37045      2.35859   1876.40022
        875.84280      8.86931      8.50000    125.26980   -116.67860      0.03046      0.08705     12.16574     14.32852     15.54420     16.19604     17.27620     20.91138    106.66506      0.00653      2.83707      2.35231      0.34710      2.46517   1806.33334
        875.99520      8.74659      8.50000    123.92840   -116.80830     -0.01168      0.08194     12.60658     14.26826     15.58225     16.35293     17.45617     20.80576    112.67462      0.00131      2.91425      2.33981      0.35875      2.51559   1876.50003
        876.14760      8.73892      8.50000    124.95040   -116.42190     -0.01251      0.10245     12.51311     13.87670     15.22150     16.10161     17.18611     20.35393    105.95720      0.00091      2.84944      2.31818      0.36189      2.20343   1852.37488
        876.30000      8.76193      8.50000    113.37770   -115.80000      0.01620      0.09904     11.44232     12.56913     13.74253     14.59103     15.57137     18.34562    106.31211      0.00291      2.93657      2.30796      0.37102      2.09532   1825.46683
        876.45240      8.96135      8.50000    124.67360   -115.39730      0.04455      0.10753     11.05725     12.25476     13.38230     14.24672     15.22039     18.00358    100.43154      0.00725      2.87342      2.33987      0.34473      2.14715   1822.26667
        876.60480      8.90382      8.50000    116.89460   -115.12500      0.06031      0.09456     12.49784     14.25661     15.51954     16.45624     17.65444     21.09451     93.51694      0.01024      2.89397      2.35186      0.37357      2.07734   1804.14302
        876.75720      8.75426      8.50000    118.41920   -115.00420      0.02578      0.06819     12.92543     14.57189     15.76379     16.52320     17.80287     20.99343     94.81892      0.01136      2.90392      2.34372      0.37852      2.21446   1813.86669
        876.90960      8.75426      8.50000    111.27410   -114.87500      0.03317      0.08133     13.41967     15.32643     16.67489     17.33177     18.74167     22.23996     96.57884      0.00974      2.89329      2.33789      0.39372      2.49543   1827.53327
