~VERSION INFORMATION 
VERS  .    2.0                                     :CWLS Log ASCII Standard - VERSION2.0
WRAP  .    NO                                      :One Line per Depth step
DLM   .    SPACE                                   :Column Data section Delimiter
PROD  .    Schlumberger Technology Corp.           :LAS Producer
PROG  .    Horizon LASWriter 3.0.9609.0            :LAS Program name and version
SOURCE.    Composite 1 (PEX-HRLA-BHC-SP-Log[5]/Up + PEX-HRLA-BHC-SP 2-Main[2]/Up):Run&Pass Information
CREA  .    03/21/2012                              :LAS Creation date {MM/DD/YYYY}
#--------------------------------------------------
~WELL INFORMATION 
#MNEM           .UNIT                      DATA            :DESCRIPTION
#----            ------          --------------            -----------------------------
STRT            .m                     83.36280            :START DEPTH
STOP            .m                   1576.27320            :STOP DEPTH
STEP            .m                       0.1524            :STEP
NULL            .                       -999.25            :NULL VALUE
COMP            .                       TAG Oil            :COMPANY
WELL            .                    Cheal A-10            :WELL NAME
FLD             .                         Cheal            :FIELD NAME
RIGN            .                     Ensign 19            :Rig Name
RIGTYP          .                       -999.25            :Rig Type
SON             .                       -999.25            :Service Order Number
SRVC            .                  Schlumberger            :SERVICE COMPANY
DATE            .                    03/06/2012            :LOG DATE(Composite Date for Composite LAP) (MM/DD/YYYY)
CLAB            .                       -999.25            :County Label
CNTY            .                       -999.25            :COUNTY
SLAB            .                       Region:            :State/Province Label
STAT            .                      Taranaki            :STATE or PROVINCE
PROV            .                      Taranaki            :STATE or PROVINCE
CTRY            .                   New Zealand            :COUNTRY
CONT_REGION     .                       -999.25            :Continent Region
SECT            .                       -999.25            :Section
TOWN            .                       -999.25            :Township
RANG            .                       -999.25            :Range
API             .                       -999.25            :API NUMBER
UWI             .                     PMP 38156            :UNIQUE WELL ID
LUL             .                          NZNP            :Logging Unit Location
LUN             .                          2268            :Logging Unit Number
LOC             .                       -999.25            :FIELD LOCATION
FL1             .                       -999.25            :Field Location Line 1
FL2             .                       -999.25            :Field Location Line 2
LATI            .deg             39° 23' 19.653" S         :LATITUDE
LONG            .deg             174° 18' 14.524" E        :LONGITUDE
PDAT            .                           MSL            :Local Permanent Datum
LMF             .                            DF            :Logging Measured From
APD             .m                    269.80000            :Elevation of Depth Reference (LMF) Above Permanent Datum
EPD             .m                      0.00000            :Elevation of Permanent Datum (PDAT) above Mean Sea Level
EKB             .m                      -999.25            :Elevation of Kelly Bushing Above Permanent Datum
EDF             .m                    269.80000            :Elevation of Drill Floor Above Permanent Datum
EGL             .m                    265.00000            :Elevation of Ground Level Above Permanent Datum
ECF             .m                      -999.25            :Elevation of Casing Flange above Permanent Datum
#--------------------------------------------------
~CURVE INFORMATION
#MNEM           .UNIT                  API CODE            :DESCRIPTION
#----            ------          --------------            -----------------------------
DEPT            .m                                         :                                                        Depth Index
CALI            .in                                        :        (HDRS[1])               (1in)                   Caliper
BS              .in                                        :        (Borehole)              (6in)                   Bit Size
GR              .gAPI                                      :        (HGNS[1])               (2in)                   Gamma Ray
SP              .mV                                        :        (SPE-A[1])              (6in)                   Spontaneous Potential
DSO8            .in                                        :        (HDRS[1])               (2in)                   High Resolution Density Standoff
RSO8            .in                                        :        (HDRS[1])               (2in)                   Resistivity Standoff High Resolution
RLA1            .ohm.m                                     :        (HRLT-B[1])             (2in)                   Apparent Resistivity from Computed Focusing Mode 1
RLA2            .ohm.m                                     :        (HRLT-B[1])             (2in)                   Apparent Resistivity from Computed Focusing Mode 2
RLA3            .ohm.m                                     :        (HRLT-B[1])             (2in)                   Apparent Resistivity from Computed Focusing Mode 3
RLA4            .ohm.m                                     :        (HRLT-B[1])             (2in)                   Apparent Resistivity from Computed Focusing Mode 4
RLA5            .ohm.m                                     :        (HRLT-B[1])             (2in)                   Apparent Resistivity from Computed Focusing Mode 5
RT              .ohm.m                                     :        (HRLT-B[1])             (2in)                   True Resistivity
DT              .us/ft                                     :        (DSLT-H[1])             (6in)                   Delta-T (also called Slowness or Interval Transit Time)
HDRA            .g/cm3                                     :        (HDRS[1])               (2in)                   Density Standoff Correction
PEF8            .                                          :        (HDRS[1])               (2in)                   High Resolution Formation Photoelectric Factor
RHO8            .g/cm3                                     :        (HDRS[1])               (2in)                   High Resolution Formation Density
TNPH            .m3/m3                                     :        (HGNS[1])               (2in)                   Thermal Neutron Porosity (Ratio Method) in Selected Lithology
RXO8            .ohm.m                                     :        (HDRS[1])               (2in)                   Invaded Formation Resistivity filtered at 8 inches
TENS            .lbf                                       :        (WLWorkflow)            (6in)                   Cable Tension
#-------------------------------------------------------------
#            DEPT         CALI           BS           GR           SP         DSO8         RSO8         RLA1         RLA2         RLA3         RLA4         RLA5           RT           DT         HDRA         PEF8         RHO8         TNPH         RXO8         TENS 
#                    (HDRS[1])   (Borehole)    (HGNS[1])   (SPE-A[1])    (HDRS[1])    (HDRS[1])  (HRLT-B[1])  (HRLT-B[1])  (HRLT-B[1])  (HRLT-B[1])  (HRLT-B[1])  (HRLT-B[1])  (DSLT-H[1])    (HDRS[1])    (HDRS[1])    (HDRS[1])    (HGNS[1])    (HDRS[1])  (WLWorkflo) 
#                                                                                                                                                                                                                                                                        
#                        (1in)        (6in)        (2in)        (6in)        (2in)        (2in)        (2in)        (2in)        (2in)        (2in)        (2in)        (2in)        (6in)        (2in)        (2in)        (2in)        (2in)        (2in)        (6in) 
~ASCII
# ...
       1358.95080      8.28724      8.50000    124.90200    -44.68167      0.08331      0.09506      3.31334      3.59835      3.78662      3.88857      3.95624      4.51872     97.42316      0.04350      3.14158      2.37406      0.38085      2.25567   2620.06730
       1359.10320      8.23369      8.50000    119.70190    -44.81813      0.10308      0.09954      3.47179      3.74843      3.94346      4.07189      4.13061      4.69083     97.39521      0.03547      3.16702      2.40687      0.40121      2.12758   2572.00090
       1359.25560      8.19543      8.50000    108.99190    -45.22333      0.11845      0.10971      3.63069      3.88728      4.07778      4.20900      4.27480      4.79109     97.33325      0.03070      3.19668      2.40002      0.42234      2.11027   2643.40022
       1359.40800      8.24133      8.50000    125.35910    -45.03297      0.07032      0.12520      3.64041      3.89878      4.05502      4.18275      4.25956      4.73589     97.46574      0.02074      3.19339      2.37905      0.38559      2.08518   2714.12511
       1359.56040      8.31020      8.50000    125.78640    -45.44417      0.06773      0.12864      3.65975      3.92611      4.07181      4.18583      4.28663      4.75534     98.00055      0.02206      3.13884      2.37081      0.38361      2.12036   2636.53231
       1359.71280      8.33316      8.50000    123.38350    -45.72438      0.06741      0.10916      3.58221      3.81500      3.95850      4.04037      4.16004      4.56314     97.58468      0.02649      3.11350      2.36735      0.38098      2.40776   2593.86582
       1359.86520      8.33316      8.50000    116.68570    -45.36500      0.08669      0.09701      3.58467      3.78854      3.93506      3.99292      4.12827      4.47985     97.62500      0.03606      3.20930      2.38715      0.38429      2.54626   2624.37464
       1360.01760      8.34081      8.50000    118.48640    -45.13063      0.10474      0.09349      3.66044      3.85313      3.98614      4.02080      4.16521      4.46466     97.17432      0.03963      3.12212      2.39852      0.35469      2.67838   2650.20069
       1360.17000      8.29490      8.50000    131.62860    -44.98167      0.12005      0.09896      3.66235      3.84374      3.95796      3.99240      4.14524      4.40915     96.45207      0.04085      3.13105      2.41788      0.36303      2.84139   2648.37524
       1360.32240      8.24133      8.50000    119.74060    -45.15406      0.10114      0.10119      3.74834      3.93464      4.02117      4.07146      4.23014      4.47703     97.07941      0.04174      3.21752      2.41984      0.36431      2.95610   2612.99931
       1360.47480      8.24133      8.50000    129.57340    -45.76084      0.05793      0.14444      3.72470      3.88340      3.93821      3.99905      4.16882      4.35594     97.08383      0.04936      3.15529      2.34529      0.39076      2.48340   2576.00025
       1360.62720      8.31785      8.50000    125.41540    -46.30667      0.12782      0.20087      3.86709      4.01657      4.07832      4.14798      4.32893      4.51599     96.74142      0.05615      3.05259      2.30858      0.38132      1.96958   2553.20013
       1360.77960      8.50532      8.50000    111.50180    -46.45094      0.25584      0.16961      3.98480      4.05431      4.15468      4.22726      4.43332      4.57386     95.82461      0.06503      3.33215      2.38193      0.40272      2.30579   2643.37549
       1360.93200      8.53976      8.50000    120.46450    -46.48610      0.16403      0.04436      4.18138      4.23463      4.35965      4.44730      4.68469      4.84504     94.24105      0.05306      3.01310      2.45376      0.38288      3.24414   2642.86742
       1361.08440      8.65454      8.50000    127.20800    -46.55250      0.05678      0.03350      4.30905      4.36700      4.50400      4.60250      4.84456      5.02763     93.90784      0.03317      3.19197      2.49361      0.38680      3.52326   2638.06326
       1361.23680      9.40441      8.50000    124.53220    -46.38844      0.08181      0.07291      4.38837      4.42853      4.56568      4.67455      4.91096      5.06674     92.16856      0.01147      3.07469      2.51236      0.35537      3.43480   2600.93381
       1361.38920      8.81522      8.50000    120.86590    -46.65250     -0.01822      0.08072      5.92231      6.07756      6.27643      6.44456      6.77274      7.13730     89.11407      0.01667      3.20115      2.54016      0.35766      8.52030   2516.37418
       1361.54160      8.56271      8.50000    112.57090    -46.37750      0.13756      0.04963      5.71110      5.79552      5.99910      6.13284      6.45927      6.76212     89.70264      0.03772      3.30747      2.42137      0.35621      5.50220   2616.40067
       1361.69400      8.37907      8.50000    120.68050    -45.80641      0.17326      0.12514      4.34534      4.43568      4.60574      4.69568      4.97450      5.23945     89.66698      0.05369      3.21947      2.40241      0.37499      2.38653   2632.87467
       1361.84640      8.33316      8.50000    118.15400    -45.47333      0.19971      0.16943      4.08210      4.24347      4.41192      4.48805      4.78385      5.13493     93.92467      0.05237      3.31048      2.41858      0.38448      2.50654   2615.00011
       1361.99880      8.19543      8.50000    120.20620    -44.97438      0.09804      0.13978      3.77056      3.90433      4.04231      4.10208      4.38896      4.66835     94.29573      0.04065      3.17555      2.39570      0.35993      2.47638   2619.13434
       1362.15120      8.17247      8.50000    112.38650    -43.95667      0.10579      0.09897      3.58649      3.70000      3.79389      3.84007      4.11891      4.31341     94.70273      0.03424      3.19341      2.40852      0.34808      2.35759   2642.18850
       1362.30360      8.08830      8.50000    120.00320    -43.27750      0.09283      0.08407      3.65111      3.82046      3.87281      3.91298      4.20343      4.41591     94.51738      0.02965      3.18615      2.45353      0.34847      2.50740   2630.99976
       1362.45600      8.10360      8.50000    110.60020    -42.56813      0.04858      0.07316      3.28306      3.44023      3.46472      3.50556      3.75854      3.93599     94.56173      0.02120      3.15088      2.40062      0.37794      2.24073   2631.19984
       1362.60840      8.06534      8.50000    102.66420    -41.69417      0.01494      0.06564      2.94975      3.07230      3.10657      3.14430      3.36919      3.51725     94.80307      0.01234      3.03502      2.37083      0.37896      2.10521   2628.62578
       1362.76080      8.10360      8.50000    108.03970    -41.31813      0.05549      0.06086      2.90905      3.02500      3.08515      3.13234      3.34482      3.51887     95.12598      0.01025      3.06008      2.38906      0.37229      2.20384   2590.93431
       1362.91320      8.08065      8.50000    115.78020    -40.63063      0.07629      0.07979      3.17600      3.30487      3.40229      3.47867      3.70596      3.95367     95.61070      0.01836      3.05016      2.42370      0.37251      2.15450   2665.37529
       1363.06560      8.14186      8.50000    113.63690    -40.60719      0.08999      0.08514      3.28726      3.44467      3.57962      3.67447      3.90351      4.25100     96.05738      0.02853      3.25304      2.41700      0.38250      2.12770   2615.31259
       1363.21800      8.19543      8.50000    118.80540    -40.49000      0.11364      0.08764      3.43849      3.63431      3.84230      3.96842      4.19518      4.66713     96.53284      0.03597      3.41335      2.41555      0.36990      2.01319   2622.00066
       1363.37040      8.45941      8.50000    126.52540    -40.15797      0.06083      0.08508      3.47814      3.70034      3.93620      4.10696      4.32019      4.87461     97.63201      0.03000      3.31227      2.40158      0.37605      2.17475   2603.87431
       1363.52280      8.16482      8.50000    114.10020    -39.92750      0.03276      0.08719      3.42225      3.68955      3.91613      4.09475      4.28723      4.88338     97.37436      0.02297      3.28126      2.38596      0.39486      2.32570   2577.26593
