~VERSION INFORMATION 
VERS  .    2.0                                     :CWLS Log ASCII Standard - VERSION2.0
WRAP  .    NO                                      :One Line per Depth step
DLM   .    SPACE                                   :Column Data section Delimiter
PROD  .    Schlumberger Technology Corp.           :LAS Producer
PROG  .    Horizon LASWriter 3.0.9609.0            :LAS Program name and version
SOURCE.    Composite 1 (PEX-HRLA-BHC-SP-Log[5]/Up + PEX-HRLA-BHC-SP 2-Main[2]/Up):Run&Pass Information
CREA  .    03/21/2012                              :LAS Creation date {MM/DD/YYYY}
#--------------------------------------------------
~WELL INFORMATION 
#MNEM           .UNIT                      DATA            :DESCRIPTION
#----            ------          --------------            -----------------------------
STRT            .m                     83.36280            :START DEPTH
STOP            .m                   1576.27320            :STOP DEPTH
STEP            .m                       0.1524            :STEP
NULL            .                       -999.25            :NULL VALUE
COMP            .                       TAG Oil            :COMPANY
WELL            .                    Cheal A-10            :WELL NAME
FLD             .                         Cheal            :FIELD NAME
RIGN            .                     Ensign 19            :Rig Name
RIGTYP          .                       -999.25            :Rig Type
SON             .                       -999.25            :Service Order Number
SRVC            .                  Schlumberger            :SERVICE COMPANY
DATE            .                    03/06/2012            :LOG DATE(Composite Date for Composite LAP) (MM/DD/YYYY)
CLAB            .                       -999.25            :County Label
CNTY            .                       -999.25            :COUNTY
SLAB            .                       Region:            :State/Province Label
STAT            .                      Taranaki            :STATE or PROVINCE
PROV            .                      Taranaki            :STATE or PROVINCE
CTRY            .                   New Zealand            :COUNTRY
CONT_REGION     .                       -999.25            :Continent Region
SECT            .                       -999.25            :Section
TOWN            .                       -999.25            :Township
RANG            .                       -999.25            :Range
API             .                       -999.25            :API NUMBER
UWI             .                     PMP 38156            :UNIQUE WELL ID
LUL             .                          NZNP            :Logging Unit Location
LUN             .                          2268            :Logging Unit Number
LOC             .                       -999.25            :FIELD LOCATION
FL1             .                       -999.25            :Field Location Line 1
FL2             .                       -999.25            :Field Location Line 2
LATI            .deg             39° 23' 19.653" S         :LATITUDE
LONG            .deg             174° 18' 14.524" E        :LONGITUDE
PDAT            .                           MSL            :Local Permanent Datum
LMF             .                            DF            :Logging Measured From
APD             .m                    269.80000            :Elevation of Depth Reference (LMF) Above Permanent Datum
EPD             .m                      0.00000            :Elevation of Permanent Datum (PDAT) above Mean Sea Level
EKB             .m                      -999.25            :Elevation of Kelly Bushing Above Permanent Datum
EDF             .m                    269.80000            :Elevation of Drill Floor Above Permanent Datum
EGL             .m                    265.00000            :Elevation of Ground Level Above Permanent Datum
ECF             .m                      -999.25            :Elevation of Casing Flange above Permanent Datum
#--------------------------------------------------
~CURVE INFORMATION
#MNEM           .UNIT                  API CODE            :DESCRIPTION
#----            ------          --------------            -----------------------------
DEPT            .m                                         :                                                        Depth Index
CALI            .in                                        :        (HDRS[1])               (1in)                   Caliper
BS              .in                                        :        (Borehole)              (6in)                   Bit Size
GR              .gAPI                                      :        (HGNS[1])               (2in)                   Gamma Ray
SP              .mV                                        :        (SPE-A[1])              (6in)                   Spontaneous Potential
DSO8            .in                                        :        (HDRS[1])               (2in)                   High Resolution Density Standoff
RSO8            .in                                        :        (HDRS[1])               (2in)                   Resistivity Standoff High Resolution
RLA1            .ohm.m                                     :        (HRLT-B[1])             (2in)                   Apparent Resistivity from Computed Focusing Mode 1
RLA2            .ohm.m                                     :        (HRLT-B[1])             (2in)                   Apparent Resistivity from Computed Focusing Mode 2
RLA3            .ohm.m                                     :        (HRLT-B[1])             (2in)                   Apparent Resistivity from Computed Focusing Mode 3
RLA4            .ohm.m                                     :        (HRLT-B[1])             (2in)                   Apparent Resistivity from Computed Focusing Mode 4
RLA5            .ohm.m                                     :        (HRLT-B[1])             (2in)                   Apparent Resistivity from Computed Focusing Mode 5
RT              .ohm.m                                     :        (HRLT-B[1])             (2in)                   True Resistivity
DT              .us/ft                                     :        (DSLT-H[1])             (6in)                   Delta-T (also called Slowness or Interval Transit Time)
HDRA            .g/cm3                                     :        (HDRS[1])               (2in)                   Density Standoff Correction
PEF8            .                                          :        (HDRS[1])               (2in)                   High Resolution Formation Photoelectric Factor
RHO8            .g/cm3                                     :        (HDRS[1])               (2in)                   High Resolution Formation Density
TNPH            .m3/m3                                     :        (HGNS[1])               (2in)                   Thermal Neutron Porosity (Ratio Method) in Selected Lithology
RXO8            .ohm.m                                     :        (HDRS[1])               (2in)                   Invaded Formation Resistivity filtered at 8 inches
TENS            .lbf                                       :        (WLWorkflow)            (6in)                   Cable Tension
#-------------------------------------------------------------
#            DEPT         CALI           BS           GR           SP         DSO8         RSO8         RLA1         RLA2         RLA3         RLA4         RLA5           RT           DT         HDRA         PEF8         RHO8         TNPH         RXO8         TENS 
#                    (HDRS[1])   (Borehole)    (HGNS[1])   (SPE-A[1])    (HDRS[1])    (HDRS[1])  (HRLT-B[1])  (HRLT-B[1])  (HRLT-B[1])  (HRLT-B[1])  (HRLT-B[1])  (HRLT-B[1])  (DSLT-H[1])    (HDRS[1])    (HDRS[1])    (HDRS[1])    (HGNS[1])    (HDRS[1])  (WLWorkflo) 
#                                                                                                                                                                                                                                                                        
#                        (1in)        (6in)        (2in)        (6in)        (2in)        (2in)        (2in)        (2in)        (2in)        (2in)        (2in)        (2in)        (6in)        (2in)        (2in)        (2in)        (2in)        (2in)        (6in) 
~ASCII
# ...
        385.72440      8.44746      8.50000    103.50370    -87.92083     -0.03561      0.10544     12.27777     28.64065     36.23761     39.27636     43.18906     57.44052    129.73254     -0.00742      2.56229      2.15364      0.38215      1.07002   1249.80014
        385.87680      8.53567      8.50000    105.99450    -88.15234      0.03585      0.02994     12.45290     27.37799     34.31633     36.91119     40.80235     54.43365    129.97053     -0.00720      2.74927      2.20479      0.37825      1.08280   1299.93343
        386.02920      8.45513      8.50000     92.69273    -88.51250      0.13600      0.00886     12.29818     26.02782     32.29691     34.72232     38.49667     51.39388    129.45780     -0.00980      2.80749      2.20171      0.35934      1.09157   1240.43752
        386.18160      8.53567      8.50000     91.60476    -88.72916      0.12057      0.00010     12.41036     26.26089     32.20755     34.63189     38.59971     51.24274    129.01556     -0.01047      2.82427      2.19689      0.35474      1.09370   1245.06679
        386.33400      8.47048      8.50000    102.55420    -88.75391      0.08609      0.02272     12.04927     26.67861     32.76336     35.32887     39.42839     51.99505    129.00099     -0.00865      2.79668      2.19393      0.37257      1.11263   1332.80005
        386.48640      8.42446      8.50000     96.06769    -88.96250      0.06393      0.04005     11.54846     25.32725     31.16688     33.62233     37.63649     49.72574    129.23002     -0.00674      2.74269      2.18528      0.38716      1.09076   1296.50015
        386.63880      8.45513      8.50000    109.83280    -89.12917      0.02252      0.05211     11.62760     25.88709     32.12115     34.77198     39.00848     51.57928    129.42006     -0.00552      2.83360      2.19351      0.39689      1.10794   1267.20013
        386.79120      8.50115      8.50000     99.53187    -89.38750      0.08282      0.02634     11.52313     26.03861     32.53074     35.36959     39.71294     52.54631    129.37678     -0.00627      2.91043      2.18330      0.41527      1.10072   1289.93326
        386.94360      8.53950      8.50000     95.12946    -89.66666      0.06188      0.03763     11.31557     25.72207     32.19215     35.12553     39.51421     52.28439    128.51971     -0.00756      2.75915      2.16347      0.43616      0.97852   1236.80011
        387.09600      8.62771      8.50000     97.94753    -90.03750      0.09305      0.01511     12.20063     29.03242     37.06784     40.57797     45.64085     60.43467    128.13213     -0.00975      2.72973      2.18627      0.42624      1.05681   1351.80000
        387.24840      8.57018      8.50000    107.90560    -90.40000      0.11725      0.00265     11.74596     26.75459     33.38757     36.43144     40.86395     54.05811    129.27421     -0.01174      2.77844      2.18933      0.44488      1.07347   1308.50000
        387.40080      8.59319      8.50000    106.86680    -90.39844      0.09847      0.00615     11.33597     25.81897     32.39330     35.22753     39.40783     52.25319    129.31180     -0.01107      2.70769      2.20835      0.42899      1.06755   1291.06674
        387.55320      8.59319      8.50000    104.13960    -90.36250      0.09694      0.01418     12.31773     28.28198     35.80686     39.03469     43.49080     57.93935    129.92960     -0.00946      2.73962      2.19165      0.42966      1.09669   1325.46678
        387.70560      8.67372      8.50000    113.66790    -90.14167      0.07901      0.04458     12.62217     28.52973     36.62258     40.09298     44.62305     59.92555    130.50119     -0.00608      2.76247      2.17431      0.42457      1.02714   1283.53340
        387.85800      8.69290      8.50000    102.45470    -89.92917     -0.03442      0.08396     12.69719     26.99070     33.85132     37.04403     40.86969     55.05716    129.72346     -0.00377      2.55589      2.15767      0.39767      0.93751   1292.59994
        388.01040      8.74276      8.50000    101.25020    -90.09167     -0.02647      0.02999     12.72940     25.16787     30.51411     33.27665     36.46068     49.04624    129.77558     -0.00271      2.68712      2.22276      0.40396      1.14959   1260.93335
        388.16280      8.68523      8.50000    112.66490    -90.33594     -0.03457      0.00010     12.14446     22.47480     26.72663     28.93734     31.52207     42.32753    130.00546     -0.00488      2.77339      2.23209      0.41153      1.22592   1287.80005
        388.31520      8.66989      8.50000    113.29720    -90.64167     -0.01821      0.01922     12.16144     22.79273     27.29436     29.40679     32.02167     43.03671    129.19204     -0.00787      2.78309      2.23892      0.42810      1.26727   1282.62494
        388.46760      8.62387      8.50000    120.83040    -90.92500      0.09833      0.00392     12.22906     23.02733     27.71081     29.83795     32.43343     43.65273    128.66425     -0.00933      2.81618      2.22143      0.40102      1.18428   1271.13339
        388.62000      8.62387      8.50000    108.50060    -91.26250      0.10421      0.02813     12.29155     24.57485     30.10113     32.40119     35.24674     47.42591    128.65617     -0.00956      2.79219      2.19688      0.39271      1.10851   1290.93321
        388.77240      8.63921      8.50000     98.70055    -91.59167      0.07783      0.05953     12.32281     25.38896     31.38281     33.78052     36.66314     49.35943    128.54653     -0.00847      2.84859      2.19139      0.39173      1.14053   1280.73340
        388.92480      8.59319      8.50000    107.65730    -91.35000      0.03339      0.06721     11.88040     23.86775     29.34621     31.47448     33.99737     45.86408    130.23622     -0.00636      2.76629      2.16962      0.41979      1.08638   1250.06676
        389.07720      8.57785      8.50000    100.90800    -91.19531      0.00309      0.03629     11.85203     22.77294     27.57494     29.51908     31.80122     42.94931    130.58330     -0.00557      2.76713      2.21284      0.41492      1.16056   1241.74996
        389.22960      8.61620      8.50000    111.45920    -91.35000     -0.01674      0.00010     11.69409     21.38707     25.70421     27.59950     29.52966     39.98402    130.53389     -0.00670      2.85343      2.23598      0.40603      1.18920   1304.46671
        389.38200      8.61620      8.50000    111.63550    -91.03750      0.11056      0.01353     11.50240     21.17191     25.41712     27.32212     29.25887     39.56891    130.35732     -0.00886      2.96002      2.19609      0.40682      1.14882   1249.93323
        389.53440      8.62771      8.50000     97.94745    -91.01667      0.07622      0.03152     11.55517     22.18328     26.87772     28.95746     30.95989     41.86904    131.03270     -0.00972      2.87723      2.22599      0.42620      1.19556   1303.86669
        389.68680      8.57018      8.50000    100.87660    -90.82083      0.10533      0.02981     11.31502     22.49753     27.35194     29.45583     31.65707     42.68353    130.90971     -0.00979      2.83763      2.21237      0.42016      1.11971   1262.53332
        389.83920      8.59319      8.50000    103.78760    -90.56250      0.10607      0.03971     11.59643     23.59800     29.15373     31.38262     33.87242     45.72934    130.16030     -0.00980      2.76718      2.18267      0.41049      1.13892   1305.86682
        389.99160      8.57018      8.50000    110.18980    -90.34167      0.10635      0.02347     11.89685     24.79666     31.09975     33.44566     36.39590     49.15114    129.92396     -0.00914      2.79999      2.20631      0.39526      1.16377   1259.39993
        390.14400      8.62771      8.50000    105.34690    -90.61667      0.06410      0.01028     11.82619     24.92585     31.22981     33.78361     36.96608     49.75037    129.50239     -0.00862      2.64467      2.19014      0.39617      1.07394   1292.26677
        390.29640      8.66222      8.50000    101.61820    -90.87083      0.07717      0.00010     11.69682     25.05863     31.18331     33.90454     37.20981     49.89734    129.04296     -0.00713      2.76702      2.21366      0.38031      1.10615   1342.19999
