~VERSION INFORMATION 
VERS  .    2.0                                     :CWLS Log ASCII Standard - VERSION2.0
WRAP  .    NO                                      :One Line per Depth step
DLM   .    SPACE                                   :Column Data section Delimiter
PROD  .    Schlumberger Technology Corp.           :LAS Producer
PROG  .    Horizon LASWriter 3.0.9609.0            :LAS Program name and version
SOURCE.    Composite 1 (PEX-HRLA-BHC-SP-Log[5]/Up + PEX-HRLA-BHC-SP 2-Main[2]/Up):Run&Pass Information
CREA  .    03/21/2012                              :LAS Creation date {MM/DD/YYYY}
#--------------------------------------------------
~WELL INFORMATION 
#MNEM           .UNIT                      DATA            :DESCRIPTION
#----            ------          --------------            -----------------------------
STRT            .m                     83.36280            :START DEPTH
STOP            .m                   1576.27320            :STOP DEPTH
STEP            .m                       0.1524            :STEP
NULL            .                       -999.25            :NULL VALUE
COMP            .                       TAG Oil            :COMPANY
WELL            .                    Cheal A-10            :WELL NAME
FLD             .                         Cheal            :FIELD NAME
RIGN            .                     Ensign 19            :Rig Name
RIGTYP          .                       -999.25            :Rig Type
SON             .                       -999.25            :Service Order Number
SRVC            .                  Schlumberger            :SERVICE COMPANY
DATE            .                    03/06/2012            :LOG DATE(Composite Date for Composite LAP) (MM/DD/YYYY)
CLAB            .                       -999.25            :County Label
CNTY            .                       -999.25            :COUNTY
SLAB            .                       Region:            :State/Province Label
STAT            .                      Taranaki            :STATE or PROVINCE
PROV            .                      Taranaki            :STATE or PROVINCE
CTRY            .                   New Zealand            :COUNTRY
CONT_REGION     .                       -999.25            :Continent Region
SECT            .                       -999.25            :Section
TOWN            .                       -999.25            :Township
RANG            .                       -999.25            :Range
API             .                       -999.25            :API NUMBER
UWI             .                     PMP 38156            :UNIQUE WELL ID
LUL             .                          NZNP            :Logging Unit Location
LUN             .                          2268            :Logging Unit Number
LOC             .                       -999.25            :FIELD LOCATION
FL1             .                       -999.25            :Field Location Line 1
FL2             .                       -999.25            :Field Location Line 2
LATI            .deg             39° 23' 19.653" S         :LATITUDE
LONG            .deg             174° 18' 14.524" E        :LONGITUDE
PDAT            .                           MSL            :Local Permanent Datum
LMF             .                            DF            :Logging Measured From
APD             .m                    269.80000            :Elevation of Depth Reference (LMF) Above Permanent Datum
EPD             .m                      0.00000            :Elevation of Permanent Datum (PDAT) above Mean Sea Level
EKB             .m                      -999.25            :Elevation of Kelly Bushing Above Permanent Datum
EDF             .m                    269.80000            :Elevation of Drill Floor Above Permanent Datum
EGL             .m                    265.00000            :Elevation of Ground Level Above Permanent Datum
ECF             .m                      -999.25            :Elevation of Casing Flange above Permanent Datum
#--------------------------------------------------
~CURVE INFORMATION
#MNEM           .UNIT                  API CODE            :DESCRIPTION
#----            ------          --------------            -----------------------------
DEPT            .m                                         :                                                        Depth Index
CALI            .in                                        :        (HDRS[1])               (1in)                   Caliper
BS              .in                                        :        (Borehole)              (6in)                   Bit Size
GR              .gAPI                                      :        (HGNS[1])               (2in)                   Gamma Ray
SP              .mV                                        :        (SPE-A[1])              (6in)                   Spontaneous Potential
DSO8            .in                                        :        (HDRS[1])               (2in)                   High Resolution Density Standoff
RSO8            .in                                        :        (HDRS[1])               (2in)                   Resistivity Standoff High Resolution
RLA1            .ohm.m                                     :        (HRLT-B[1])             (2in)                   Apparent Resistivity from Computed Focusing Mode 1
RLA2            .ohm.m                                     :        (HRLT-B[1])             (2in)                   Apparent Resistivity from Computed Focusing Mode 2
RLA3            .ohm.m                                     :        (HRLT-B[1])             (2in)                   Apparent Resistivity from Computed Focusing Mode 3
RLA4            .ohm.m                                     :        (HRLT-B[1])             (2in)                   Apparent Resistivity from Computed Focusing Mode 4
RLA5            .ohm.m                                     :        (HRLT-B[1])             (2in)                   Apparent Resistivity from Computed Focusing Mode 5
RT              .ohm.m                                     :        (HRLT-B[1])             (2in)                   True Resistivity
DT              .us/ft                                     :        (DSLT-H[1])             (6in)                   Delta-T (also called Slowness or Interval Transit Time)
HDRA            .g/cm3                                     :        (HDRS[1])               (2in)                   Density Standoff Correction
PEF8            .                                          :        (HDRS[1])               (2in)                   High Resolution Formation Photoelectric Factor
RHO8            .g/cm3                                     :        (HDRS[1])               (2in)                   High Resolution Formation Density
TNPH            .m3/m3                                     :        (HGNS[1])               (2in)                   Thermal Neutron Porosity (Ratio Method) in Selected Lithology
RXO8            .ohm.m                                     :        (HDRS[1])               (2in)                   Invaded Formation Resistivity filtered at 8 inches
TENS            .lbf                                       :        (WLWorkflow)            (6in)                   Cable Tension
#-------------------------------------------------------------
#            DEPT         CALI           BS           GR           SP         DSO8         RSO8         RLA1         RLA2         RLA3         RLA4         RLA5           RT           DT         HDRA         PEF8         RHO8         TNPH         RXO8         TENS 
#                    (HDRS[1])   (Borehole)    (HGNS[1])   (SPE-A[1])    (HDRS[1])    (HDRS[1])  (HRLT-B[1])  (HRLT-B[1])  (HRLT-B[1])  (HRLT-B[1])  (HRLT-B[1])  (HRLT-B[1])  (DSLT-H[1])    (HDRS[1])    (HDRS[1])    (HDRS[1])    (HGNS[1])    (HDRS[1])  (WLWorkflo) 
#                                                                                                                                                                                                                                                                        
#                        (1in)        (6in)        (2in)        (6in)        (2in)        (2in)        (2in)        (2in)        (2in)        (2in)        (2in)        (2in)        (6in)        (2in)        (2in)        (2in)        (2in)        (2in)        (6in) 
~ASCII
# ...
       1066.03800      8.29407      8.50000     97.79459    -69.30357      0.07320      0.06798     11.08994     17.48924     19.76228     21.40027     23.34078     30.87481     89.91213      0.01723      2.93206      2.36187      0.30943      2.07255   2054.35718
       1066.19040      8.36309      8.50000     86.75867    -69.43750      0.06227      0.05965     11.47762     16.65656     18.70334     20.42555     22.40032     29.35635     87.61628      0.02031      3.03243      2.40310      0.32664      1.84103   2068.66672
       1066.34280      8.29407      8.50000     88.93577    -69.02734      0.07565      0.05447     16.90198     22.64525     25.70602     28.00027     30.66601     39.73976     89.70212      0.02345      2.80343      2.48412      0.28808      2.20148   2080.53348
       1066.49520      8.29407      8.50000     78.51461    -68.40417     -0.04525      0.03618     19.59907     26.05205     30.14019     32.48665     35.83189     46.44933     94.36453      0.01864      2.97950      2.44316      0.28661      3.60812   2047.06258
       1066.64760      8.26339      8.50000     82.57415    -67.95000      0.03491      0.01891     13.31497     16.99315     19.53420     20.75171     22.91108     29.17032     87.27076      0.01236      2.68055      2.29758      0.29878      1.63222   2042.66666
       1066.80000      8.34009      8.50000     80.40837    -67.62500      0.07130      0.03909     19.10250     30.02616     35.40027     38.33443     42.40148     56.40747     86.28656      0.00203      2.62147      2.34234      0.30053      1.70127   2021.06657
       1066.95240      8.27106      8.50000     72.18982    -67.50833      0.00817      0.04455     23.10688     39.07700     47.05772     51.81986     57.97240     77.74905     80.57952      0.00377      3.03047      2.48270      0.26846      3.16530   2084.06680
       1067.10480      8.27106      8.50000     73.57874    -67.10416      0.02837      0.04183     28.52548     51.26124     62.93436     70.32309     78.66649    106.46790     75.24320      0.01931      3.05174      2.59441      0.23272      4.78554   2078.06665
       1067.25720      8.27106      8.50000     78.78308    -66.77917      0.11005      0.09319     20.13099     31.73337     38.51701     43.54165     48.35390     65.79824     80.10242      0.02724      3.25783      2.55100      0.22222      7.49385   2037.19998
       1067.40960      8.27106      8.50000     66.28968    -66.32500     -0.00179      0.06055     14.72744     20.89332     25.20607     28.49769     31.39421     42.59327     83.62895      0.02508      2.98819      2.45490      0.24583      3.44461   2038.66664
       1067.56200      8.35159      8.50000     73.13418    -65.64584     -0.00448      0.01169     12.10178     17.69455     22.27855     25.39136     27.79759     38.40391     87.87314      0.01025      2.91177      2.29840      0.29380      1.62366   2083.13340
       1067.71440      8.34009      8.50000     92.59196    -65.17083      0.02160      0.01232     12.07747     18.20060     22.64457     25.56743     27.66311     37.93301     91.28592      0.00003      2.62853      2.32892      0.32893      1.35353   2057.46651
       1067.86680      8.40144      8.50000     93.52926    -65.17500     -0.03253      0.01753     12.94441     22.01589     27.17561     30.49528     32.76823     44.71833     86.53421      0.00015      2.76918      2.34867      0.32902      1.97783   2058.73331
       1068.01920      8.39378      8.50000     73.17777    -65.37500     -0.06837      0.07859     14.55051     27.82840     33.89170     37.39258     40.02059     54.43554     80.82668      0.00372      2.63889      2.30196      0.31748      1.75327   2067.19984
       1068.17160      8.27106      8.50000     87.80828    -65.26667      0.00693      0.08305     10.97108     18.94445     22.56352     24.09387     25.56417     34.53992     78.45345      0.01245      2.85519      2.44164      0.30514      2.57593   2086.33333
       1068.32400      8.29407      8.50000     87.54580    -65.61250      0.05964      0.05692      9.87921     17.19888     21.22913     22.10419     23.48083     31.97025     83.42376      0.01575      3.01428      2.38460      0.32746      2.35605   2035.20008
       1068.47640      8.34009      8.50000     97.46452    -66.42083      0.05596      0.05983      9.97807     17.11703     21.57957     22.53586     23.85223     32.77060     93.88989      0.01804      2.87603      2.38005      0.34977      2.36320   2042.79997
       1068.62880      8.38611      8.50000     94.16637    -66.92917      0.04387      0.06429      9.73576     15.87596     19.54655     20.70056     21.78802     29.81284     99.97461      0.02002      2.94903      2.33848      0.36512      2.23096   2103.40015
       1068.78120      8.38611      8.50000    111.60630    -67.23333      0.05822      0.09349      9.74035     15.88655     18.83306     20.46049     21.31766     29.06446    100.40146      0.02340      2.89217      2.32426      0.38300      2.11884   2069.33350
       1068.93360      8.38611      8.50000     96.60867    -66.81250      0.07387      0.09939     10.01283     16.74366     19.56918     21.70968     22.51523     30.74394    100.40075      0.02758      2.88318      2.32562      0.39325      1.98096   2075.60005
       1069.08600      8.38611      8.50000    108.46650    -66.47916      0.11169      0.07751     10.76677     19.60280     23.89506     26.93467     28.10805     38.81202    101.28961      0.03335      2.84763      2.33227      0.41238      1.72594   2041.26678
       1069.23840      8.31708      8.50000     99.80271    -65.96250      0.09327      0.07693     11.32409     20.43762     25.66822     28.86446     30.34654     42.08772    102.07718      0.03394      2.65515      2.24133      0.38286      1.26040   2045.06672
       1069.39080      8.31708      8.50000     91.80551    -65.85833      0.09892      0.08711     11.16701     19.49006     24.97128     27.96208     29.73328     41.20690     97.70580      0.03914      2.69664      2.24253      0.36843      1.16898   2081.06673
       1069.54320      8.29407      8.50000     92.75747    -66.25833      0.19488      0.09304     12.81623     23.65265     30.81495     34.86901     37.56992     51.96770     88.82597      0.03905      2.82970      2.36236      0.33045      1.28694   2043.93324
       1069.69560      8.30174      8.50000     85.48974    -66.65000      0.11113      0.08387     14.92847     32.07848     43.97142     50.39358     55.42309     76.56025     78.86084      0.04111      3.27288      2.62918      0.25316      3.46679   2033.13341
       1069.84800      8.29407      8.50000     71.21773    -67.12083      0.09281      0.07710     11.77420     22.34213     28.27347     31.62619     34.90735     47.49913     69.23438      0.02857      3.12527      2.69195      0.20906      9.85386   2051.93329
       1070.00040      8.36309      8.50000     69.68550    -67.06250      0.07426      0.07945     13.37660     24.03281     29.18501     32.54356     35.96328     48.54354     66.73355      0.02514      3.02104      2.66670      0.19051     20.56999   2072.79983
       1070.15280      8.34009      8.50000     81.10438    -67.01563      0.06324      0.06849     14.78683     23.35492     27.07325     29.80873     32.92908     43.71116     66.41988      0.02846      3.03073      2.56092      0.20109      4.51804   2088.79993
       1070.30520      8.24805      8.50000     77.31966    -67.05417      0.04830      0.07046     13.31806     20.46079     23.66195     26.12662     29.13725     38.45538     70.79169      0.04089      2.95069      2.51337      0.22968      4.04128   2030.25001
       1070.45760      8.21353      8.50000     71.66583    -67.20417      0.00221      0.07638     12.93319     22.37555     26.60902     29.45776     33.34536     44.30645     77.11080      0.04353      3.13694      2.42062      0.25871      3.68021   2062.66679
       1070.61000      8.22504      8.50000     79.32196    -67.01250      0.12680      0.12597     11.88220     20.27075     24.93001     27.59114     31.28052     42.14522     80.56474      0.04522      2.84969      2.31204      0.30238      1.88143   2059.40009
