~VERSION INFORMATION 
VERS  .    2.0                                     :CWLS Log ASCII Standard - VERSION2.0
WRAP  .    NO                                      :One Line per Depth step
DLM   .    SPACE                                   :Column Data section Delimiter
PROD  .    Schlumberger Technology Corp.           :LAS Producer
PROG  .    Horizon LASWriter 3.0.9609.0            :LAS Program name and version
SOURCE.    Composite 1 (PEX-HRLA-BHC-SP-Log[5]/Up + PEX-HRLA-BHC-SP 2-Main[2]/Up):Run&Pass Information
CREA  .    03/21/2012                              :LAS Creation date {MM/DD/YYYY}
#--------------------------------------------------
~WELL INFORMATION 
#MNEM           .UNIT                      DATA            :DESCRIPTION
#----            ------          --------------            -----------------------------
STRT            .m                     83.36280            :START DEPTH
STOP            .m                   1576.27320            :STOP DEPTH
STEP            .m                       0.1524            :STEP
NULL            .                       -999.25            :NULL VALUE
COMP            .                       TAG Oil            :COMPANY
WELL            .                    Cheal A-10            :WELL NAME
FLD             .                         Cheal            :FIELD NAME
RIGN            .                     Ensign 19            :Rig Name
RIGTYP          .                       -999.25            :Rig Type
SON             .                       -999.25            :Service Order Number
SRVC            .                  Schlumberger            :SERVICE COMPANY
DATE            .                    03/06/2012            :LOG DATE(Composite Date for Composite LAP) (MM/DD/YYYY)
CLAB            .                       -999.25            :County Label
CNTY            .                       -999.25            :COUNTY
SLAB            .                       Region:            :State/Province Label
STAT            .                      Taranaki            :STATE or PROVINCE
PROV            .                      Taranaki            :STATE or PROVINCE
CTRY            .                   New Zealand            :COUNTRY
CONT_REGION     .                       -999.25            :Continent Region
SECT            .                       -999.25            :Section
TOWN            .                       -999.25            :Township
RANG            .                       -999.25            :Range
API             .                       -999.25            :API NUMBER
UWI             .                     PMP 38156            :UNIQUE WELL ID
LUL             .                          NZNP            :Logging Unit Location
LUN             .                          2268            :Logging Unit Number
LOC             .                       -999.25            :FIELD LOCATION
FL1             .                       -999.25            :Field Location Line 1
FL2             .                       -999.25            :Field Location Line 2
LATI            .deg             39° 23' 19.653" S         :LATITUDE
LONG            .deg             174° 18' 14.524" E        :LONGITUDE
PDAT            .                           MSL            :Local Permanent Datum
LMF             .                            DF            :Logging Measured From
APD             .m                    269.80000            :Elevation of Depth Reference (LMF) Above Permanent Datum
EPD             .m                      0.00000            :Elevation of Permanent Datum (PDAT) above Mean Sea Level
EKB             .m                      -999.25            :Elevation of Kelly Bushing Above Permanent Datum
EDF             .m                    269.80000            :Elevation of Drill Floor Above Permanent Datum
EGL             .m                    265.00000            :Elevation of Ground Level Above Permanent Datum
ECF             .m                      -999.25            :Elevation of Casing Flange above Permanent Datum
#--------------------------------------------------
~CURVE INFORMATION
#MNEM           .UNIT                  API CODE            :DESCRIPTION
#----            ------          --------------            -----------------------------
DEPT            .m                                         :                                                        Depth Index
CALI            .in                                        :        (HDRS[1])               (1in)                   Caliper
BS              .in                                        :        (Borehole)              (6in)                   Bit Size
GR              .gAPI                                      :        (HGNS[1])               (2in)                   Gamma Ray
SP              .mV                                        :        (SPE-A[1])              (6in)                   Spontaneous Potential
DSO8            .in                                        :        (HDRS[1])               (2in)                   High Resolution Density Standoff
RSO8            .in                                        :        (HDRS[1])               (2in)                   Resistivity Standoff High Resolution
RLA1            .ohm.m                                     :        (HRLT-B[1])             (2in)                   Apparent Resistivity from Computed Focusing Mode 1
RLA2            .ohm.m                                     :        (HRLT-B[1])             (2in)                   Apparent Resistivity from Computed Focusing Mode 2
RLA3            .ohm.m                                     :        (HRLT-B[1])             (2in)                   Apparent Resistivity from Computed Focusing Mode 3
RLA4            .ohm.m                                     :        (HRLT-B[1])             (2in)                   Apparent Resistivity from Computed Focusing Mode 4
RLA5            .ohm.m                                     :        (HRLT-B[1])             (2in)                   Apparent Resistivity from Computed Focusing Mode 5
RT              .ohm.m                                     :        (HRLT-B[1])             (2in)                   True Resistivity
DT              .us/ft                                     :        (DSLT-H[1])             (6in)                   Delta-T (also called Slowness or Interval Transit Time)
HDRA            .g/cm3                                     :        (HDRS[1])               (2in)                   Density Standoff Correction
PEF8            .                                          :        (HDRS[1])               (2in)                   High Resolution Formation Photoelectric Factor
RHO8            .g/cm3                                     :        (HDRS[1])               (2in)                   High Resolution Formation Density
TNPH            .m3/m3                                     :        (HGNS[1])               (2in)                   Thermal Neutron Porosity (Ratio Method) in Selected Lithology
RXO8            .ohm.m                                     :        (HDRS[1])               (2in)                   Invaded Formation Resistivity filtered at 8 inches
TENS            .lbf                                       :        (WLWorkflow)            (6in)                   Cable Tension
#-------------------------------------------------------------
#            DEPT         CALI           BS           GR           SP         DSO8         RSO8         RLA1         RLA2         RLA3         RLA4         RLA5           RT           DT         HDRA         PEF8         RHO8         TNPH         RXO8         TENS 
#                    (HDRS[1])   (Borehole)    (HGNS[1])   (SPE-A[1])    (HDRS[1])    (HDRS[1])  (HRLT-B[1])  (HRLT-B[1])  (HRLT-B[1])  (HRLT-B[1])  (HRLT-B[1])  (HRLT-B[1])  (DSLT-H[1])    (HDRS[1])    (HDRS[1])    (HDRS[1])    (HGNS[1])    (HDRS[1])  (WLWorkflo) 
#                                                                                                                                                                                                                                                                        
#                        (1in)        (6in)        (2in)        (6in)        (2in)        (2in)        (2in)        (2in)        (2in)        (2in)        (2in)        (2in)        (6in)        (2in)        (2in)        (2in)        (2in)        (2in)        (6in) 
~ASCII
# ...
        192.02400      3.90689      8.50000     42.65794    -34.18750      0.53361      0.28137      0.01640      0.01389      0.01218      0.01037      0.00488      0.00488     69.44883      0.27909      7.40071      2.27566      0.56164      0.04667   1060.79989
        192.17640      3.89922      8.50000     45.72438    -34.08333      0.54695      0.28770      0.01549      0.01313      0.01150      0.00978      0.00432      0.00432     69.02452      0.28102      7.46730      2.28850      0.57124      0.04652   1048.20002
        192.32880      3.91073      8.50000     47.15905    -34.11666      0.54192      0.29085      0.01648      0.01405      0.01226      0.01047      0.00485      0.00485     69.30384      0.28281      7.35030      2.28347      0.58569      0.04643   1036.59988
        192.48120      3.89922      8.50000     51.89560    -34.18750      0.54545      0.29033      0.01673      0.01420      0.01241      0.01058      0.00501      0.00501     68.90428      0.28640      7.50049      2.29795      0.57042      0.04605   1028.93322
        192.63360      3.91073      8.50000     43.79041    -34.11666      0.55414      0.29109      0.01583      0.01359      0.01185      0.01006      0.00452      0.00452     61.26510      0.28792      7.45219      2.30130      0.63029      0.04613   1010.73336
        192.78600      3.91073      8.50000     47.95429    -34.02500      0.54002      0.28219      0.01661      0.01414      0.01243      0.01057      0.00495      0.00495     61.02888      0.28600      7.38731      2.28532      0.64589      0.04637   1007.46667
        192.93840      3.91073      8.50000     48.56216    -34.10833      0.52738      0.28589      0.01999      0.01686      0.01482      0.01279      0.00684      0.00684     61.43963      0.28175      7.57012      2.27817      0.68775      0.04623   1004.46659
        193.09080      3.90689      8.50000     49.39329    -34.32813      0.51673      0.28883      0.01737      0.01460      0.01281      0.01093      0.00520      0.00520     61.99519      0.27604      7.38916      2.25545      0.63464      0.04624   1007.87492
        193.24320      3.91073      8.50000     46.31651    -34.28750      0.52772      0.28896      0.01726      0.01464      0.01286      0.01104      0.00540      0.00540     62.12482      0.27489      7.43514      2.25635      0.63412      0.04644   1006.39995
        193.39560      3.92223      8.50000     45.50566    -34.16250      0.54603      0.29255      0.01640      0.01377      0.01208      0.01029      0.00463      0.00463     61.83600      0.27483      7.45121      2.27206      0.69404      0.04629   1046.39998
        193.54800      3.89922      8.50000     39.55331    -33.98333      0.56640      0.29228      0.01511      0.01297      0.01133      0.00960      0.00414      0.00414     62.00098      0.27871      7.47193      2.29782      0.77204      0.04609   1030.40010
        193.70040      3.90689      8.50000     50.00118    -33.67916      0.56663      0.28487      0.01761      0.01491      0.01309      0.01118      0.00568      0.00568     64.99564      0.28528      7.61131      2.36845      0.71007      0.04626   1035.20000
        193.85280      3.89922      8.50000     37.87006    -33.75000      0.53752      0.28156      0.01801      0.01509      0.01324      0.01133      0.00544      0.00544     70.80513      0.30352      7.74819      2.43454      0.56002      0.04752   1022.00011
        194.00520      3.91456      8.50000     42.39648    -34.08333      0.51167      0.28815      0.01798      0.01521      0.01340      0.01148      0.00570      0.00570     71.79905      0.31126      7.52288      2.39137      0.52675      0.04663   1012.80003
        194.15760      3.89922      8.50000     40.95562    -34.63334      0.52805      0.28634      0.01807      0.01529      0.01341      0.01150      0.00563      0.00563     72.22510      0.30207      7.28376      2.32443      0.50057      0.04647   1020.33338
        194.31000      3.89922      8.50000     41.51634    -35.14844      0.52363      0.28460      0.01647      0.01401      0.01230      0.01047      0.00471      0.00471     69.50549      0.28164      7.49756      2.29651      0.48688      0.04659   1035.26676
        194.46240      3.89922      8.50000     49.37128    -35.71667      0.51457      0.28775      0.01714      0.01457      0.01274      0.01087      0.00515      0.00515     68.80826      0.26765      7.44977      2.26987      0.48765      0.04611   1061.39991
        194.61480      3.91073      8.50000     45.54489    -36.07084      0.50575      0.29023      0.01796      0.01516      0.01330      0.01138      0.00555      0.00555     69.66615      0.26827      7.36865      2.27369      0.57167      0.04591   1056.81268
        194.76720      3.92223      8.50000     46.44200    -36.30833      0.49763      0.28085      0.01883      0.01584      0.01392      0.01191      0.00601      0.00601     69.58630      0.27023      7.40926      2.27013      0.58321      0.04597   1065.80009
        194.91960      3.89922      8.50000     49.65155    -36.35833      0.51610      0.28322      0.01718      0.01480      0.01294      0.01106      0.00535      0.00535     69.79036      0.27385      7.27395      2.26389      0.60970      0.04594   1091.73338
        195.07200      3.89922      8.50000     47.12703    -36.54583      0.53658      0.28295      0.01618      0.01380      0.01216      0.01034      0.00480      0.00480     62.22184      0.27150      7.51819      2.27371      0.51472      0.04580   1041.33346
        195.22440      3.92223      8.50000     47.75256    -36.48750      0.53143      0.28609      0.01711      0.01463      0.01289      0.01100      0.00530      0.00530     70.23296      0.26664      7.49015      2.27794      0.50179      0.04578   1104.26670
        195.37680      3.89922      8.50000     54.23318    -36.40833      0.51020      0.28592      0.01764      0.01489      0.01305      0.01119      0.00547      0.00547     69.62077      0.26349      7.36389      2.26601      0.48199      0.04554   1035.66670
        195.52920      3.90689      8.50000     47.42873    -36.52083      0.51531      0.28643      0.01492      0.01269      0.01111      0.00941      0.00397      0.00397     74.87714      0.26426      7.36319      2.26398      0.50636      0.04576   1032.26669
        195.68160      3.90689      8.50000     49.95464    -36.45000      0.50107      0.28734      0.01656      0.01397      0.01230      0.01054      0.00493      0.00493     70.38612      0.26156      7.26814      2.23764      0.54549      0.04552   1016.66675
        195.83400      3.91456      8.50000     42.58349    -36.12500      0.51396      0.28752      0.01680      0.01416      0.01241      0.01062      0.00500      0.00500     70.87143      0.25765      7.30379      2.24093      0.54914      0.04511    997.60003
        195.98640      3.89922      8.50000     46.84644    -35.85833      0.53429      0.28684      0.01652      0.01419      0.01238      0.01056      0.00494      0.00494     70.83668      0.25751      7.67081      2.24736      0.55585      0.04515   1017.73347
        196.13880      3.89922      8.50000     42.63853    -35.94167      0.54114      0.28115      0.01686      0.01435      0.01261      0.01078      0.00510      0.00510     70.31885      0.26855      7.96868      2.25908      0.53125      0.04515   1031.26674
        196.29120      3.89922      8.50000     43.85388    -36.00000      0.56191      0.28237      0.01612      0.01375      0.01207      0.01028      0.00481      0.00481     71.11636      0.28158      8.11894      2.29171      0.52114      0.04460   1038.33338
        196.44360      3.89922      8.50000     49.65167    -35.85833      0.56254      0.28336      0.01697      0.01440      0.01257      0.01074      0.00511      0.00511     70.22997      0.29101      8.45496      2.30691      0.53739      0.04455   1030.59996
        196.59600      3.91073      8.50000     44.07100    -35.80078      0.53005      0.28521      0.01657      0.01389      0.01219      0.01037      0.00477      0.00477     70.86094      0.29160      8.39905      2.32703      0.51891      0.04445   1044.73347
