~VERSION INFORMATION 
VERS  .    2.0                                     :CWLS Log ASCII Standard - VERSION2.0
WRAP  .    NO                                      :One Line per Depth step
DLM   .    SPACE                                   :Column Data section Delimiter
PROD  .    Schlumberger Technology Corp.           :LAS Producer
PROG  .    Horizon LASWriter 3.0.9609.0            :LAS Program name and version
SOURCE.    Composite 1 (PEX-HRLA-BHC-SP-Log[5]/Up + PEX-HRLA-BHC-SP 2-Main[2]/Up):Run&Pass Information
CREA  .    03/21/2012                              :LAS Creation date {MM/DD/YYYY}
#--------------------------------------------------
~WELL INFORMATION 
#MNEM           .UNIT                      DATA            :DESCRIPTION
#----            ------          --------------            -----------------------------
STRT            .m                     83.36280            :START DEPTH
STOP            .m                   1576.27320            :STOP DEPTH
STEP            .m                       0.1524            :STEP
NULL            .                       -999.25            :NULL VALUE
COMP            .                       TAG Oil            :COMPANY
WELL            .                    Cheal A-10            :WELL NAME
FLD             .                         Cheal            :FIELD NAME
RIGN            .                     Ensign 19            :Rig Name
RIGTYP          .                       -999.25            :Rig Type
SON             .                       -999.25            :Service Order Number
SRVC            .                  Schlumberger            :SERVICE COMPANY
DATE            .                    03/06/2012            :LOG DATE(Composite Date for Composite LAP) (MM/DD/YYYY)
CLAB            .                       -999.25            :County Label
CNTY            .                       -999.25            :COUNTY
SLAB            .                       Region:            :State/Province Label
STAT            .                      Taranaki            :STATE or PROVINCE
PROV            .                      Taranaki            :STATE or PROVINCE
CTRY            .                   New Zealand            :COUNTRY
CONT_REGION     .                       -999.25            :Continent Region
SECT            .                       -999.25            :Section
TOWN            .                       -999.25            :Township
RANG            .                       -999.25            :Range
API             .                       -999.25            :API NUMBER
UWI             .                     PMP 38156            :UNIQUE WELL ID
LUL             .                          NZNP            :Logging Unit Location
LUN             .                          2268            :Logging Unit Number
LOC             .                       -999.25            :FIELD LOCATION
FL1             .                       -999.25            :Field Location Line 1
FL2             .                       -999.25            :Field Location Line 2
LATI            .deg             39° 23' 19.653" S         :LATITUDE
LONG            .deg             174° 18' 14.524" E        :LONGITUDE
PDAT            .                           MSL            :Local Permanent Datum
LMF             .                            DF            :Logging Measured From
APD             .m                    269.80000            :Elevation of Depth Reference (LMF) Above Permanent Datum
EPD             .m                      0.00000            :Elevation of Permanent Datum (PDAT) above Mean Sea Level
EKB             .m                      -999.25            :Elevation of Kelly Bushing Above Permanent Datum
EDF             .m                    269.80000            :Elevation of Drill Floor Above Permanent Datum
EGL             .m                    265.00000            :Elevation of Ground Level Above Permanent Datum
ECF             .m                      -999.25            :Elevation of Casing Flange above Permanent Datum
#--------------------------------------------------
~CURVE INFORMATION
#MNEM           .UNIT                  API CODE            :DESCRIPTION
#----            ------          --------------            -----------------------------
DEPT            .m                                         :                                                        Depth Index
CALI            .in                                        :        (HDRS[1])               (1in)                   Caliper
BS              .in                                        :        (Borehole)              (6in)                   Bit Size
GR              .gAPI                                      :        (HGNS[1])               (2in)                   Gamma Ray
SP              .mV                                        :        (SPE-A[1])              (6in)                   Spontaneous Potential
DSO8            .in                                        :        (HDRS[1])               (2in)                   High Resolution Density Standoff
RSO8            .in                                        :        (HDRS[1])               (2in)                   Resistivity Standoff High Resolution
RLA1            .ohm.m                                     :        (HRLT-B[1])             (2in)                   Apparent Resistivity from Computed Focusing Mode 1
RLA2            .ohm.m                                     :        (HRLT-B[1])             (2in)                   Apparent Resistivity from Computed Focusing Mode 2
RLA3            .ohm.m                                     :        (HRLT-B[1])             (2in)                   Apparent Resistivity from Computed Focusing Mode 3
RLA4            .ohm.m                                     :        (HRLT-B[1])             (2in)                   Apparent Resistivity from Computed Focusing Mode 4
RLA5            .ohm.m                                     :        (HRLT-B[1])             (2in)                   Apparent Resistivity from Computed Focusing Mode 5
RT              .ohm.m                                     :        (HRLT-B[1])             (2in)                   True Resistivity
DT              .us/ft                                     :        (DSLT-H[1])             (6in)                   Delta-T (also called Slowness or Interval Transit Time)
HDRA            .g/cm3                                     :        (HDRS[1])               (2in)                   Density Standoff Correction
PEF8            .                                          :        (HDRS[1])               (2in)                   High Resolution Formation Photoelectric Factor
RHO8            .g/cm3                                     :        (HDRS[1])               (2in)                   High Resolution Formation Density
TNPH            .m3/m3                                     :        (HGNS[1])               (2in)                   Thermal Neutron Porosity (Ratio Method) in Selected Lithology
RXO8            .ohm.m                                     :        (HDRS[1])               (2in)                   Invaded Formation Resistivity filtered at 8 inches
TENS            .lbf                                       :        (WLWorkflow)            (6in)                   Cable Tension
#-------------------------------------------------------------
#            DEPT         CALI           BS           GR           SP         DSO8         RSO8         RLA1         RLA2         RLA3         RLA4         RLA5           RT           DT         HDRA         PEF8         RHO8         TNPH         RXO8         TENS 
#                    (HDRS[1])   (Borehole)    (HGNS[1])   (SPE-A[1])    (HDRS[1])    (HDRS[1])  (HRLT-B[1])  (HRLT-B[1])  (HRLT-B[1])  (HRLT-B[1])  (HRLT-B[1])  (HRLT-B[1])  (DSLT-H[1])    (HDRS[1])    (HDRS[1])    (HDRS[1])    (HGNS[1])    (HDRS[1])  (WLWorkflo) 
#                                                                                                                                                                                                                                                                        
#                        (1in)        (6in)        (2in)        (6in)        (2in)        (2in)        (2in)        (2in)        (2in)        (2in)        (2in)        (2in)        (6in)        (2in)        (2in)        (2in)        (2in)        (2in)        (6in) 
~ASCII
# ...
        286.51200      8.37077      8.50000    124.42960   -109.97500      0.02093      0.06933     12.23257     19.12394     22.88204     24.83139     27.92080     37.08099    136.16352     -0.00039      2.86620      2.21316      0.36525      1.36377   1162.66667
        286.66440      8.53183      8.50000    111.59110   -110.37500     -0.01836      0.05048     11.36898     18.30561     21.68094     23.58096     26.56037     35.16843    135.70531     -0.00319      2.91822      2.21708      0.38048      1.36284   1146.49998
        286.81680      8.63154      8.50000    111.00310   -110.47500     -0.01168      0.04202     11.42653     18.66444     22.06535     24.16470     27.14062     36.02365    135.85543     -0.00546      2.96681      2.21911      0.38957      1.37832   1189.06666
        286.96920      8.60853      8.50000    110.54310   -110.57500      0.08839      0.05041     11.96314     19.97187     23.67237     25.98405     29.19011     38.79197    134.91045     -0.00617      3.01636      2.19389      0.39469      1.44302   1191.26664
        287.12160      8.59319      8.50000    101.32470   -110.51670      0.10815      0.04802     12.37743     20.89987     24.91216     27.41154     30.79633     41.06662    134.43722     -0.00494      2.95328      2.21013      0.36360      1.53164   1219.26659
        287.27400      8.56251      8.50000     96.97845   -110.41670      0.11789      0.04264     11.47539     17.88041     21.03604     23.09470     25.87269     34.32426    134.30293     -0.00655      3.00689      2.20480      0.36162      1.48531   1209.79989
        287.42640      8.46280      8.50000    100.42100   -110.42920      0.08547      0.05744     11.70802     18.82297     22.49541     24.72216     27.60575     36.81659    134.38056     -0.00760      2.87994      2.18374      0.36600      1.39754   1192.66675
        287.57880      8.48581      8.50000    108.22370   -110.78330      0.07237      0.06921     12.86912     22.02633     26.92701     29.69048     33.13073     44.54069    135.31462     -0.00879      2.89192      2.20591      0.38579      1.47597   1187.53346
        287.73120      8.54717      8.50000    102.27070   -111.20830      0.07469      0.07836     12.21883     19.72581     23.68831     25.95586     28.78343     38.53728    135.34815     -0.00936      2.89413      2.19783      0.38683      1.48169   1177.66659
        287.88360      8.53567      8.50000     99.32632   -111.53750      0.09090      0.08146     12.02945     19.36938     23.22905     25.43794     28.09448     37.62476    135.35449     -0.01000      2.89742      2.20809      0.37404      1.55006   1152.40009
        288.03600      8.48965      8.50000    101.23600   -111.94140      0.07073      0.07328     11.54936     18.42506     21.95750     24.02858     26.53694     35.46792    135.60756     -0.00775      2.90043      2.20209      0.37839      1.50201   1189.13342
        288.18840      8.44363      8.50000    118.17050   -112.41250      0.01613      0.08125     11.29530     17.64149     21.02466     22.81858     25.18647     33.55761    136.24273     -0.00393      2.89461      2.21047      0.36836      1.38583   1157.87509
        288.34080      8.57018      8.50000    113.26540   -112.80420      0.01423      0.08599     11.90269     19.44268     23.44596     25.39898     28.06034     37.57327    135.98237      0.00444      2.89965      2.21614      0.41270      1.45651   1149.66664
        288.49320      8.56251      8.50000    102.07300   -112.78750      0.07586      0.16171     11.53301     19.07659     22.66586     24.45806     26.97712     36.06007    135.98289      0.00628      2.88795      2.20888      0.40874      1.52523   1158.93326
        288.64560      8.54717      8.50000    120.44310   -112.80000     -0.00634      0.11097     10.91430     17.04911     19.93305     21.50037     23.66412     31.38759    136.81588      0.00715      2.90171      2.23755      0.46018      1.58196   1180.06665
        288.79800      8.53183      8.50000    111.24040   -112.62920     -0.00220      0.08188     10.61651     16.80081     19.71882     21.31250     23.47353     31.19701    136.72325      0.00379      3.08186      2.22292      0.46260      1.52268   1179.40010
        288.95040      8.51649      8.50000    116.77970   -112.58750     -0.01149      0.18149     10.60557     16.93182     20.01121     21.63820     23.83718     31.74097    136.45539      0.00427      2.94242      2.20825      0.52198      1.44040   1187.93339
        289.10280      8.37077      8.50000    131.57390   -112.57920      0.05267      0.35392     10.93620     17.96313     21.33802     23.10946     25.49441     34.05187    136.18156      0.00681      2.77070      2.17401      0.45854      1.39606   1148.26676
        289.25520      8.29407      8.50000    114.99220   -112.81250      0.11760      0.20101     10.33678     17.13888     20.39935     22.09037     24.39718     32.60509    135.76231      0.01041      2.93851      2.18910      0.46296      1.20509   1171.66667
        289.40760      8.19436      8.50000    107.58340   -112.81250      0.04725      0.12251     10.74177     18.42038     22.26797     24.15052     26.71570     35.87214    135.30136      0.01200      2.80936      2.20926      0.43877      1.15897   1168.93749
        289.56000      8.39761      8.50000    114.45200   -112.82080      0.02513      0.09467     11.35619     20.42423     25.04745     27.31667     30.22361     40.75529    135.20462      0.01006      2.90308      2.21517      0.44393      1.35383   1177.00004
        289.71240      8.52417      8.50000    114.71340   -113.02500      0.04072      0.09827     11.38992     21.27063     26.16518     28.63904     31.75359     42.83791    135.17755      0.00635      2.82241      2.19007      0.41248      1.31762   1150.39997
        289.86480      8.60853      8.50000    118.28820   -113.09170     -0.01018      0.06049     11.39948     20.58530     24.99439     27.27550     30.23016     40.66440    134.66046      0.00367      2.84901      2.18889      0.41256      1.36594   1156.80005
        290.01720      8.40911      8.50000    109.82260   -113.17500     -0.00517      0.08217     11.23444     19.68564     23.66387     25.95939     28.60098     38.49197    134.02559      0.00265      2.80016      2.20309      0.40041      1.34678   1179.20002
        290.16960      8.17135      8.50000    114.73600   -113.40000      0.00171      0.09577     10.95357     18.31307     21.79765     23.87797     26.26369     35.21653    133.71402      0.00157      2.79371      2.20106      0.37774      1.33741   1179.33333
        290.32200      8.44363      8.50000    117.47130   -113.55830      0.02975      0.08409     11.07596     18.64766     22.18838     24.20722     26.61475     35.66829    134.13727      0.00120      2.83214      2.20771      0.39513      1.34248   1190.66662
        290.47440      8.43213      8.50000    108.32820   -113.28330      0.00629      0.06320     11.18105     19.45217     23.23039     25.26478     27.79496     37.31427    134.96901      0.00071      2.80068      2.20460      0.39601      1.39002   1179.73326
        290.62680      8.66222      8.50000    107.96940   -113.25000     -0.00301      0.06123     11.92414     20.61831     24.50995     26.53646     29.27756     39.22702    135.20093     -0.00096      2.92630      2.20538      0.40928      1.43509   1175.60015
        290.77920      8.66989      8.50000    111.70840   -113.27500     -0.01844      0.05907     12.74331     22.19059     26.53073     28.71552     31.76356     42.57055    135.39740     -0.00255      2.86099      2.19772      0.41124      1.38189   1170.81262
        290.93160      8.66989      8.50000    112.59220   -113.05000     -0.02432      0.05797     12.48974     20.89625     24.73016     26.64876     29.50772     39.37111    135.19825     -0.00344      2.75444      2.21569      0.40535      1.40001   1182.06678
        291.08400      8.62771      8.50000    116.62150   -113.06250      0.00534      0.06236     11.93519     19.40298     22.84070     24.46390     27.11713     36.04982    134.91603     -0.00165      2.79032      2.21427      0.43253      1.31778   1181.53331
