~VERSION INFORMATION 
VERS  .    2.0                                     :CWLS Log ASCII Standard - VERSION2.0
WRAP  .    NO                                      :One Line per Depth step
DLM   .    SPACE                                   :Column Data section Delimiter
PROD  .    Schlumberger Technology Corp.           :LAS Producer
PROG  .    Horizon LASWriter 3.0.9609.0            :LAS Program name and version
SOURCE.    Composite 1 (PEX-HRLA-BHC-SP-Log[5]/Up + PEX-HRLA-BHC-SP 2-Main[2]/Up):Run&Pass Information
CREA  .    03/21/2012                              :LAS Creation date {MM/DD/YYYY}
#--------------------------------------------------
~WELL INFORMATION 
#MNEM           .UNIT                      DATA            :DESCRIPTION
#----            ------          --------------            -----------------------------
STRT            .m                     83.36280            :START DEPTH
STOP            .m                   1576.27320            :STOP DEPTH
STEP            .m                       0.1524            :STEP
NULL            .                       -999.25            :NULL VALUE
COMP            .                       TAG Oil            :COMPANY
WELL            .                    Cheal A-10            :WELL NAME
FLD             .                         Cheal            :FIELD NAME
RIGN            .                     Ensign 19            :Rig Name
RIGTYP          .                       -999.25            :Rig Type
SON             .                       -999.25            :Service Order Number
SRVC            .                  Schlumberger            :SERVICE COMPANY
DATE            .                    03/06/2012            :LOG DATE(Composite Date for Composite LAP) (MM/DD/YYYY)
CLAB            .                       -999.25            :County Label
CNTY            .                       -999.25            :COUNTY
SLAB            .                       Region:            :State/Province Label
STAT            .                      Taranaki            :STATE or PROVINCE
PROV            .                      Taranaki            :STATE or PROVINCE
CTRY            .                   New Zealand            :COUNTRY
CONT_REGION     .                       -999.25            :Continent Region
SECT            .                       -999.25            :Section
TOWN            .                       -999.25            :Township
RANG            .                       -999.25            :Range
API             .                       -999.25            :API NUMBER
UWI             .                     PMP 38156            :UNIQUE WELL ID
LUL             .                          NZNP            :Logging Unit Location
LUN             .                          2268            :Logging Unit Number
LOC             .                       -999.25            :FIELD LOCATION
FL1             .                       -999.25            :Field Location Line 1
FL2             .                       -999.25            :Field Location Line 2
LATI            .deg             39° 23' 19.653" S         :LATITUDE
LONG            .deg             174° 18' 14.524" E        :LONGITUDE
PDAT            .                           MSL            :Local Permanent Datum
LMF             .                            DF            :Logging Measured From
APD             .m                    269.80000            :Elevation of Depth Reference (LMF) Above Permanent Datum
EPD             .m                      0.00000            :Elevation of Permanent Datum (PDAT) above Mean Sea Level
EKB             .m                      -999.25            :Elevation of Kelly Bushing Above Permanent Datum
EDF             .m                    269.80000            :Elevation of Drill Floor Above Permanent Datum
EGL             .m                    265.00000            :Elevation of Ground Level Above Permanent Datum
ECF             .m                      -999.25            :Elevation of Casing Flange above Permanent Datum
#--------------------------------------------------
~CURVE INFORMATION
#MNEM           .UNIT                  API CODE            :DESCRIPTION
#----            ------          --------------            -----------------------------
DEPT            .m                                         :                                                        Depth Index
CALI            .in                                        :        (HDRS[1])               (1in)                   Caliper
BS              .in                                        :        (Borehole)              (6in)                   Bit Size
GR              .gAPI                                      :        (HGNS[1])               (2in)                   Gamma Ray
SP              .mV                                        :        (SPE-A[1])              (6in)                   Spontaneous Potential
DSO8            .in                                        :        (HDRS[1])               (2in)                   High Resolution Density Standoff
RSO8            .in                                        :        (HDRS[1])               (2in)                   Resistivity Standoff High Resolution
RLA1            .ohm.m                                     :        (HRLT-B[1])             (2in)                   Apparent Resistivity from Computed Focusing Mode 1
RLA2            .ohm.m                                     :        (HRLT-B[1])             (2in)                   Apparent Resistivity from Computed Focusing Mode 2
RLA3            .ohm.m                                     :        (HRLT-B[1])             (2in)                   Apparent Resistivity from Computed Focusing Mode 3
RLA4            .ohm.m                                     :        (HRLT-B[1])             (2in)                   Apparent Resistivity from Computed Focusing Mode 4
RLA5            .ohm.m                                     :        (HRLT-B[1])             (2in)                   Apparent Resistivity from Computed Focusing Mode 5
RT              .ohm.m                                     :        (HRLT-B[1])             (2in)                   True Resistivity
DT              .us/ft                                     :        (DSLT-H[1])             (6in)                   Delta-T (also called Slowness or Interval Transit Time)
HDRA            .g/cm3                                     :        (HDRS[1])               (2in)                   Density Standoff Correction
PEF8            .                                          :        (HDRS[1])               (2in)                   High Resolution Formation Photoelectric Factor
RHO8            .g/cm3                                     :        (HDRS[1])               (2in)                   High Resolution Formation Density
TNPH            .m3/m3                                     :        (HGNS[1])               (2in)                   Thermal Neutron Porosity (Ratio Method) in Selected Lithology
RXO8            .ohm.m                                     :        (HDRS[1])               (2in)                   Invaded Formation Resistivity filtered at 8 inches
TENS            .lbf                                       :        (WLWorkflow)            (6in)                   Cable Tension
#-------------------------------------------------------------
#            DEPT         CALI           BS           GR           SP         DSO8         RSO8         RLA1         RLA2         RLA3         RLA4         RLA5           RT           DT         HDRA         PEF8         RHO8         TNPH         RXO8         TENS 
#                    (HDRS[1])   (Borehole)    (HGNS[1])   (SPE-A[1])    (HDRS[1])    (HDRS[1])  (HRLT-B[1])  (HRLT-B[1])  (HRLT-B[1])  (HRLT-B[1])  (HRLT-B[1])  (HRLT-B[1])  (DSLT-H[1])    (HDRS[1])    (HDRS[1])    (HDRS[1])    (HGNS[1])    (HDRS[1])  (WLWorkflo) 
#                                                                                                                                                                                                                                                                        
#                        (1in)        (6in)        (2in)        (6in)        (2in)        (2in)        (2in)        (2in)        (2in)        (2in)        (2in)        (2in)        (6in)        (2in)        (2in)        (2in)        (2in)        (2in)        (6in) 
~ASCII
# ...
        480.21240      8.07931      8.50000    116.00380    -93.78333      0.02945      0.07460     14.43815     23.82655     27.30368     30.46029     33.68401     44.78321    122.77231      0.00275      2.80578      2.26112      0.41467      1.19661   1404.99992
        480.36480      8.13300      8.50000    105.92200    -94.27917      0.01130      0.08852     15.38048     24.71564     28.63506     31.58534     35.06135     46.55864    123.02243      0.00144      2.88095      2.26530      0.42123      1.50523   1485.80007
        480.51720      8.10232      8.50000    105.95400    -94.39167     -0.01612      0.04803     15.07140     23.37783     27.12189     29.52959     32.92926     43.45125    123.00612     -0.00207      2.85717      2.26049      0.40594      1.36129   1389.86668
        480.66960      8.16368      8.50000    116.07950    -94.05078     -0.01082      0.03556     15.35417     24.69542     28.53702     31.06033     34.82878     45.92476    123.09378     -0.00637      2.80006      2.23920      0.37716      1.10826   1462.00000
        480.82200      8.12150      8.50000    104.14530    -93.91666      0.05123      0.05642     15.16196     25.44765     29.73438     32.07779     35.97540     47.74700    123.80260     -0.00678      2.89983      2.23334      0.40708      1.23385   1436.26679
        480.97440      8.12150      8.50000    114.72030    -93.74167      0.01862      0.06289     15.26925     24.14924     28.54015     30.59093     34.22592     45.35915    123.85737     -0.00519      2.92830      2.22350      0.39573      1.26092   1420.60008
        481.12680      8.12533      8.50000    111.75020    -93.54166      0.02154      0.06536     14.81686     22.87751     27.12575     28.86093     32.15292     42.58113    123.20888     -0.00286      2.82341      2.26495      0.38798      1.37838   1382.86658
        481.27920      7.99494      8.50000    122.09810    -93.54297      0.00108      0.04851     12.65148     18.23831     21.22638     22.40145     24.87745     32.46502    122.81279     -0.00149      2.84563      2.27199      0.37643      1.42450   1418.06244
        481.43160      7.98344      8.50000    116.43880    -93.47083     -0.01734      0.04684     12.18835     17.64105     20.33968     21.54486     23.85328     31.11255    122.48992     -0.00022      2.87931      2.27869      0.40314      1.37657   1374.93329
        481.58400      8.16368      8.50000    115.38820    -93.54166     -0.00245      0.04978     14.01035     21.70904     24.72985     26.38861     29.20065     38.37259    122.76161     -0.00222      2.82376      2.27132      0.40891      1.32685   1369.00014
        481.73640      8.44363      8.50000    115.02370    -93.67188     -0.00736      0.06321     16.12618     27.71678     32.46133     34.97259     38.86283     51.78041    123.31586     -0.00393      2.90903      2.27834      0.41635      1.51847   1383.40005
        481.88880      8.20203      8.50000    129.65080    -93.67917      0.08447      0.05707     12.99703     19.75471     22.84107     24.58434     27.18862     35.84895    123.73774     -0.00597      2.82473      2.22626      0.41267      1.31379   1409.24993
        482.04120      8.15601      8.50000    123.98500    -93.72083      0.04958      0.05350     13.81535     21.05349     24.53497     26.57071     29.41121     38.91266    123.23415     -0.00407      2.92159      2.23021      0.41205      1.25406   1398.86668
        482.19360      8.13300      8.50000    112.13320    -93.65417      0.02523      0.06043     13.99951     21.76985     25.76236     28.00317     31.08694     41.35692    123.35329     -0.00255      3.00783      2.26639      0.41145      1.49803   1429.40001
        482.34600      8.17902      8.50000    115.63770    -93.51250      0.01813      0.06380     12.25721     18.10522     21.34908     23.07784     25.49616     33.72430    122.11263     -0.00047      2.78221      2.27224      0.39230      1.33131   1381.46669
        482.49840      8.27873      8.50000    123.94270    -93.29297     -0.00788      0.06104     17.35155     30.50236     36.95750     40.73414     45.24116     60.98808    122.48342     -0.00068      3.02929      2.28999      0.40317      1.49829   1373.26679
        482.65080      8.38611      8.50000    121.72060    -92.87500     -0.02078      0.02614     16.09794     25.73036     30.22187     33.37870     36.98600     49.34352    124.48538     -0.00245      2.90827      2.23363      0.37158      1.20783   1357.75002
        482.80320      8.50115      8.50000    106.13260    -92.62500     -0.01681      0.04180     15.99407     26.73664     31.87676     35.47528     39.44294     52.82933    124.59605     -0.00317      2.87601      2.18302      0.37990      0.94759   1363.86662
        482.95560      8.40911      8.50000    115.20550    -92.64453     -0.00364      0.05985     16.34934     28.55972     33.85555     37.41504     41.81149     55.91686    126.17516     -0.00267      2.78741      2.21265      0.38807      1.03987   1431.20005
        483.10800      8.16368      8.50000    112.97040    -92.74583     -0.01873      0.06777     15.85680     25.80821     30.49680     33.35349     37.24394     49.64565    125.47884     -0.00150      2.84008      2.24325      0.42656      1.29366   1357.25005
        483.26040      8.12150      8.50000    104.71960    -93.13333     -0.01830      0.05811     14.75410     24.08031     28.80176     31.53215     35.25531     47.13722    124.61769     -0.00234      2.93032      2.25129      0.43441      1.34191   1386.26659
        483.41280      7.99494      8.50000    108.03710    -92.95417     -0.00076      0.04419     13.44318     21.69797     25.80854     28.40693     31.77755     42.36270    124.19823     -0.00355      2.78665      2.22306      0.43919      1.11030   1411.26669
        483.56520      8.06397      8.50000    114.55130    -92.87500      0.02030      0.04627     13.10075     21.87673     25.57380     28.18250     31.48033     41.82465    123.09470     -0.00365      2.68161      2.23244      0.43306      1.09744   1372.66677
        483.71760      8.13300      8.50000    111.09630    -92.47656     -0.02046      0.05534     12.84147     21.35474     24.80239     26.95556     29.83138     39.63425    122.25403     -0.00390      2.75000      2.25860      0.40727      1.27450   1408.56246
        483.87000      8.06397      8.50000    118.45050    -92.75000     -0.00803      0.06277     15.58997     29.00174     34.22197     37.24270     41.23416     55.03049    120.99697     -0.00359      2.89451      2.28973      0.37756      1.47352   1408.33338
        484.02240      8.03329      8.50000    126.76630    -92.91250      0.07023      0.06001     13.24805     22.73290     26.26452     28.36637     31.23533     41.50653    120.01351     -0.00332      2.93022      2.25717      0.35175      1.35230   1360.33330
        484.17480      8.03329      8.50000    117.14710    -92.73047      0.02076      0.05471     12.58347     22.17208     26.18029     28.37758     31.10741     41.74031    120.89663     -0.00109      2.82677      2.25236      0.36080      1.19752   1363.33338
        484.32720      8.08698      8.50000    111.10620    -92.14584      0.03894      0.05395     12.98458     21.76839     26.22314     28.35791     30.88205     41.72076    121.73880      0.00071      2.63874      2.21739      0.36846      0.87456   1385.49999
        484.47960      8.15601      8.50000    104.64530    -92.24583      0.00872      0.06125     14.85559     25.17743     30.83659     33.19936     36.10045     49.03699    122.09255      0.00200      2.75166      2.25314      0.39609      1.09872   1338.13342
        484.63200      8.27106      8.50000    103.77290    -92.36328      0.01133      0.06010     15.22412     25.08597     30.38457     32.66108     35.29023     47.78144    123.52633     -0.00013      2.92242      2.26001      0.42397      1.33312   1355.13347
        484.78440      8.28256      8.50000    123.96380    -91.99167     -0.01665      0.05198     12.71833     20.01481     23.53332     25.03942     27.05299     36.19363    122.55932     -0.00244      2.87264      2.22845      0.44201      1.12918   1409.56241
