~VERSION INFORMATION 
VERS  .    2.0                                     :CWLS Log ASCII Standard - VERSION2.0
WRAP  .    NO                                      :One Line per Depth step
DLM   .    SPACE                                   :Column Data section Delimiter
PROD  .    Schlumberger Technology Corp.           :LAS Producer
PROG  .    Horizon LASWriter 3.0.9609.0            :LAS Program name and version
SOURCE.    Composite 1 (PEX-HRLA-BHC-SP-Log[5]/Up + PEX-HRLA-BHC-SP 2-Main[2]/Up):Run&Pass Information
CREA  .    03/21/2012                              :LAS Creation date {MM/DD/YYYY}
#--------------------------------------------------
~WELL INFORMATION 
#MNEM           .UNIT                      DATA            :DESCRIPTION
#----            ------          --------------            -----------------------------
STRT            .m                     83.36280            :START DEPTH
STOP            .m                   1576.27320            :STOP DEPTH
STEP            .m                       0.1524            :STEP
NULL            .                       -999.25            :NULL VALUE
COMP            .                       TAG Oil            :COMPANY
WELL            .                    Cheal A-10            :WELL NAME
FLD             .                         Cheal            :FIELD NAME
RIGN            .                     Ensign 19            :Rig Name
RIGTYP          .                       -999.25            :Rig Type
SON             .                       -999.25            :Service Order Number
SRVC            .                  Schlumberger            :SERVICE COMPANY
DATE            .                    03/06/2012            :LOG DATE(Composite Date for Composite LAP) (MM/DD/YYYY)
CLAB            .                       -999.25            :County Label
CNTY            .                       -999.25            :COUNTY
SLAB            .                       Region:            :State/Province Label
STAT            .                      Taranaki            :STATE or PROVINCE
PROV            .                      Taranaki            :STATE or PROVINCE
CTRY            .                   New Zealand            :COUNTRY
CONT_REGION     .                       -999.25            :Continent Region
SECT            .                       -999.25            :Section
TOWN            .                       -999.25            :Township
RANG            .                       -999.25            :Range
API             .                       -999.25            :API NUMBER
UWI             .                     PMP 38156            :UNIQUE WELL ID
LUL             .                          NZNP            :Logging Unit Location
LUN             .                          2268            :Logging Unit Number
LOC             .                       -999.25            :FIELD LOCATION
FL1             .                       -999.25            :Field Location Line 1
FL2             .                       -999.25            :Field Location Line 2
LATI            .deg             39° 23' 19.653" S         :LATITUDE
LONG            .deg             174° 18' 14.524" E        :LONGITUDE
PDAT            .                           MSL            :Local Permanent Datum
LMF             .                            DF            :Logging Measured From
APD             .m                    269.80000            :Elevation of Depth Reference (LMF) Above Permanent Datum
EPD             .m                      0.00000            :Elevation of Permanent Datum (PDAT) above Mean Sea Level
EKB             .m                      -999.25            :Elevation of Kelly Bushing Above Permanent Datum
EDF             .m                    269.80000            :Elevation of Drill Floor Above Permanent Datum
EGL             .m                    265.00000            :Elevation of Ground Level Above Permanent Datum
ECF             .m                      -999.25            :Elevation of Casing Flange above Permanent Datum
#--------------------------------------------------
~CURVE INFORMATION
#MNEM           .UNIT                  API CODE            :DESCRIPTION
#----            ------          --------------            -----------------------------
DEPT            .m                                         :                                                        Depth Index
CALI            .in                                        :        (HDRS[1])               (1in)                   Caliper
BS              .in                                        :        (Borehole)              (6in)                   Bit Size
GR              .gAPI                                      :        (HGNS[1])               (2in)                   Gamma Ray
SP              .mV                                        :        (SPE-A[1])              (6in)                   Spontaneous Potential
DSO8            .in                                        :        (HDRS[1])               (2in)                   High Resolution Density Standoff
RSO8            .in                                        :        (HDRS[1])               (2in)                   Resistivity Standoff High Resolution
RLA1            .ohm.m                                     :        (HRLT-B[1])             (2in)                   Apparent Resistivity from Computed Focusing Mode 1
RLA2            .ohm.m                                     :        (HRLT-B[1])             (2in)                   Apparent Resistivity from Computed Focusing Mode 2
RLA3            .ohm.m                                     :        (HRLT-B[1])             (2in)                   Apparent Resistivity from Computed Focusing Mode 3
RLA4            .ohm.m                                     :        (HRLT-B[1])             (2in)                   Apparent Resistivity from Computed Focusing Mode 4
RLA5            .ohm.m                                     :        (HRLT-B[1])             (2in)                   Apparent Resistivity from Computed Focusing Mode 5
RT              .ohm.m                                     :        (HRLT-B[1])             (2in)                   True Resistivity
DT              .us/ft                                     :        (DSLT-H[1])             (6in)                   Delta-T (also called Slowness or Interval Transit Time)
HDRA            .g/cm3                                     :        (HDRS[1])               (2in)                   Density Standoff Correction
PEF8            .                                          :        (HDRS[1])               (2in)                   High Resolution Formation Photoelectric Factor
RHO8            .g/cm3                                     :        (HDRS[1])               (2in)                   High Resolution Formation Density
TNPH            .m3/m3                                     :        (HGNS[1])               (2in)                   Thermal Neutron Porosity (Ratio Method) in Selected Lithology
RXO8            .ohm.m                                     :        (HDRS[1])               (2in)                   Invaded Formation Resistivity filtered at 8 inches
TENS            .lbf                                       :        (WLWorkflow)            (6in)                   Cable Tension
#-------------------------------------------------------------
#            DEPT         CALI           BS           GR           SP         DSO8         RSO8         RLA1         RLA2         RLA3         RLA4         RLA5           RT           DT         HDRA         PEF8         RHO8         TNPH         RXO8         TENS 
#                    (HDRS[1])   (Borehole)    (HGNS[1])   (SPE-A[1])    (HDRS[1])    (HDRS[1])  (HRLT-B[1])  (HRLT-B[1])  (HRLT-B[1])  (HRLT-B[1])  (HRLT-B[1])  (HRLT-B[1])  (DSLT-H[1])    (HDRS[1])    (HDRS[1])    (HDRS[1])    (HGNS[1])    (HDRS[1])  (WLWorkflo) 
#                                                                                                                                                                                                                                                                        
#                        (1in)        (6in)        (2in)        (6in)        (2in)        (2in)        (2in)        (2in)        (2in)        (2in)        (2in)        (2in)        (6in)        (2in)        (2in)        (2in)        (2in)        (2in)        (6in) 
~ASCII
# ...
        579.42480      8.47815      8.50000    131.58920   -124.77730     -0.00968      0.11003     17.17159     18.94518     19.95038     20.60743     22.29807     25.42562    120.63533      0.00250      2.90997      2.25474      0.41523      1.97926   1479.80015
        579.57720      8.45513      8.50000    117.20840   -124.70000      0.00652      0.13021     17.54204     19.51441     20.71841     21.47988     23.23730     26.79531    120.34671      0.00120      2.98474      2.25867      0.42559      1.90700   1551.73339
        579.72960      8.44746      8.50000    127.28080   -124.90180     -0.01407      0.13458     18.07164     20.35228     21.77886     22.60378     24.46215     28.53899    120.30483      0.00112      2.92392      2.25702      0.39726      2.05812   1469.33327
        579.88200      8.48965      8.50000    132.06130   -124.86720      0.02275      0.10866     17.71235     19.52970     20.91749     21.81301     23.55646     27.22511    120.23540      0.00091      2.91549      2.27020      0.40340      2.01062   1497.68752
        580.03440      8.51266      8.50000    119.21670   -124.87080      0.00471      0.09677     18.51889     20.31604     21.96700     22.99675     24.80350     28.78302    119.34286      0.00188      2.86985      2.28266      0.39285      2.06882   1488.60007
        580.18680      8.52417      8.50000    130.14850   -124.77920      0.02018      0.08711     17.46701     19.12060     20.73484     21.63754     23.34228     27.07878    118.44001      0.00331      2.87930      2.31048      0.37521      1.89765   1516.20009
        580.33920      8.53567      8.50000    118.98010   -125.21670      0.02690      0.08963     18.17852     20.16535     21.96557     22.90453     24.71393     28.95870    117.70782      0.00661      2.95522      2.31465      0.36203      1.95722   1541.86675
        580.49160      8.57018      8.50000    123.01970   -125.01670      0.03520      0.08500     18.95336     21.53837     23.56439     24.52279     26.47515     31.48050    116.76867      0.00720      2.99272      2.31522      0.35161      2.20266   1507.26663
        580.64400      8.57018      8.50000    116.34140   -124.51250      0.04452      0.08530     18.56937     22.11603     24.02623     25.07232     27.06346     32.82524    115.50317      0.01043      3.06521      2.33629      0.35389      2.14287   1506.33322
        580.79640      8.52417      8.50000    112.43290   -124.25780      0.06960      0.10538     17.39549     21.93562     23.82846     25.02165     27.06752     33.61990    113.82774      0.00910      2.93138      2.34212      0.35621      2.04653   1507.26663
        580.94880      8.38611      8.50000    123.92860   -124.21250      0.10511      0.12306     15.06705     19.27524     20.88677     22.09718     23.94628     29.89107    108.18702      0.00988      2.94946      2.35045      0.32946      1.91127   1465.81253
        581.10120      8.38611      8.50000    115.79010   -123.70000      0.11058      0.11311     13.84498     16.62302     18.06340     19.09246     20.71282     25.22331     98.79973      0.00970      3.00366      2.42031      0.29046      2.31117   1503.13352
        581.25360      8.50115      8.50000    107.94360   -123.54580     -0.00238      0.11392     13.36068     15.80965     17.14633     18.12570     19.63038     23.74074     98.82936      0.00989      3.14364      2.48871      0.27531      4.88765   1448.20010
        581.40600      8.50115      8.50000    116.00350   -123.32920      0.01952      0.08606     12.08274     14.69684     15.82585     16.65939     17.98270     21.95570    102.14854      0.00733      2.97898      2.35236      0.30695      2.30252   1529.80013
        581.55840      8.47815      8.50000    120.79340   -123.47500      0.00296      0.07583     12.84225     15.92839     17.20144     17.91634     19.30264     23.75156    109.55588      0.00228      3.06580      2.29069      0.37069      1.96848   1487.33327
        581.71080      8.52417      8.50000    122.08030   -123.55000      0.02194      0.07474     13.09655     15.23664     16.38680     16.88136     18.10510     21.56068    122.78353     -0.00067      3.12135      2.27035      0.41684      2.02229   1506.00006
        581.86320      8.59319      8.50000    124.89640   -123.90630     -0.01515      0.08031     14.16329     15.89388     17.00577     17.39538     18.57927     21.59645    127.21633     -0.00208      3.02930      2.25807      0.42060      2.32042   1504.06243
        582.01560      8.63921      8.50000    116.67700   -124.35420     -0.03156      0.08179     14.95006     16.53921     17.67112     18.00155     19.21096     22.09083    129.48169     -0.00360      3.01479      2.26038      0.41850      3.22901   1501.40002
        582.16800      8.63921      8.50000    111.39040   -124.34170     -0.00154      0.07498     13.02281     14.08726     15.09508     15.39924     16.41119     18.66482    130.42624     -0.00357      3.03837      2.26648      0.40755      2.77545   1508.59997
        582.32040      8.61620      8.50000    120.87990   -124.22500      0.01272      0.07795     13.36585     14.28494     15.38682     15.81373     16.87322     19.14866    129.01785     -0.00128      2.94678      2.26634      0.40745      1.90923   1484.93343
        582.47280      8.60470      8.50000    119.08950   -124.19170     -0.01380      0.11372     14.63929     15.60358     16.83511     17.43066     18.65885     21.20935    127.81642      0.00319      2.94916      2.25447      0.38290      1.87362   1504.26678
        582.62520      8.42062      8.50000    119.80260   -124.02500      0.05870      0.16552     12.12318     12.92265     13.88705     14.48378     15.50485     17.61844    127.62406      0.01351      2.94530      2.24095      0.40648      1.74808   1478.37508
        582.77760      8.29407      8.50000    114.99080   -123.77730      0.14750      0.16403     11.37170     12.46358     13.23512     13.92201     14.91966     17.17528    127.42816      0.02819      3.06986      2.26622      0.40994      1.54250   1545.64286
        582.93000      8.35159      8.50000    124.32870   -123.70540      0.13493      0.13615     13.09525     15.17812     16.23731     17.18265     18.48131     22.04009    127.87869      0.03855      3.05660      2.27121      0.40137      1.67281   1497.00005
        583.08240      8.41679      8.50000    125.13740   -123.57500      0.09332      0.12619     13.68573     16.29488     17.38426     18.47048     19.88778     24.01159    128.57177      0.04229      2.98179      2.26827      0.36694      1.87103   1524.00006
        583.23480      8.39378      8.50000    116.17720   -123.32920      0.08395      0.13343     13.19543     15.50717     16.72623     17.70402     19.09825     23.01689    129.10746      0.03494      2.97686      2.24903      0.34712      1.84881   1512.93339
        583.38720      8.38611      8.50000    112.30270   -123.20830      0.10585      0.13151     12.97859     15.20630     16.47281     17.40306     18.87708     22.72282    129.45539      0.03195      2.98930      2.27695      0.37445      1.90412   1478.06665
        583.53960      8.38611      8.50000    120.32410   -123.06700      0.09782      0.12351     13.11057     14.92198     16.39017     17.26689     18.78764     22.41319    130.02920      0.02931      3.05003      2.25497      0.39427      1.80288   1514.79998
        583.69200      8.40911      8.50000    121.08230   -122.91250      0.11263      0.14750     13.35192     15.46528     16.86410     17.71580     19.30934     23.11695    131.22731      0.02852      2.97607      2.25952      0.40130      1.81569   1503.99993
        583.84440      8.40911      8.50000    109.70700   -122.77500      0.09682      0.11682     13.20174     15.08990     16.39654     17.16493     18.70201     22.19193    132.57681      0.02244      3.08569      2.28186      0.38652      1.85774   1535.40012
        583.99680      8.44746      8.50000    115.74220   -122.66250      0.05215      0.09320     14.49828     16.60197     17.82111     18.74665     20.43138     24.12354    133.60262      0.01312      3.07148      2.27060      0.41011      2.12247   1521.93339
