~VERSION INFORMATION 
VERS  .    2.0                                     :CWLS Log ASCII Standard - VERSION2.0
WRAP  .    NO                                      :One Line per Depth step
DLM   .    SPACE                                   :Column Data section Delimiter
PROD  .    Schlumberger Technology Corp.           :LAS Producer
PROG  .    Horizon LASWriter 3.0.9609.0            :LAS Program name and version
SOURCE.    Composite 1 (PEX-HRLA-BHC-SP-Log[5]/Up + PEX-HRLA-BHC-SP 2-Main[2]/Up):Run&Pass Information
CREA  .    03/21/2012                              :LAS Creation date {MM/DD/YYYY}
#--------------------------------------------------
~WELL INFORMATION 
#MNEM           .UNIT                      DATA            :DESCRIPTION
#----            ------          --------------            -----------------------------
STRT            .m                     83.36280            :START DEPTH
STOP            .m                   1576.27320            :STOP DEPTH
STEP            .m                       0.1524            :STEP
NULL            .                       -999.25            :NULL VALUE
COMP            .                       TAG Oil            :COMPANY
WELL            .                    Cheal A-10            :WELL NAME
FLD             .                         Cheal            :FIELD NAME
RIGN            .                     Ensign 19            :Rig Name
RIGTYP          .                       -999.25            :Rig Type
SON             .                       -999.25            :Service Order Number
SRVC            .                  Schlumberger            :SERVICE COMPANY
DATE            .                    03/06/2012            :LOG DATE(Composite Date for Composite LAP) (MM/DD/YYYY)
CLAB            .                       -999.25            :County Label
CNTY            .                       -999.25            :COUNTY
SLAB            .                       Region:            :State/Province Label
STAT            .                      Taranaki            :STATE or PROVINCE
PROV            .                      Taranaki            :STATE or PROVINCE
CTRY            .                   New Zealand            :COUNTRY
CONT_REGION     .                       -999.25            :Continent Region
SECT            .                       -999.25            :Section
TOWN            .                       -999.25            :Township
RANG            .                       -999.25            :Range
API             .                       -999.25            :API NUMBER
UWI             .                     PMP 38156            :UNIQUE WELL ID
LUL             .                          NZNP            :Logging Unit Location
LUN             .                          2268            :Logging Unit Number
LOC             .                       -999.25            :FIELD LOCATION
FL1             .                       -999.25            :Field Location Line 1
FL2             .                       -999.25            :Field Location Line 2
LATI            .deg             39° 23' 19.653" S         :LATITUDE
LONG            .deg             174° 18' 14.524" E        :LONGITUDE
PDAT            .                           MSL            :Local Permanent Datum
LMF             .                            DF            :Logging Measured From
APD             .m                    269.80000            :Elevation of Depth Reference (LMF) Above Permanent Datum
EPD             .m                      0.00000            :Elevation of Permanent Datum (PDAT) above Mean Sea Level
EKB             .m                      -999.25            :Elevation of Kelly Bushing Above Permanent Datum
EDF             .m                    269.80000            :Elevation of Drill Floor Above Permanent Datum
EGL             .m                    265.00000            :Elevation of Ground Level Above Permanent Datum
ECF             .m                      -999.25            :Elevation of Casing Flange above Permanent Datum
#--------------------------------------------------
~CURVE INFORMATION
#MNEM           .UNIT                  API CODE            :DESCRIPTION
#----            ------          --------------            -----------------------------
DEPT            .m                                         :                                                        Depth Index
CALI            .in                                        :        (HDRS[1])               (1in)                   Caliper
BS              .in                                        :        (Borehole)              (6in)                   Bit Size
GR              .gAPI                                      :        (HGNS[1])               (2in)                   Gamma Ray
SP              .mV                                        :        (SPE-A[1])              (6in)                   Spontaneous Potential
DSO8            .in                                        :        (HDRS[1])               (2in)                   High Resolution Density Standoff
RSO8            .in                                        :        (HDRS[1])               (2in)                   Resistivity Standoff High Resolution
RLA1            .ohm.m                                     :        (HRLT-B[1])             (2in)                   Apparent Resistivity from Computed Focusing Mode 1
RLA2            .ohm.m                                     :        (HRLT-B[1])             (2in)                   Apparent Resistivity from Computed Focusing Mode 2
RLA3            .ohm.m                                     :        (HRLT-B[1])             (2in)                   Apparent Resistivity from Computed Focusing Mode 3
RLA4            .ohm.m                                     :        (HRLT-B[1])             (2in)                   Apparent Resistivity from Computed Focusing Mode 4
RLA5            .ohm.m                                     :        (HRLT-B[1])             (2in)                   Apparent Resistivity from Computed Focusing Mode 5
RT              .ohm.m                                     :        (HRLT-B[1])             (2in)                   True Resistivity
DT              .us/ft                                     :        (DSLT-H[1])             (6in)                   Delta-T (also called Slowness or Interval Transit Time)
HDRA            .g/cm3                                     :        (HDRS[1])               (2in)                   Density Standoff Correction
PEF8            .                                          :        (HDRS[1])               (2in)                   High Resolution Formation Photoelectric Factor
RHO8            .g/cm3                                     :        (HDRS[1])               (2in)                   High Resolution Formation Density
TNPH            .m3/m3                                     :        (HGNS[1])               (2in)                   Thermal Neutron Porosity (Ratio Method) in Selected Lithology
RXO8            .ohm.m                                     :        (HDRS[1])               (2in)                   Invaded Formation Resistivity filtered at 8 inches
TENS            .lbf                                       :        (WLWorkflow)            (6in)                   Cable Tension
#-------------------------------------------------------------
#            DEPT         CALI           BS           GR           SP         DSO8         RSO8         RLA1         RLA2         RLA3         RLA4         RLA5           RT           DT         HDRA         PEF8         RHO8         TNPH         RXO8         TENS 
#                    (HDRS[1])   (Borehole)    (HGNS[1])   (SPE-A[1])    (HDRS[1])    (HDRS[1])  (HRLT-B[1])  (HRLT-B[1])  (HRLT-B[1])  (HRLT-B[1])  (HRLT-B[1])  (HRLT-B[1])  (DSLT-H[1])    (HDRS[1])    (HDRS[1])    (HDRS[1])    (HGNS[1])    (HDRS[1])  (WLWorkflo) 
#                                                                                                                                                                                                                                                                        
#                        (1in)        (6in)        (2in)        (6in)        (2in)        (2in)        (2in)        (2in)        (2in)        (2in)        (2in)        (2in)        (6in)        (2in)        (2in)        (2in)        (2in)        (2in)        (6in) 
~ASCII
# ...
        773.12520      8.42062      8.50000    115.96060   -101.98330      0.05339      0.06137      9.86903     12.43914     13.58683     14.42416     15.68430     19.57733    109.59502      0.00786      2.90659      2.31355      0.37239      1.50261   1734.66672
        773.27760      8.47815      8.50000    115.54170   -102.90230     -0.01045      0.05911     10.14670     12.19686     13.58253     14.45032     15.78199     19.57255    106.77056     -0.00117      2.86817      2.32061      0.36698      1.67354   1719.99996
        773.43000      8.52417      8.50000     87.84768   -103.76250      0.00489      0.05719     11.31197     13.99286     15.82336     16.89122     18.48388     23.40808    100.08355     -0.00269      3.09030      2.35430      0.34307      2.07767   1720.53321
        773.58240      8.59319      8.50000     82.32640   -104.48750     -0.06672      0.07091     22.01749     30.24818     35.46316     38.48975     42.31282     56.23669     93.23006     -0.00017      3.59740      2.44860      0.30943      4.95326   1700.33322
        773.73480      8.53183      8.50000     69.13047   -104.88330      0.01879      0.06241     61.62642     80.73360     97.61588    106.75800    118.68830    158.43270     82.57620      0.01076      4.06174      2.51265      0.24109     33.36237   1757.53339
        773.88720      8.47815      8.50000     56.37081   -105.04170      0.03492      0.07654    103.72850    129.35860    159.78330    177.02620    197.73990    266.22090     74.82294      0.02233      3.99547      2.57676      0.19976     66.26698   1680.46663
        774.03960      8.44746      8.50000     66.43776   -105.07030      0.09218      0.12872     29.08040     43.03394     50.91058     56.43076     61.69940     82.58095     79.69478      0.03334      3.92379      2.56674      0.19882     32.36897   1700.00006
        774.19200      8.24805      8.50000     86.68085   -104.46250      0.07472      0.11467     10.12370     12.16522     13.78789     14.80067     16.17326     20.21948     88.60728      0.03464      3.39622      2.40714      0.24389      2.81215   1763.62503
        774.34440      8.29407      8.50000    103.87480   -104.02920      0.09959      0.15004      9.09689     10.51311     11.66672     12.42756     13.54881     16.39880    100.35232      0.02453      3.09177      2.30796      0.33725      1.56084   1719.73334
        774.49680      8.27106      8.50000    106.55010   -103.76670      0.00379      0.15960      9.14936     10.90916     11.81064     12.54060     13.59126     16.49061    109.39138      0.01207      2.81918      2.24784      0.38126      1.62053   1745.73339
        774.64920      8.22504      8.50000    107.03250   -103.63750      0.01679      0.09553      8.78249     11.32985     12.01627     12.67016     13.65621     16.93197    110.89487      0.00628      2.80883      2.27176      0.40208      1.73957   1719.13332
        774.80160      8.31708      8.50000    108.84450   -104.14580      0.07639      0.12196      8.31237     12.08679     12.72877     13.26287     14.28223     18.17164    110.55776      0.01237      2.95591      2.30391      0.39385      1.64378   1694.13322
        774.95400      8.35543      8.50000    110.41550   -104.33200      0.04540      0.09519      8.08543     12.09707     13.11726     13.44262     14.46342     18.69303    110.84366      0.01523      2.84265      2.31979      0.41071      1.66473   1720.20004
        775.10640      8.43213      8.50000    108.09590   -104.27920      0.05755      0.06236      7.66978     10.88535     12.45325     12.60866     13.51910     17.67430    111.17047      0.01360      2.97294      2.35831      0.40234      1.64125   1774.80006
        775.25880      8.39378      8.50000    109.95460   -104.21250      0.04834      0.04607      7.64607     10.69922     12.64825     12.84323     13.68913     18.10061    112.19740      0.00811      2.92730      2.33318      0.40660      1.59565   1696.00003
        775.41120      8.42446      8.50000    108.29420   -103.86670      0.01392      0.03634      7.92465     10.86622     12.94298     13.46005     14.24497     18.88552    112.10907      0.00618      3.00639      2.32321      0.38761      1.61922   1744.06666
        775.56360      8.43213      8.50000    134.88630   -103.34580      0.00274      0.04209      8.00503     11.07407     13.07378     14.06499     14.76216     19.66552    111.96980      0.00253      3.04338      2.31602      0.40690      1.67001   1760.66655
        775.71600      8.43213      8.50000    119.86050   -102.68330     -0.00358      0.04440      7.67718     10.59482     12.35015     13.54540     14.17656     18.88474    112.04119      0.00066      2.92028      2.29568      0.38795      1.64132   1767.60011
        775.86840      8.42062      8.50000    114.21340   -102.43750     -0.00970      0.04941      7.73369     10.68871     12.42832     13.72743     14.42882     19.21494    111.25468      0.00034      2.92284      2.30471      0.39066      1.63560   1801.39991
        776.02080      8.43213      8.50000    116.01670   -102.27920      0.05297      0.05363      7.85105     10.94939     12.68014     13.99061     14.85078     19.71640    111.07403      0.00256      2.99305      2.34143      0.38241      1.61828   1741.87499
        776.17320      8.47815      8.50000    114.84170   -101.97920     -0.00144      0.05104      7.94676     11.13310     12.87448     14.12445     15.17842     20.06099    110.62375      0.00278      2.88058      2.31954      0.39328      1.65150   1699.33327
        776.32560      8.47048      8.50000    129.85440   -101.59170     -0.00220      0.04842      7.70924     10.80968     12.46665     13.61342     14.81479     19.48832    110.81050      0.00229      2.89477      2.29498      0.41315      1.59993   1739.06668
        776.47800      8.46280      8.50000    109.69430   -101.55420      0.01252      0.05361      7.90082     11.13785     12.83378     13.99801     15.33025     20.16726    110.83921      0.00066      2.84674      2.32067      0.38671      1.55665   1656.80010
        776.63040      8.45513      8.50000    110.88230   -101.38280     -0.00530      0.05006      7.66290     10.62656     12.22570     13.30633     14.71044     19.24003    112.07462      0.00035      2.89272      2.30864      0.39813      1.50275   1778.60001
        776.78280      8.43213      8.50000    108.32870   -101.62500      0.00094      0.05319      7.40788     10.20785     11.77368     12.74886     14.17585     18.50400    112.51427      0.00035      2.83614      2.27966      0.39664      1.40747   1756.18746
        776.93520      8.41679      8.50000    103.71810   -101.82500     -0.01894      0.05717      7.48735     10.13053     11.63758     12.55032     14.03525     18.21472    112.20855      0.00005      2.79988      2.26988      0.41987      1.50446   1687.53328
        777.08760      8.35159      8.50000    111.09380   -102.08330      0.01187      0.05630      7.59207     10.21235     11.70397     12.60387     14.17090     18.33626    111.30735      0.00023      2.89182      2.29773      0.42810      1.51264   1738.59998
        777.24000      8.45513      8.50000    104.58660   -102.32920      0.01647      0.05056      7.75373     10.58010     12.09289     13.00188     14.71910     19.00207    110.29203      0.00072      2.90498      2.32089      0.42392      1.61738   1706.00021
        777.39240      8.46664      8.50000    118.98590   -102.47660      0.00500      0.05332      7.35554     10.01774     11.38014     12.19401     13.87366     17.81823    109.95498      0.00282      2.91290      2.31252      0.39862      1.64727   1740.87504
        777.54480      8.46664      8.50000    108.83630   -102.68750      0.02180      0.05793      7.55270     10.36601     11.77256     12.60874     14.40432     18.52900    110.01997      0.00482      2.87211      2.32439      0.38542      1.69252   1721.06668
        777.69720      8.49348      8.50000    117.36780   -102.73330      0.00048      0.06310      7.68284     10.41097     11.92672     12.77160     14.56732     18.77407    110.38347      0.00422      2.98601      2.30104      0.38661      1.74324   1701.80010
