~VERSION INFORMATION 
VERS  .    2.0                                     :CWLS Log ASCII Standard - VERSION2.0
WRAP  .    NO                                      :One Line per Depth step
DLM   .    SPACE                                   :Column Data section Delimiter
PROD  .    Schlumberger Technology Corp.           :LAS Producer
PROG  .    Horizon LASWriter 3.0.9609.0            :LAS Program name and version
SOURCE.    Composite 1 (PEX-HRLA-BHC-SP-Log[5]/Up + PEX-HRLA-BHC-SP 2-Main[2]/Up):Run&Pass Information
CREA  .    03/21/2012                              :LAS Creation date {MM/DD/YYYY}
#--------------------------------------------------
~WELL INFORMATION 
#MNEM           .UNIT                      DATA            :DESCRIPTION
#----            ------          --------------            -----------------------------
STRT            .m                     83.36280            :START DEPTH
STOP            .m                   1576.27320            :STOP DEPTH
STEP            .m                       0.1524            :STEP
NULL            .                       -999.25            :NULL VALUE
COMP            .                       TAG Oil            :COMPANY
WELL            .                    Cheal A-10            :WELL NAME
FLD             .                         Cheal            :FIELD NAME
RIGN            .                     Ensign 19            :Rig Name
RIGTYP          .                       -999.25            :Rig Type
SON             .                       -999.25            :Service Order Number
SRVC            .                  Schlumberger            :SERVICE COMPANY
DATE            .                    03/06/2012            :LOG DATE(Composite Date for Composite LAP) (MM/DD/YYYY)
CLAB            .                       -999.25            :County Label
CNTY            .                       -999.25            :COUNTY
SLAB            .                       Region:            :State/Province Label
STAT            .                      Taranaki            :STATE or PROVINCE
PROV            .                      Taranaki            :STATE or PROVINCE
CTRY            .                   New Zealand            :COUNTRY
CONT_REGION     .                       -999.25            :Continent Region
SECT            .                       -999.25            :Section
TOWN            .                       -999.25            :Township
RANG            .                       -999.25            :Range
API             .                       -999.25            :API NUMBER
UWI             .                     PMP 38156            :UNIQUE WELL ID
LUL             .                          NZNP            :Logging Unit Location
LUN             .                          2268            :Logging Unit Number
LOC             .                       -999.25            :FIELD LOCATION
FL1             .                       -999.25            :Field Location Line 1
FL2             .                       -999.25            :Field Location Line 2
LATI            .deg             39° 23' 19.653" S         :LATITUDE
LONG            .deg             174° 18' 14.524" E        :LONGITUDE
PDAT            .                           MSL            :Local Permanent Datum
LMF             .                            DF            :Logging Measured From
APD             .m                    269.80000            :Elevation of Depth Reference (LMF) Above Permanent Datum
EPD             .m                      0.00000            :Elevation of Permanent Datum (PDAT) above Mean Sea Level
EKB             .m                      -999.25            :Elevation of Kelly Bushing Above Permanent Datum
EDF             .m                    269.80000            :Elevation of Drill Floor Above Permanent Datum
EGL             .m                    265.00000            :Elevation of Ground Level Above Permanent Datum
ECF             .m                      -999.25            :Elevation of Casing Flange above Permanent Datum
#--------------------------------------------------
~CURVE INFORMATION
#MNEM           .UNIT                  API CODE            :DESCRIPTION
#----            ------          --------------            -----------------------------
DEPT            .m                                         :                                                        Depth Index
CALI            .in                                        :        (HDRS[1])               (1in)                   Caliper
BS              .in                                        :        (Borehole)              (6in)                   Bit Size
GR              .gAPI                                      :        (HGNS[1])               (2in)                   Gamma Ray
SP              .mV                                        :        (SPE-A[1])              (6in)                   Spontaneous Potential
DSO8            .in                                        :        (HDRS[1])               (2in)                   High Resolution Density Standoff
RSO8            .in                                        :        (HDRS[1])               (2in)                   Resistivity Standoff High Resolution
RLA1            .ohm.m                                     :        (HRLT-B[1])             (2in)                   Apparent Resistivity from Computed Focusing Mode 1
RLA2            .ohm.m                                     :        (HRLT-B[1])             (2in)                   Apparent Resistivity from Computed Focusing Mode 2
RLA3            .ohm.m                                     :        (HRLT-B[1])             (2in)                   Apparent Resistivity from Computed Focusing Mode 3
RLA4            .ohm.m                                     :        (HRLT-B[1])             (2in)                   Apparent Resistivity from Computed Focusing Mode 4
RLA5            .ohm.m                                     :        (HRLT-B[1])             (2in)                   Apparent Resistivity from Computed Focusing Mode 5
RT              .ohm.m                                     :        (HRLT-B[1])             (2in)                   True Resistivity
DT              .us/ft                                     :        (DSLT-H[1])             (6in)                   Delta-T (also called Slowness or Interval Transit Time)
HDRA            .g/cm3                                     :        (HDRS[1])               (2in)                   Density Standoff Correction
PEF8            .                                          :        (HDRS[1])               (2in)                   High Resolution Formation Photoelectric Factor
RHO8            .g/cm3                                     :        (HDRS[1])               (2in)                   High Resolution Formation Density
TNPH            .m3/m3                                     :        (HGNS[1])               (2in)                   Thermal Neutron Porosity (Ratio Method) in Selected Lithology
RXO8            .ohm.m                                     :        (HDRS[1])               (2in)                   Invaded Formation Resistivity filtered at 8 inches
TENS            .lbf                                       :        (WLWorkflow)            (6in)                   Cable Tension
#-------------------------------------------------------------
#            DEPT         CALI           BS           GR           SP         DSO8         RSO8         RLA1         RLA2         RLA3         RLA4         RLA5           RT           DT         HDRA         PEF8         RHO8         TNPH         RXO8         TENS 
#                    (HDRS[1])   (Borehole)    (HGNS[1])   (SPE-A[1])    (HDRS[1])    (HDRS[1])  (HRLT-B[1])  (HRLT-B[1])  (HRLT-B[1])  (HRLT-B[1])  (HRLT-B[1])  (HRLT-B[1])  (DSLT-H[1])    (HDRS[1])    (HDRS[1])    (HDRS[1])    (HGNS[1])    (HDRS[1])  (WLWorkflo) 
#                                                                                                                                                                                                                                                                        
#                        (1in)        (6in)        (2in)        (6in)        (2in)        (2in)        (2in)        (2in)        (2in)        (2in)        (2in)        (2in)        (6in)        (2in)        (2in)        (2in)        (2in)        (2in)        (6in) 
~ASCII
# ...
        678.63720      8.42062      8.50000    129.23280   -119.37500      0.02502      0.10288     10.49994     11.89591     12.73065     13.34718     14.33963     16.87149    114.47081      0.00888      2.89681      2.28550      0.39975      1.88496   1616.93765
        678.78960      8.28640      8.50000    109.05000   -119.28750      0.07275      0.16014     10.93271     12.18856     13.18096     13.77358     14.80643     17.34837    114.39452      0.01522      2.79213      2.28816      0.38748      1.79980   1601.53352
        678.94200      8.18669      8.50000    115.50280   -119.17920      0.08569      0.15869     11.44503     12.63519     13.76815     14.32317     15.41775     18.01757    114.48821      0.01523      2.89803      2.29918      0.38964      1.82519   1630.42866
        679.09440      8.15601      8.50000    101.53690   -119.00420      0.00734      0.10783     11.20395     12.47328     13.46601     14.04502     15.13999     17.68497    114.54518      0.00963      2.88119      2.27840      0.36142      2.28264   1631.31238
        679.24680      8.25955      8.50000    116.44070   -119.10420     -0.01169      0.09477     11.24263     12.77625     13.62298     14.26461     15.41193     18.09062    114.64363      0.00312      3.02448      2.27091      0.35317      2.41032   1606.66680
        679.39920      8.27873      8.50000    116.01590   -119.05420      0.01540      0.08080     11.34021     12.73192     13.56908     14.20349     15.38437     17.91724    114.72346      0.00130      2.85965      2.28763      0.38447      2.39853   1626.46663
        679.55160      8.24805      8.50000    125.77420   -118.86330     -0.00243      0.07073     11.87630     13.18500     14.15592     14.82866     16.08152     18.68799    114.36306      0.00022      2.85531      2.30710      0.36607      2.29413   1615.00002
        679.70400      8.16751      8.50000    111.89510   -118.55000      0.00788      0.06691     10.67392     11.76952     12.71557     13.31448     14.49387     16.81806    114.07506     -0.00058      2.84992      2.30577      0.37729      2.08913   1653.73325
        679.85640      8.13300      8.50000    121.96550   -118.42920     -0.02063      0.06289      8.30513      9.02877      9.66361     10.06697     10.98766     12.55406    113.95018     -0.00328      2.83370      2.29092      0.37322      1.81349   1611.99995
        680.00880      8.13300      8.50000    114.54670   -118.44170     -0.00412      0.06426      9.42894     10.42789     11.17605     11.69249     12.75894     14.74671    114.02181     -0.00537      2.85802      2.30144      0.41071      1.80570   1617.59994
        680.16120      8.17902      8.50000    111.31670   -118.58330      0.05571      0.06842     11.51372     12.88118     13.67879     14.33893     15.58850     18.06315    114.55006     -0.00546      2.95482      2.29957      0.43077      2.07587   1602.73332
        680.31360      8.22504      8.50000    106.68710   -118.90000      0.05376      0.06987     12.43111     14.38587     15.28240     16.07381     17.43514     20.61344    114.87930     -0.00330      2.96050      2.27744      0.41798      2.45344   1609.86673
        680.46600      8.27106      8.50000    115.57250   -119.03750      0.01426      0.06653      9.51754     10.79899     11.53788     12.10056     13.11599     15.40313    115.04502     -0.00186      2.99276      2.29036      0.39662      2.17961   1622.13343
        680.61840      8.16368      8.50000    108.82500   -118.79170      0.01316      0.06687      9.11703     10.24717     11.16401     11.66874     12.65630     14.93750    114.77232     -0.00126      2.92926      2.27597      0.37942      1.81641   1649.93331
        680.77080      8.13300      8.50000    113.51280   -118.69170     -0.00777      0.07222      9.46768     10.66482     11.80812     12.33265     13.35674     15.91974    114.49425     -0.00066      2.84644      2.26542      0.37112      1.69521   1597.73334
        680.92320      8.19052      8.50000    110.33370   -118.32500     -0.00240      0.07819      8.91858     10.14192     11.18951     11.68781     12.61789     15.09742    114.25559      0.00213      2.86810      2.28272      0.36165      1.70244   1642.39996
        681.07560      8.17902      8.50000    124.10750   -117.98750     -0.00140      0.12148      9.81624     11.71294     12.74054     13.41087     14.40942     17.56644    114.19271      0.00946      2.74664      2.28212      0.38592      1.74481   1642.81248
        681.22800      8.15601      8.50000    116.38720   -117.66410      0.09459      0.21505     10.89560     13.64312     14.77670     15.64886     16.78150     20.85577    114.31591      0.02328      2.87291      2.26669      0.39205      1.82554   1617.21439
        681.38040      7.94892      8.50000    114.66680   -117.28750      0.17090      0.21919      9.31417     11.47490     12.48355     13.19574     14.12606     17.49793    114.51744      0.03672      2.94288      2.28216      0.39841      1.77717   1636.56257
        681.53280      7.97193      8.50000    116.78040   -117.07920      0.16433      0.20334      7.96285      9.60773     10.52131     11.06644     11.86118     14.59997    114.61029      0.04419      2.96348      2.28175      0.38119      1.60856   1639.99990
        681.68520      7.97193      8.50000    122.54740   -116.71670      0.14333      0.18983      7.50047      8.90881      9.86232     10.34947     11.11795     13.63916    114.60090      0.04362      2.83157      2.28862      0.40233      1.53132   1596.46677
        681.83760      7.99494      8.50000    110.43710   -116.55830      0.10892      0.15068      7.44969      8.83738      9.75812     10.25593     11.01183     13.48961    114.54472      0.03932      2.93768      2.26233      0.41623      1.46159   1584.39993
        681.99000      7.99494      8.50000    113.52400   -116.68330      0.06252      0.13170      8.21040     10.32536     11.32290     11.95777     12.82679     16.05140    114.47054      0.03870      2.84578      2.26043      0.38901      1.60373   1601.80014
        682.14240      7.95659      8.50000    112.30810   -116.79170      0.07341      0.11508      7.91512     10.04134     10.87488     11.46475     12.27032     15.33978    114.40171      0.03257      2.84309      2.27591      0.39026      1.56829   1585.73327
        682.29480      7.92591      8.50000    128.57160   -116.64580      0.09023      0.10788      8.55034     11.11731     12.19140     12.79651     13.73555     17.38011    114.50653      0.02518      2.91388      2.28811      0.40969      1.54712   1642.26665
        682.44720      8.00645      8.50000    119.07030   -116.67580      0.04306      0.09009      8.09605     10.25021     11.31685     11.78864     12.68424     15.92082    114.67521      0.01252      2.91383      2.28339      0.43574      1.56697   1632.26670
        682.59960      8.05630      8.50000    110.04380   -116.69170      0.03079      0.07768      7.98661      9.95779     11.08011     11.51447     12.39862     15.51756    114.87223      0.00587      2.85514      2.28415      0.42537      1.65107   1598.37495
        682.75200      8.36309      8.50000    117.07130   -116.70830     -0.00451      0.06931      7.93012      9.70510     10.77740     11.27503     12.10877     15.05749    115.28328      0.00211      2.83063      2.27107      0.41197      1.58430   1614.66685
        682.90440      8.39761      8.50000    115.84840   -116.73330     -0.01840      0.06625      8.11801      9.92218     10.90546     11.50789     12.33620     15.29495    115.01576      0.00110      2.86169      2.27217      0.42134      1.57075   1648.40011
        683.05680      8.14067      8.50000    117.68990   -116.73330      0.01638      0.07057      8.97880     11.08122     12.11341     12.84642     13.79752     17.13264    115.07185      0.00156      2.90887      2.27584      0.44016      1.59254   1606.13333
        683.20920      8.06397      8.50000    114.89520   -117.04170      0.00399      0.07594      8.32326      9.99469     10.93284     11.56004     12.41415     15.23588    115.05697      0.00275      2.84503      2.26727      0.44770      1.59335   1612.26679
