~VERSION INFORMATION 
VERS  .    2.0                                     :CWLS Log ASCII Standard - VERSION2.0
WRAP  .    NO                                      :One Line per Depth step
DLM   .    SPACE                                   :Column Data section Delimiter
PROD  .    Schlumberger Technology Corp.           :LAS Producer
PROG  .    Horizon LASWriter 3.0.9609.0            :LAS Program name and version
SOURCE.    Composite 1 (PEX-HRLA-BHC-SP-Log[5]/Up + PEX-HRLA-BHC-SP 2-Main[2]/Up):Run&Pass Information
CREA  .    03/21/2012                              :LAS Creation date {MM/DD/YYYY}
#--------------------------------------------------
~WELL INFORMATION 
#MNEM           .UNIT                      DATA            :DESCRIPTION
#----            ------          --------------            -----------------------------
STRT            .m                     83.36280            :START DEPTH
STOP            .m                   1576.27320            :STOP DEPTH
STEP            .m                       0.1524            :STEP
NULL            .                       -999.25            :NULL VALUE
COMP            .                       TAG Oil            :COMPANY
WELL            .                    Cheal A-10            :WELL NAME
FLD             .                         Cheal            :FIELD NAME
RIGN            .                     Ensign 19            :Rig Name
RIGTYP          .                       -999.25            :Rig Type
SON             .                       -999.25            :Service Order Number
SRVC            .                  Schlumberger            :SERVICE COMPANY
DATE            .                    03/06/2012            :LOG DATE(Composite Date for Composite LAP) (MM/DD/YYYY)
CLAB            .                       -999.25            :County Label
CNTY            .                       -999.25            :COUNTY
SLAB            .                       Region:            :State/Province Label
STAT            .                      Taranaki            :STATE or PROVINCE
PROV            .                      Taranaki            :STATE or PROVINCE
CTRY            .                   New Zealand            :COUNTRY
CONT_REGION     .                       -999.25            :Continent Region
SECT            .                       -999.25            :Section
TOWN            .                       -999.25            :Township
RANG            .                       -999.25            :Range
API             .                       -999.25            :API NUMBER
UWI             .                     PMP 38156            :UNIQUE WELL ID
LUL             .                          NZNP            :Logging Unit Location
LUN             .                          2268            :Logging Unit Number
LOC             .                       -999.25            :FIELD LOCATION
FL1             .                       -999.25            :Field Location Line 1
FL2             .                       -999.25            :Field Location Line 2
LATI            .deg             39° 23' 19.653" S         :LATITUDE
LONG            .deg             174° 18' 14.524" E        :LONGITUDE
PDAT            .                           MSL            :Local Permanent Datum
LMF             .                            DF            :Logging Measured From
APD             .m                    269.80000            :Elevation of Depth Reference (LMF) Above Permanent Datum
EPD             .m                      0.00000            :Elevation of Permanent Datum (PDAT) above Mean Sea Level
EKB             .m                      -999.25            :Elevation of Kelly Bushing Above Permanent Datum
EDF             .m                    269.80000            :Elevation of Drill Floor Above Permanent Datum
EGL             .m                    265.00000            :Elevation of Ground Level Above Permanent Datum
ECF             .m                      -999.25            :Elevation of Casing Flange above Permanent Datum
#--------------------------------------------------
~CURVE INFORMATION
#MNEM           .UNIT                  API CODE            :DESCRIPTION
#----            ------          --------------            -----------------------------
DEPT            .m                                         :                                                        Depth Index
CALI            .in                                        :        (HDRS[1])               (1in)                   Caliper
BS              .in                                        :        (Borehole)              (6in)                   Bit Size
GR              .gAPI                                      :        (HGNS[1])               (2in)                   Gamma Ray
SP              .mV                                        :        (SPE-A[1])              (6in)                   Spontaneous Potential
DSO8            .in                                        :        (HDRS[1])               (2in)                   High Resolution Density Standoff
RSO8            .in                                        :        (HDRS[1])               (2in)                   Resistivity Standoff High Resolution
RLA1            .ohm.m                                     :        (HRLT-B[1])             (2in)                   Apparent Resistivity from Computed Focusing Mode 1
RLA2            .ohm.m                                     :        (HRLT-B[1])             (2in)                   Apparent Resistivity from Computed Focusing Mode 2
RLA3            .ohm.m                                     :        (HRLT-B[1])             (2in)                   Apparent Resistivity from Computed Focusing Mode 3
RLA4            .ohm.m                                     :        (HRLT-B[1])             (2in)                   Apparent Resistivity from Computed Focusing Mode 4
RLA5            .ohm.m                                     :        (HRLT-B[1])             (2in)                   Apparent Resistivity from Computed Focusing Mode 5
RT              .ohm.m                                     :        (HRLT-B[1])             (2in)                   True Resistivity
DT              .us/ft                                     :        (DSLT-H[1])             (6in)                   Delta-T (also called Slowness or Interval Transit Time)
HDRA            .g/cm3                                     :        (HDRS[1])               (2in)                   Density Standoff Correction
PEF8            .                                          :        (HDRS[1])               (2in)                   High Resolution Formation Photoelectric Factor
RHO8            .g/cm3                                     :        (HDRS[1])               (2in)                   High Resolution Formation Density
TNPH            .m3/m3                                     :        (HGNS[1])               (2in)                   Thermal Neutron Porosity (Ratio Method) in Selected Lithology
RXO8            .ohm.m                                     :        (HDRS[1])               (2in)                   Invaded Formation Resistivity filtered at 8 inches
TENS            .lbf                                       :        (WLWorkflow)            (6in)                   Cable Tension
#-------------------------------------------------------------
#            DEPT         CALI           BS           GR           SP         DSO8         RSO8         RLA1         RLA2         RLA3         RLA4         RLA5           RT           DT         HDRA         PEF8         RHO8         TNPH         RXO8         TENS 
#                    (HDRS[1])   (Borehole)    (HGNS[1])   (SPE-A[1])    (HDRS[1])    (HDRS[1])  (HRLT-B[1])  (HRLT-B[1])  (HRLT-B[1])  (HRLT-B[1])  (HRLT-B[1])  (HRLT-B[1])  (DSLT-H[1])    (HDRS[1])    (HDRS[1])    (HDRS[1])    (HGNS[1])    (HDRS[1])  (WLWorkflo) 
#                                                                                                                                                                                                                                                                        
#                        (1in)        (6in)        (2in)        (6in)        (2in)        (2in)        (2in)        (2in)        (2in)        (2in)        (2in)        (2in)        (6in)        (2in)        (2in)        (2in)        (2in)        (2in)        (6in) 
~ASCII
# ...
       1453.43880      8.43263      8.50000    127.79850    -39.85667      0.01490      0.06036      3.48430      3.71189      3.82672      3.88129      3.95112      4.28086     95.39496      0.00470      3.14637      2.40439      0.36915      2.73401   2811.39994
       1453.59120      8.47089      8.50000    117.36730    -39.83583     -0.00241      0.05003      3.45597      3.69993      3.81404      3.86509      3.94029      4.28995     95.10357      0.00285      3.05801      2.41221      0.36109      2.83594   2754.53227
       1453.74360      8.44028      8.50000    112.96690    -39.02906      0.01764      0.05006      3.49954      3.75204      3.86821      3.90988      3.98569      4.33899     95.44434      0.00313      3.10283      2.40796      0.37122      2.87188   2848.59908
       1453.89600      8.44793      8.50000    110.16910    -38.46500     -0.00310      0.04839      3.52031      3.77298      3.88624      3.92786      4.00617      4.35606     95.78416      0.00284      3.06012      2.41238      0.35478      2.93098   2875.74926
       1454.04840      8.47089      8.50000    121.26740    -38.11500      0.00324      0.04873      3.41072      3.65014      3.75041      3.79003      3.86853      4.18833     95.80852      0.00327      2.98731      2.39977      0.36571      2.54520   2851.06748
       1454.20080      8.42498      8.50000    120.67900    -38.09547      0.02276      0.04959      3.50762      3.75875      3.87743      3.92444      4.02997      4.39476     96.18223      0.00425      3.03534      2.42090      0.36335      2.46894   2804.06668
       1454.35320      8.40202      8.50000    124.45080    -38.00250      0.02409      0.06655      3.59369      3.86200      3.98974      4.05835      4.18940      4.61091     96.82387      0.00751      3.16036      2.40252      0.36768      2.76092   2790.49946
       1454.50560      8.37907      8.50000    115.14680    -37.83167      0.04651      0.08019      3.50744      3.76986      3.90798      3.98185      4.12637      4.56442     96.21012      0.00989      3.25622      2.40661      0.37570      2.48041   2785.26590
       1454.65800      8.37907      8.50000    125.03730    -37.53297      0.03651      0.08670      3.31832      3.55071      3.66536      3.72314      3.86493      4.23108     96.58612      0.00998      3.12742      2.39250      0.40774      2.39541   2801.00028
       1454.81040      8.35611      8.50000    131.26660    -37.09833      0.04155      0.07881      3.21263      3.42306      3.53230      3.57790      3.71324      4.03736     96.44762      0.01369      3.10988      2.38045      0.42132      2.42004   2852.00044
       1454.96280      8.32550      8.50000    116.99850    -37.50172      0.03419      0.07485      3.14803      3.32335      3.41257      3.44879      3.58236      3.83223     96.96118      0.02803      3.16365      2.36643      0.40948      2.41394   2793.13422
       1455.11520      8.30255      8.50000    111.89770    -37.42334      0.12315      0.10670      3.09949      3.28287      3.35506      3.39627      3.51877      3.75686     96.89565      0.04059      3.30140      2.39017      0.38911      2.17781   2742.62414
       1455.26760      8.21073      8.50000    113.44740    -36.68922      0.13316      0.13652      3.30268      3.53762      3.60859      3.65709      3.78771      4.09412     96.90058      0.04556      3.21519      2.39018      0.38657      2.21716   2864.66617
       1455.42000      8.19543      8.50000    112.14740    -36.74833      0.07589      0.09690      3.27428      3.51014      3.58898      3.64516      3.77206      4.09579     96.55988      0.04061      3.13723      2.38926      0.40068      2.36556   2809.99938
       1455.57240      8.14951      8.50000    112.27580    -36.49417      0.04734      0.08776      3.28290      3.51028      3.60572      3.66737      3.78923      4.12488     97.03698      0.03419      3.18756      2.40300      0.40149      2.50099   2774.86624
       1455.72480      8.20690      8.50000    108.11150    -36.15016      0.06132      0.08391      3.16214      3.33994      3.49060      3.54102      3.65901      3.99422     97.11120      0.02623      3.25968      2.40858      0.38837      2.36077   2833.59983
       1455.87720      8.22986      8.50000    127.75370    -36.49833      0.08492      0.08021      3.20635      3.38863      3.56313      3.63101      3.74579      4.12524     96.79878      0.02168      3.18769      2.41893      0.34827      2.36239   2763.43696
       1456.02960      8.20690      8.50000    134.29060    -36.13584      0.06937      0.07868      3.23117      3.42202      3.58538      3.66562      3.78382      4.17186     96.63708      0.01849      3.12435      2.43254      0.35193      2.50812   2752.00093
       1456.18200      8.29872      8.50000    120.73890    -35.40016      0.04836      0.07636      3.16778      3.37506      3.51577      3.60439      3.71811      4.10580     96.05656      0.02206      3.21005      2.41243      0.37089      2.73792   2785.26590
       1456.33440      8.27577      8.50000    126.24690    -35.27750      0.03574      0.08999      3.20847      3.41257      3.54760      3.64081      3.76516      4.14850     96.00816      0.01470      3.19803      2.37665      0.38327      2.79720   2749.56175
       1456.48680      8.28724      8.50000    117.16110    -34.84833     -0.01218      0.07890      3.12420      3.30247      3.42250      3.51183      3.63237      3.96566     97.22169      0.00797      3.08859      2.36519      0.38577      2.58860   2775.06632
       1456.63920      8.35611      8.50000    107.97750    -34.10328      0.00518      0.05835      2.84157      3.00060      3.10167      3.17906      3.29373      3.58443     97.85753     -0.00228      3.07394      2.33171      0.38176      2.07452   2751.46588
       1456.79160      8.26429      8.50000    118.10040    -33.26084     -0.01480      0.03232      2.51780      2.63467      2.71347      2.78096      2.88236      3.08997     97.75174     -0.00242      2.89510      2.37230      0.36601      1.92885   2762.56245
       1456.94400      8.28724      8.50000    125.25310    -33.24417      0.00122      0.03163      2.67805      2.79739      2.88165      2.96197      3.07463      3.29419     97.05804     -0.00070      2.99323      2.39727      0.37203      2.29546   2752.79900
       1457.09640      8.28724      8.50000    116.80940    -33.02906      0.00571      0.04187      2.96148      3.12273      3.22960      3.31750      3.44497      3.74413     95.85905      0.00313      3.07121      2.41752      0.36157      2.64408   2748.06677
       1457.24880      8.25664      8.50000    121.57590    -32.53583     -0.00868      0.04181      2.80819      2.96883      3.07403      3.15007      3.27104      3.56981     95.34452      0.00428      3.00963      2.35839      0.38146      2.13524   2840.49921
       1457.40120      8.28724      8.50000    108.36510    -32.59938      0.05461      0.05643      2.60617      2.74927      2.86423      2.92173      3.04116      3.31710     95.35058      0.01322      3.03218      2.39146      0.38262      2.41556   2857.66787
       1457.55360      8.35611      8.50000    123.85600    -32.43167      0.07907      0.05471      2.81280      2.97480      3.11273      3.17538      3.30913      3.63461     95.28600      0.02524      3.17744      2.41387      0.40065      2.43588   2836.93824
       1457.70600      8.44793      8.50000    116.63440    -32.32750      0.06382      0.07483      2.91227      3.08682      3.22866      3.29242      3.43585      3.78242     94.74263      0.03371      3.15274      2.39680      0.38733      2.46947   2845.93285
       1457.85840      8.45941      8.50000    124.75170    -32.71266      0.07825      0.07506      2.85449      3.00753      3.11822      3.19294      3.32632      3.61553     94.94130      0.02954      3.12201      2.42370      0.39332      2.45581   2807.37586
       1458.01080      8.37907      8.50000    116.44210    -33.01084      0.02994      0.05976      2.96166      3.11461      3.21044      3.30226      3.43695      3.71757     95.22943      0.01592      3.12278      2.40629      0.38829      2.52717   2770.19921
