~VERSION INFORMATION 
VERS  .    2.0                                     :CWLS Log ASCII Standard - VERSION2.0
WRAP  .    NO                                      :One Line per Depth step
DLM   .    SPACE                                   :Column Data section Delimiter
PROD  .    Schlumberger Technology Corp.           :LAS Producer
PROG  .    Horizon LASWriter 3.0.9609.0            :LAS Program name and version
SOURCE.    Composite 1 (PEX-HRLA-BHC-SP-Log[5]/Up + PEX-HRLA-BHC-SP 2-Main[2]/Up):Run&Pass Information
CREA  .    03/21/2012                              :LAS Creation date {MM/DD/YYYY}
#--------------------------------------------------
~WELL INFORMATION 
#MNEM           .UNIT                      DATA            :DESCRIPTION
#----            ------          --------------            -----------------------------
STRT            .m                     83.36280            :START DEPTH
STOP            .m                   1576.27320            :STOP DEPTH
STEP            .m                       0.1524            :STEP
NULL            .                       -999.25            :NULL VALUE
COMP            .                       TAG Oil            :COMPANY
WELL            .                    Cheal A-10            :WELL NAME
FLD             .                         Cheal            :FIELD NAME
RIGN            .                     Ensign 19            :Rig Name
RIGTYP          .                       -999.25            :Rig Type
SON             .                       -999.25            :Service Order Number
SRVC            .                  Schlumberger            :SERVICE COMPANY
DATE            .                    03/06/2012            :LOG DATE(Composite Date for Composite LAP) (MM/DD/YYYY)
CLAB            .                       -999.25            :County Label
CNTY            .                       -999.25            :COUNTY
SLAB            .                       Region:            :State/Province Label
STAT            .                      Taranaki            :STATE or PROVINCE
PROV            .                      Taranaki            :STATE or PROVINCE
CTRY            .                   New Zealand            :COUNTRY
CONT_REGION     .                       -999.25            :Continent Region
SECT            .                       -999.25            :Section
TOWN            .                       -999.25            :Township
RANG            .                       -999.25            :Range
API             .                       -999.25            :API NUMBER
UWI             .                     PMP 38156            :UNIQUE WELL ID
LUL             .                          NZNP            :Logging Unit Location
LUN             .                          2268            :Logging Unit Number
LOC             .                       -999.25            :FIELD LOCATION
FL1             .                       -999.25            :Field Location Line 1
FL2             .                       -999.25            :Field Location Line 2
LATI            .deg             39° 23' 19.653" S         :LATITUDE
LONG            .deg             174° 18' 14.524" E        :LONGITUDE
PDAT            .                           MSL            :Local Permanent Datum
LMF             .                            DF            :Logging Measured From
APD             .m                    269.80000            :Elevation of Depth Reference (LMF) Above Permanent Datum
EPD             .m                      0.00000            :Elevation of Permanent Datum (PDAT) above Mean Sea Level
EKB             .m                      -999.25            :Elevation of Kelly Bushing Above Permanent Datum
EDF             .m                    269.80000            :Elevation of Drill Floor Above Permanent Datum
EGL             .m                    265.00000            :Elevation of Ground Level Above Permanent Datum
ECF             .m                      -999.25            :Elevation of Casing Flange above Permanent Datum
#--------------------------------------------------
~CURVE INFORMATION
#MNEM           .UNIT                  API CODE            :DESCRIPTION
#----            ------          --------------            -----------------------------
DEPT            .m                                         :                                                        Depth Index
CALI            .in                                        :        (HDRS[1])               (1in)                   Caliper
BS              .in                                        :        (Borehole)              (6in)                   Bit Size
GR              .gAPI                                      :        (HGNS[1])               (2in)                   Gamma Ray
SP              .mV                                        :        (SPE-A[1])              (6in)                   Spontaneous Potential
DSO8            .in                                        :        (HDRS[1])               (2in)                   High Resolution Density Standoff
RSO8            .in                                        :        (HDRS[1])               (2in)                   Resistivity Standoff High Resolution
RLA1            .ohm.m                                     :        (HRLT-B[1])             (2in)                   Apparent Resistivity from Computed Focusing Mode 1
RLA2            .ohm.m                                     :        (HRLT-B[1])             (2in)                   Apparent Resistivity from Computed Focusing Mode 2
RLA3            .ohm.m                                     :        (HRLT-B[1])             (2in)                   Apparent Resistivity from Computed Focusing Mode 3
RLA4            .ohm.m                                     :        (HRLT-B[1])             (2in)                   Apparent Resistivity from Computed Focusing Mode 4
RLA5            .ohm.m                                     :        (HRLT-B[1])             (2in)                   Apparent Resistivity from Computed Focusing Mode 5
RT              .ohm.m                                     :        (HRLT-B[1])             (2in)                   True Resistivity
DT              .us/ft                                     :        (DSLT-H[1])             (6in)                   Delta-T (also called Slowness or Interval Transit Time)
HDRA            .g/cm3                                     :        (HDRS[1])               (2in)                   Density Standoff Correction
PEF8            .                                          :        (HDRS[1])               (2in)                   High Resolution Formation Photoelectric Factor
RHO8            .g/cm3                                     :        (HDRS[1])               (2in)                   High Resolution Formation Density
TNPH            .m3/m3                                     :        (HGNS[1])               (2in)                   Thermal Neutron Porosity (Ratio Method) in Selected Lithology
RXO8            .ohm.m                                     :        (HDRS[1])               (2in)                   Invaded Formation Resistivity filtered at 8 inches
TENS            .lbf                                       :        (WLWorkflow)            (6in)                   Cable Tension
#-------------------------------------------------------------
#            DEPT         CALI           BS           GR           SP         DSO8         RSO8         RLA1         RLA2         RLA3         RLA4         RLA5           RT           DT         HDRA         PEF8         RHO8         TNPH         RXO8         TENS 
#                    (HDRS[1])   (Borehole)    (HGNS[1])   (SPE-A[1])    (HDRS[1])    (HDRS[1])  (HRLT-B[1])  (HRLT-B[1])  (HRLT-B[1])  (HRLT-B[1])  (HRLT-B[1])  (HRLT-B[1])  (DSLT-H[1])    (HDRS[1])    (HDRS[1])    (HDRS[1])    (HGNS[1])    (HDRS[1])  (WLWorkflo) 
#                                                                                                                                                                                                                                                                        
#                        (1in)        (6in)        (2in)        (6in)        (2in)        (2in)        (2in)        (2in)        (2in)        (2in)        (2in)        (2in)        (6in)        (2in)        (2in)        (2in)        (2in)        (2in)        (6in) 
~ASCII
# ...
       1165.25040      8.30174      8.50000     93.82978    -50.98750      0.02627      0.05072      5.45181      8.44085      9.66091     10.30288     11.29081     14.80965     89.82776      0.00085      2.69526      2.27887      0.36623      1.04475   2231.26675
       1165.40280      8.20203      8.50000     86.85692    -50.87500      0.07287      0.05082      5.86791      9.63139     11.14493     11.88542     13.02908     17.20157     76.64025      0.00653      2.90280      2.45988      0.27783      1.63897   2226.66671
       1165.55520      8.36309      8.50000     82.92527    -50.37083      0.09419      0.06972      6.63265     11.09627     12.95337     13.80133     15.12622     20.00980     64.93465      0.01679      3.39989      2.72262      0.19404     13.47784   2251.53350
       1165.70760      8.51266      8.50000     78.19169    -50.25000      0.04685      0.06215      7.31771     13.01532     15.41305     16.44054     18.02727     23.90625     58.40623      0.02479      3.47283      2.69704      0.16605    124.85510   2228.06682
       1165.86000      8.36309      8.50000     85.36445    -50.47500     -0.02791      0.03928      6.49772     11.51596     13.64671     14.52380     15.88351     21.01966     69.03037      0.01705      3.33088      2.50518      0.19522      5.38238   2222.06667
       1166.01240      8.39761      8.50000     86.53709    -50.24583     -0.00362      0.00010      5.19644      8.47307      9.82024     10.33953     11.29529     14.88779     83.40218      0.00463      2.80316      2.29253      0.27365      1.28008   2265.26708
       1166.16480      8.25572      8.50000     86.36297    -49.92500     -0.01744      0.00010      5.36243      8.41654      9.66505     10.17167     11.10813     14.58993     96.78311     -0.00715      2.68687      2.25494      0.36751      1.03354   2246.86692
       1166.31720      8.30941      8.50000     82.50512    -50.05000      0.10017      0.00010      5.47699      8.25230      9.39237      9.84021     10.71175     13.97997    104.48693     -0.01007      2.75307      2.23040      0.39032      1.01456   2232.13339
       1166.46960      8.43213      8.50000     90.15785    -49.94167      0.08302      0.00010      5.25414      8.06649      9.04921      9.48426     10.27144     13.33582    104.63568     -0.01012      2.76053      2.24095      0.38840      1.01838   2240.93331
       1166.62200      8.52417      8.50000     87.70070    -49.91667      0.13444      0.00442      5.18912      8.46734      9.40220      9.84400     10.64258     13.77599    105.15295     -0.00925      2.73637      2.23120      0.36991      1.02820   2232.53333
       1166.77440      8.54717      8.50000     95.77534    -50.02344      0.09752      0.01085      5.16733      8.57571      9.58786      9.97885     10.75547     13.97953    105.62503     -0.00705      2.65127      2.21884      0.37032      1.01133   2197.33342
       1166.92680      8.51266      8.50000     89.41083    -50.11666      0.03505      0.03343      5.18055      8.47556      9.69815     10.04648     10.81581     14.18677    106.36596     -0.00396      2.71550      2.24037      0.38899      0.99149   2225.24997
       1167.07920      8.43213      8.50000     95.74879    -49.96250      0.00111      0.05839      5.23797      8.24501      9.47394      9.80355     10.54840     13.87659    106.56799     -0.00158      2.67721      2.24249      0.41471      0.98068   2272.53291
       1167.23160      8.37460      8.50000     94.12168    -49.83750      0.02113      0.03748      5.41826      8.33626      9.60704      9.99569     10.74661     14.15854    106.58222      0.00202      2.68407      2.23807      0.42559      1.01193   2252.00111
       1167.38400      8.43213      8.50000     91.55498    -49.72500      0.02597      0.08338      5.15604      7.92795      9.11220      9.58855     10.27986     13.55634    106.83523      0.00558      2.64853      2.20966      0.42270      1.02278   2204.20021
       1167.53640      8.29407      8.50000     99.61939    -49.75834      0.06986      0.10153      5.10369      7.94505      9.11991      9.65874     10.34217     13.67190    106.88376      0.00755      2.61718      2.20914      0.39915      0.97205   2233.86667
       1167.68880      8.30557      8.50000     89.79039    -49.89583      0.02324      0.08072      5.24889      8.09830      9.20791      9.78980     10.48396     13.81792    106.28321      0.00660      2.57450      2.23673      0.39280      0.96454   2251.53350
       1167.84120      8.34009      8.50000     91.54749    -50.10833      0.02115      0.07206      5.29184      8.14164      9.23410      9.82576     10.52907     13.85944    105.93678      0.00537      2.59552      2.23749      0.40086      1.02736   2262.06580
       1167.99360      8.43213      8.50000     90.50612    -49.99166      0.02650      0.03617      5.22265      8.16653      9.26647      9.85313     10.60767     13.94427    105.64700      0.00885      2.75327      2.22311      0.41105      1.16247   2260.06725
       1168.14600      8.51649      8.50000     95.03815    -50.45000      0.05278      0.03703      5.16705      8.26160      9.41486     10.01125     10.80979     14.24573    105.59052      0.02090      2.86044      2.24848      0.39709      1.23890   2227.33327
       1168.29840      8.59319      8.50000     86.19548    -50.65417      0.17691      0.12522      5.13435      7.99766      9.13570      9.69146     10.49729     13.82438    105.51079      0.03668      2.91440      2.23404      0.37704      1.03149   2229.73356
       1168.45080      8.58169      8.50000     87.85549    -50.52083      0.17798      0.09559      5.17799      7.87756      8.99048      9.52210     10.32483     13.56924    105.75679      0.04561      2.65018      2.20392      0.37456      0.94711   2252.73398
       1168.60320      8.61620      8.50000     89.44897    -50.64167      0.08480      0.08626      5.29622      7.88158      8.95787      9.49374     10.29722     13.48686    106.14758      0.03309      2.54846      2.22760      0.38578      0.93586   2253.13414
       1168.75560      8.68523      8.50000     92.53231    -51.06250      0.01042      0.00087      5.49779      8.15535      9.26702      9.84473     10.69091     13.98609    106.30443      0.01446      2.63106      2.26114      0.38694      1.00516   2225.26660
       1168.90800      8.76576      8.50000     88.59043    -51.20000      0.00331      0.03625      5.45098      8.21331      9.32838      9.91612     10.78848     14.13130    106.30443     -0.00278      2.56618      2.25109      0.40595      0.99178   2213.46661
       1169.06040      8.73125      8.50000    100.84810    -51.34583     -0.01499      0.01746      5.50435      8.25379      9.40998     10.02639     10.90599     14.30568    106.03434     -0.00462      2.49396      2.24841      0.41178      1.03091   2239.59997
       1169.21280      8.79261      8.50000     84.78744    -51.64583      0.00054      0.00010      5.38468      7.94762      9.06378      9.66274     10.53803     13.78145    106.10448     -0.00414      2.64615      2.23978      0.42788      1.00424   2245.53335
       1169.36520      8.97669      8.50000     97.94180    -51.96667      0.03292      0.00010      5.34392      7.88485      9.04953      9.63129     10.52404     13.76978    106.22490     -0.00204      2.70456      2.23622      0.44106      0.97202   2218.59989
       1169.51760      8.89232      8.50000     98.67380    -52.33333     -0.02795      0.02470      5.10571      7.59198      8.74026      9.30742     10.12735     13.29090    105.79888     -0.00018      2.60492      2.22464      0.43933      0.97063   2212.26658
       1169.67000      8.95368      8.50000     94.63584    -52.86250     -0.03037      0.04789      5.04608      7.67879      8.80295      9.35574     10.15301     13.35629    105.69931      0.00262      2.53994      2.18984      0.45523      0.97894   2183.00005
       1169.82240      8.56251      8.50000     88.54539    -53.20833      0.02664      0.05285      5.19373      7.90857      8.99888      9.53009     10.32145     13.54423    105.63621      0.00515      2.63109      2.21621      0.44657      0.99800   2258.57227
