~VERSION INFORMATION 
VERS  .    2.0                                     :CWLS Log ASCII Standard - VERSION2.0
WRAP  .    NO                                      :One Line per Depth step
DLM   .    SPACE                                   :Column Data section Delimiter
PROD  .    Schlumberger Technology Corp.           :LAS Producer
PROG  .    Horizon LASWriter 3.0.9609.0            :LAS Program name and version
SOURCE.    Composite 1 (PEX-HRLA-BHC-SP-Log[5]/Up + PEX-HRLA-BHC-SP 2-Main[2]/Up):Run&Pass Information
CREA  .    03/21/2012                              :LAS Creation date {MM/DD/YYYY}
#--------------------------------------------------
~WELL INFORMATION 
#MNEM           .UNIT                      DATA            :DESCRIPTION
#----            ------          --------------            -----------------------------
STRT            .m                     83.36280            :START DEPTH
STOP            .m                   1576.27320            :STOP DEPTH
STEP            .m                       0.1524            :STEP
NULL            .                       -999.25            :NULL VALUE
COMP            .                       TAG Oil            :COMPANY
WELL            .                    Cheal A-10            :WELL NAME
FLD             .                         Cheal            :FIELD NAME
RIGN            .                     Ensign 19            :Rig Name
RIGTYP          .                       -999.25            :Rig Type
SON             .                       -999.25            :Service Order Number
SRVC            .                  Schlumberger            :SERVICE COMPANY
DATE            .                    03/06/2012            :LOG DATE(Composite Date for Composite LAP) (MM/DD/YYYY)
CLAB            .                       -999.25            :County Label
CNTY            .                       -999.25            :COUNTY
SLAB            .                       Region:            :State/Province Label
STAT            .                      Taranaki            :STATE or PROVINCE
PROV            .                      Taranaki            :STATE or PROVINCE
CTRY            .                   New Zealand            :COUNTRY
CONT_REGION     .                       -999.25            :Continent Region
SECT            .                       -999.25            :Section
TOWN            .                       -999.25            :Township
RANG            .                       -999.25            :Range
API             .                       -999.25            :API NUMBER
UWI             .                     PMP 38156            :UNIQUE WELL ID
LUL             .                          NZNP            :Logging Unit Location
LUN             .                          2268            :Logging Unit Number
LOC             .                       -999.25            :FIELD LOCATION
FL1             .                       -999.25            :Field Location Line 1
FL2             .                       -999.25            :Field Location Line 2
LATI            .deg             39° 23' 19.653" S         :LATITUDE
LONG            .deg             174° 18' 14.524" E        :LONGITUDE
PDAT            .                           MSL            :Local Permanent Datum
LMF             .                            DF            :Logging Measured From
APD             .m                    269.80000            :Elevation of Depth Reference (LMF) Above Permanent Datum
EPD             .m                      0.00000            :Elevation of Permanent Datum (PDAT) above Mean Sea Level
EKB             .m                      -999.25            :Elevation of Kelly Bushing Above Permanent Datum
EDF             .m                    269.80000            :Elevation of Drill Floor Above Permanent Datum
EGL             .m                    265.00000            :Elevation of Ground Level Above Permanent Datum
ECF             .m                      -999.25            :Elevation of Casing Flange above Permanent Datum
#--------------------------------------------------
~CURVE INFORMATION
#MNEM           .UNIT                  API CODE            :DESCRIPTION
#----            ------          --------------            -----------------------------
DEPT            .m                                         :                                                        Depth Index
CALI            .in                                        :        (HDRS[1])               (1in)                   Caliper
BS              .in                                        :        (Borehole)              (6in)                   Bit Size
GR              .gAPI                                      :        (HGNS[1])               (2in)                   Gamma Ray
SP              .mV                                        :        (SPE-A[1])              (6in)                   Spontaneous Potential
DSO8            .in                                        :        (HDRS[1])               (2in)                   High Resolution Density Standoff
RSO8            .in                                        :        (HDRS[1])               (2in)                   Resistivity Standoff High Resolution
RLA1            .ohm.m                                     :        (HRLT-B[1])             (2in)                   Apparent Resistivity from Computed Focusing Mode 1
RLA2            .ohm.m                                     :        (HRLT-B[1])             (2in)                   Apparent Resistivity from Computed Focusing Mode 2
RLA3            .ohm.m                                     :        (HRLT-B[1])             (2in)                   Apparent Resistivity from Computed Focusing Mode 3
RLA4            .ohm.m                                     :        (HRLT-B[1])             (2in)                   Apparent Resistivity from Computed Focusing Mode 4
RLA5            .ohm.m                                     :        (HRLT-B[1])             (2in)                   Apparent Resistivity from Computed Focusing Mode 5
RT              .ohm.m                                     :        (HRLT-B[1])             (2in)                   True Resistivity
DT              .us/ft                                     :        (DSLT-H[1])             (6in)                   Delta-T (also called Slowness or Interval Transit Time)
HDRA            .g/cm3                                     :        (HDRS[1])               (2in)                   Density Standoff Correction
PEF8            .                                          :        (HDRS[1])               (2in)                   High Resolution Formation Photoelectric Factor
RHO8            .g/cm3                                     :        (HDRS[1])               (2in)                   High Resolution Formation Density
TNPH            .m3/m3                                     :        (HGNS[1])               (2in)                   Thermal Neutron Porosity (Ratio Method) in Selected Lithology
RXO8            .ohm.m                                     :        (HDRS[1])               (2in)                   Invaded Formation Resistivity filtered at 8 inches
TENS            .lbf                                       :        (WLWorkflow)            (6in)                   Cable Tension
#-------------------------------------------------------------
#            DEPT         CALI           BS           GR           SP         DSO8         RSO8         RLA1         RLA2         RLA3         RLA4         RLA5           RT           DT         HDRA         PEF8         RHO8         TNPH         RXO8         TENS 
#                    (HDRS[1])   (Borehole)    (HGNS[1])   (SPE-A[1])    (HDRS[1])    (HDRS[1])  (HRLT-B[1])  (HRLT-B[1])  (HRLT-B[1])  (HRLT-B[1])  (HRLT-B[1])  (HRLT-B[1])  (DSLT-H[1])    (HDRS[1])    (HDRS[1])    (HDRS[1])    (HGNS[1])    (HDRS[1])  (WLWorkflo) 
#                                                                                                                                                                                                                                                                        
#                        (1in)        (6in)        (2in)        (6in)        (2in)        (2in)        (2in)        (2in)        (2in)        (2in)        (2in)        (2in)        (6in)        (2in)        (2in)        (2in)        (2in)        (2in)        (6in) 
~ASCII
# ...
        966.82560      8.43213      8.50000    120.55880    -73.87500      0.00414      0.00433      9.37998     14.91153     17.75730     19.15871     21.21007     28.23412    106.86529      0.00510      2.81150      2.31039      0.37422      1.34759   1978.86678
        966.97800      8.43980      8.50000    116.75300    -73.97500     -0.01202      0.01502      9.45350     14.77843     17.47001     18.85933     20.86784     27.71902    106.88248      0.00214      2.77212      2.30756      0.38260      1.40641   1962.00004
        967.13040      8.44746      8.50000    119.23820    -74.01339     -0.00702      0.00296      9.47523     14.63831     17.30923     18.77184     20.73935     27.57258    107.09203      0.00103      2.77408      2.30052      0.38261      1.36095   1940.53349
        967.28280      8.39378      8.50000    118.96790    -74.37083      0.01864      0.00010      9.13978     13.62588     15.94403     17.28931     19.08095     25.26208    107.06018      0.00007      2.85601      2.32764      0.39517      1.33311   1923.33335
        967.43520      8.38611      8.50000    118.23200    -74.34583      0.02300      0.00010      9.30591     13.70323     16.12139     17.52299     19.35279     25.65065    106.86364     -0.00137      2.76584      2.32733      0.36917      1.33587   1935.73337
        967.58760      8.38611      8.50000    111.95400    -74.17917     -0.01353      0.00010      9.14257     13.09136     15.21855     16.52492     18.24965     23.98171    106.70057     -0.00141      2.81085      2.30550      0.36257      1.45606   1968.46667
        967.74000      8.31708      8.50000    117.88660    -74.21250     -0.00647      0.00490      9.51802     14.23632     16.60672     18.00013     19.85352     26.19492    106.20262     -0.00142      2.80053      2.31235      0.37908      1.51625   1925.66665
        967.89240      8.22504      8.50000    103.91570    -74.09167     -0.02442      0.02120      9.74334     15.29629     18.04079     19.53283     21.55389     28.64156    104.60544      0.00115      2.78828      2.34292      0.39435      1.72050   1932.93337
        968.04480      8.22504      8.50000    107.72570    -73.83750      0.00975      0.01576      9.53314     14.97835     17.61870     18.98935     20.96729     27.83795    104.42411      0.00173      2.89810      2.34554      0.40521      1.70083   1919.33333
        968.19720      8.22504      8.50000    110.84280    -73.60000      0.00599      0.00048      9.10248     14.07225     16.59506     17.84298     19.72440     26.14407    104.68676      0.00248      2.89297      2.33207      0.40755      1.55113   2006.40003
        968.34960      8.20203      8.50000    115.05920    -73.46250      0.02803      0.00010      8.74887     13.28313     15.65361     16.81951     18.54204     24.55024    104.98501      0.00117      2.89501      2.32902      0.40200      1.35271   1943.06663
        968.50200      8.16751      8.50000    113.47960    -73.45089      0.00796      0.00010      8.92403     13.84587     16.30815     17.57084     19.34806     25.67572    106.18982      0.00046      2.96738      2.31622      0.36709      1.43270   1945.53324
        968.65440      8.01795      8.50000    116.55490    -73.49167     -0.00403      0.00754      8.75378     13.93002     16.32027     17.60402     19.37724     25.75872    106.35069     -0.00124      3.00246      2.30799      0.37476      1.47066   1925.07158
        968.80680      8.03329      8.50000    103.74980    -73.52500     -0.00211      0.01339      8.23350     12.83580     14.88340     16.09361     17.65735     23.39936    106.17287     -0.00158      2.89809      2.29878      0.40036      1.44427   1950.73329
        968.95920      8.06397      8.50000    111.79950    -73.55000      0.00860      0.01765      8.47666     13.46610     15.71311     17.00299     18.64208     24.80265    106.28190     -0.00212      2.88961      2.31606      0.42832      1.51132   1912.80016
        969.11160      8.08698      8.50000    109.15520    -73.58334     -0.00805      0.02562      8.83320     13.94703     16.43320     17.71755     19.45928     25.90792    106.01322     -0.00358      2.82868      2.31193      0.41654      1.60317   1942.86678
        969.26400      8.13300      8.50000    116.61730    -73.52917     -0.00319      0.02507      8.63827     13.43333     15.79236     16.95020     18.63091     24.73651    105.81592     -0.00338      2.82267      2.29664      0.44899      1.49706   1950.06673
        969.41640      8.13300      8.50000    115.92730    -73.57500      0.04005      0.02256      9.15306     14.51935     17.13002     18.43587     20.23812     26.97516    105.81809     -0.00352      2.81777      2.30578      0.44497      1.55680   1948.06683
        969.56880      8.20970      8.50000    113.19360    -73.50000      0.00152      0.02111      9.33704     14.53690     17.03392     18.30566     20.05424     26.66055    105.40911     -0.00077      2.79668      2.32182      0.41465      1.57452   1968.20005
        969.72120      8.46664      8.50000    116.53560    -73.64584     -0.00362      0.04364      9.64764     15.13631     17.89625     19.24380     21.08081     28.11383    104.44085      0.00152      2.88554      2.30139      0.40213      1.58198   1938.86675
        969.87360      8.58552      8.50000    103.75450    -73.80859      0.04232      0.06610      9.54864     14.57493     17.07686     18.32265     20.08645     26.63518    104.97589      0.00591      2.93521      2.31035      0.39446      1.58136   1939.73317
        970.02600      8.50115      8.50000    105.84010    -74.05357      0.06219      0.05736      9.35664     13.77207     16.03748     17.17776     18.84098     24.82417    105.28578      0.00562      2.76278      2.29420      0.38359      1.53995   1952.43757
        970.17840      8.45513      8.50000    114.03070    -74.20834     -0.02048      0.02318      9.94176     14.81614     17.28889     18.57840     20.46665     27.00140    105.50530      0.00324      2.87684      2.29351      0.38788      1.62083   1982.99990
        970.33080      8.45513      8.50000    104.93580    -74.39584     -0.00308      0.06619      9.87201     14.44933     16.62730     17.85524     19.72178     25.80086    105.60180     -0.00182      2.88350      2.29788      0.39978      1.51250   1933.06668
        970.48320      8.54717      8.50000    103.93800    -74.62917      0.00894      0.03574      9.83531     14.62490     16.78988     18.03832     19.94890     26.12770    105.72844     -0.00424      2.79117      2.32335      0.38464      1.59408   1935.53351
        970.63560      8.58169      8.50000    109.01250    -75.18333     -0.00627      0.01403      9.73208     14.62300     16.75999     18.00848     19.95387     26.15224    105.81681     -0.00440      2.82522      2.31656      0.36337      1.61726   1954.39993
        970.78800      8.59319      8.50000    101.67650    -75.16250      0.03457      0.01539     10.00466     14.84766     17.13820     18.42731     20.43407     26.79708    105.87493     -0.00205      2.89126      2.32224      0.37539      1.59163   1908.26688
        970.94040      8.65072      8.50000    108.26900    -74.72916     -0.01374      0.01235     10.11573     15.15924     17.61492     18.94100     21.03633     27.66930    104.84193     -0.00063      2.80730      2.31112      0.36737      1.45833   1924.93332
        971.09280      8.63921      8.50000    105.75060    -74.52500     -0.00099      0.00597     10.14880     15.24188     17.95070     19.32478     21.56630     28.49324    104.70657     -0.00154      2.78083      2.32314      0.37750      1.34556   1935.66660
        971.24520      8.63921      8.50000    100.81490    -74.52917     -0.00201      0.01598     10.50759     15.37808     17.96060     19.37991     21.57477     28.36563    104.86327     -0.00211      2.72340      2.29648      0.34069      1.30263   1956.06689
        971.39760      8.61620      8.50000    109.52210    -74.57083      0.04482      0.03553     11.58293     17.89424     21.03930     22.72624     25.38740     33.56278    104.81718     -0.00106      2.72170      2.28718      0.35171      1.41198   1964.00017
