~VERSION INFORMATION 
VERS  .    2.0                                     :CWLS Log ASCII Standard - VERSION2.0
WRAP  .    NO                                      :One Line per Depth step
DLM   .    SPACE                                   :Column Data section Delimiter
PROD  .    Schlumberger Technology Corp.           :LAS Producer
PROG  .    Horizon LASWriter 3.0.9609.0            :LAS Program name and version
SOURCE.    Composite 1 (PEX-HRLA-BHC-SP-Log[5]/Up + PEX-HRLA-BHC-SP 2-Main[2]/Up):Run&Pass Information
CREA  .    03/21/2012                              :LAS Creation date {MM/DD/YYYY}
#--------------------------------------------------
~WELL INFORMATION 
#MNEM           .UNIT                      DATA            :DESCRIPTION
#----            ------          --------------            -----------------------------
STRT            .m                     83.36280            :START DEPTH
STOP            .m                   1576.27320            :STOP DEPTH
STEP            .m                       0.1524            :STEP
NULL            .                       -999.25            :NULL VALUE
COMP            .                       TAG Oil            :COMPANY
WELL            .                    Cheal A-10            :WELL NAME
FLD             .                         Cheal            :FIELD NAME
RIGN            .                     Ensign 19            :Rig Name
RIGTYP          .                       -999.25            :Rig Type
SON             .                       -999.25            :Service Order Number
SRVC            .                  Schlumberger            :SERVICE COMPANY
DATE            .                    03/06/2012            :LOG DATE(Composite Date for Composite LAP) (MM/DD/YYYY)
CLAB            .                       -999.25            :County Label
CNTY            .                       -999.25            :COUNTY
SLAB            .                       Region:            :State/Province Label
STAT            .                      Taranaki            :STATE or PROVINCE
PROV            .                      Taranaki            :STATE or PROVINCE
CTRY            .                   New Zealand            :COUNTRY
CONT_REGION     .                       -999.25            :Continent Region
SECT            .                       -999.25            :Section
TOWN            .                       -999.25            :Township
RANG            .                       -999.25            :Range
API             .                       -999.25            :API NUMBER
UWI             .                     PMP 38156            :UNIQUE WELL ID
LUL             .                          NZNP            :Logging Unit Location
LUN             .                          2268            :Logging Unit Number
LOC             .                       -999.25            :FIELD LOCATION
FL1             .                       -999.25            :Field Location Line 1
FL2             .                       -999.25            :Field Location Line 2
LATI            .deg             39° 23' 19.653" S         :LATITUDE
LONG            .deg             174° 18' 14.524" E        :LONGITUDE
PDAT            .                           MSL            :Local Permanent Datum
LMF             .                            DF            :Logging Measured From
APD             .m                    269.80000            :Elevation of Depth Reference (LMF) Above Permanent Datum
EPD             .m                      0.00000            :Elevation of Permanent Datum (PDAT) above Mean Sea Level
EKB             .m                      -999.25            :Elevation of Kelly Bushing Above Permanent Datum
EDF             .m                    269.80000            :Elevation of Drill Floor Above Permanent Datum
EGL             .m                    265.00000            :Elevation of Ground Level Above Permanent Datum
ECF             .m                      -999.25            :Elevation of Casing Flange above Permanent Datum
#--------------------------------------------------
~CURVE INFORMATION
#MNEM           .UNIT                  API CODE            :DESCRIPTION
#----            ------          --------------            -----------------------------
DEPT            .m                                         :                                                        Depth Index
CALI            .in                                        :        (HDRS[1])               (1in)                   Caliper
BS              .in                                        :        (Borehole)              (6in)                   Bit Size
GR              .gAPI                                      :        (HGNS[1])               (2in)                   Gamma Ray
SP              .mV                                        :        (SPE-A[1])              (6in)                   Spontaneous Potential
DSO8            .in                                        :        (HDRS[1])               (2in)                   High Resolution Density Standoff
RSO8            .in                                        :        (HDRS[1])               (2in)                   Resistivity Standoff High Resolution
RLA1            .ohm.m                                     :        (HRLT-B[1])             (2in)                   Apparent Resistivity from Computed Focusing Mode 1
RLA2            .ohm.m                                     :        (HRLT-B[1])             (2in)                   Apparent Resistivity from Computed Focusing Mode 2
RLA3            .ohm.m                                     :        (HRLT-B[1])             (2in)                   Apparent Resistivity from Computed Focusing Mode 3
RLA4            .ohm.m                                     :        (HRLT-B[1])             (2in)                   Apparent Resistivity from Computed Focusing Mode 4
RLA5            .ohm.m                                     :        (HRLT-B[1])             (2in)                   Apparent Resistivity from Computed Focusing Mode 5
RT              .ohm.m                                     :        (HRLT-B[1])             (2in)                   True Resistivity
DT              .us/ft                                     :        (DSLT-H[1])             (6in)                   Delta-T (also called Slowness or Interval Transit Time)
HDRA            .g/cm3                                     :        (HDRS[1])               (2in)                   Density Standoff Correction
PEF8            .                                          :        (HDRS[1])               (2in)                   High Resolution Formation Photoelectric Factor
RHO8            .g/cm3                                     :        (HDRS[1])               (2in)                   High Resolution Formation Density
TNPH            .m3/m3                                     :        (HGNS[1])               (2in)                   Thermal Neutron Porosity (Ratio Method) in Selected Lithology
RXO8            .ohm.m                                     :        (HDRS[1])               (2in)                   Invaded Formation Resistivity filtered at 8 inches
TENS            .lbf                                       :        (WLWorkflow)            (6in)                   Cable Tension
#-------------------------------------------------------------
#            DEPT         CALI           BS           GR           SP         DSO8         RSO8         RLA1         RLA2         RLA3         RLA4         RLA5           RT           DT         HDRA         PEF8         RHO8         TNPH         RXO8         TENS 
#                    (HDRS[1])   (Borehole)    (HGNS[1])   (SPE-A[1])    (HDRS[1])    (HDRS[1])  (HRLT-B[1])  (HRLT-B[1])  (HRLT-B[1])  (HRLT-B[1])  (HRLT-B[1])  (HRLT-B[1])  (DSLT-H[1])    (HDRS[1])    (HDRS[1])    (HDRS[1])    (HGNS[1])    (HDRS[1])  (WLWorkflo) 
#                                                                                                                                                                                                                                                                        
#                        (1in)        (6in)        (2in)        (6in)        (2in)        (2in)        (2in)        (2in)        (2in)        (2in)        (2in)        (2in)        (6in)        (2in)        (2in)        (2in)        (2in)        (2in)        (6in) 
~ASCII
# ...
       1552.65120      8.67749      8.50000    170.25040    -37.93167     -0.00009      0.01036      4.15425      4.30227      4.35838      4.38448      4.45491      4.55325     94.60818     -0.00539      3.27130      2.43125      0.38671      4.77755   3089.73365
       1552.80360      8.60862      8.50000    170.83150    -38.50953     -0.01991      0.00381      4.26152      4.42882      4.48189      4.51031      4.57407      4.68963     94.30189     -0.00703      3.29975      2.41619      0.39526      4.92814   3100.60091
       1552.95600      8.61628      8.50000    171.60020    -38.51084      0.04688      0.00612      4.12805      4.26789      4.32743      4.34944      4.43118      4.52934     94.29052     -0.00586      3.35631      2.42494      0.38196      4.64692   3118.74974
       1553.10840      8.63158      8.50000    171.88690    -38.66500      0.00788      0.01145      4.00548      4.13329      4.19497      4.22471      4.28964      4.37897     94.64476     -0.00469      3.23539      2.43960      0.38400      4.43852   3119.93448
       1553.26080      8.67749      8.50000    186.82320    -38.54834      0.01022      0.00341      3.95362      4.02301      4.08579      4.11688      4.18060      4.20612     95.33364     -0.00207      3.20204      2.44125      0.36946      4.47474   3095.40108
       1553.41320      8.60862      8.50000    170.47410    -38.48167      0.00384      0.00577      4.01963      4.09702      4.16146      4.18811      4.25453      4.28581     95.55712     -0.00128      3.27656      2.43964      0.36745      4.56878   3084.99917
       1553.56560      8.60862      8.50000    170.63540    -38.28688     -0.00855      0.01316      3.99351      4.07751      4.14075      4.16477      4.22696      4.25437     95.26878     -0.00030      3.13731      2.44396      0.38522      4.67602   3083.20070
       1553.71800      8.56271      8.50000    168.78260    -38.14000     -0.01137      0.00562      4.06883      4.13532      4.19093      4.22076      4.28002      4.29172     94.78966      0.00044      3.23858      2.43051      0.41041      4.83800   3095.74954
       1553.87040      8.50915      8.50000    173.01520    -37.98167     -0.00294      0.00677      4.12583      4.21508      4.26524      4.29887      4.36778      4.39765     94.16171      0.00038      3.34776      2.42990      0.41395      4.64485   3108.39953
       1554.02280      8.50915      8.50000    169.17950    -37.80667      0.00387      0.00839      4.11139      4.16853      4.22373      4.24118      4.30010      4.29265     94.10615      0.00066      3.26805      2.45315      0.39784      4.47118   3122.86599
       1554.17520      8.53976      8.50000    168.64940    -37.72333      0.02214      0.02954      3.88002      3.92565      3.97838      3.99350      4.04290      4.02675     94.71584      0.00337      3.28114      2.44090      0.38498      4.28058   3168.33360
       1554.32760      8.62010      8.50000      -999.25    -37.39417     -0.00342      0.05802      3.76822      3.85556      3.90742      3.92919      3.97986      4.01150     95.33172      0.00975      3.17074      2.40350      0.37864      4.23635   3155.53298
       1554.48000      8.49385      8.50000      -999.25    -37.24417     -0.01650      0.26915      3.59311      3.72668      3.79239      3.81522      3.88096      3.98669     96.04638      0.00639      3.10262      2.32957      0.38760      1.16263   3140.46628
       1554.63240      6.35133      8.50000      -999.25    -37.04417      0.05175      0.30769      3.39709      3.56264      3.62959      3.66248      3.74212      3.90720     96.36889      0.04259      3.26218      2.19526      0.42520      0.34876   3129.93398
       1554.78480      3.79562      8.50000      -999.25    -37.37333     -0.10000      0.25851      3.23723      3.44944      3.52707      3.57562      3.67107      3.93725     96.61538      0.12671      2.13994      1.58725      0.42132      0.28836   3139.40069
       1554.93720      3.78796      8.50000      -999.25    -37.30667      0.76530      0.25488      3.11821      3.35054      3.43829      3.49205      3.59744      3.92082     96.58545      0.23420      2.68044      2.04266      0.39633      0.28806   3138.93309
       1555.08960      3.78796      8.50000      -999.25    -36.74417      0.71898      0.25921      3.10970      3.33782      3.43404      3.49230      3.60033      3.93734     96.63169      0.29675      2.56310      2.11472      0.39305      0.28991   3155.00018
       1555.24200      3.78796      8.50000      -999.25    -36.46266      0.65654      0.24063      3.11548      3.34067      3.44289      3.48969      3.61060      3.94492     96.61483      0.30852      2.38111      2.09141      0.39190      0.26859   3129.31351
       1555.39440      3.78796      8.50000      -999.25    -36.36500      0.66197      0.23460      3.09740      3.32006      3.42103      3.47268      3.58230      3.91394     96.54302      0.30667      2.30603      2.07144      0.39847      0.25933   3155.93314
       1555.54680      3.78796      8.50000      -999.25    -36.26500      0.65071      0.22912      3.07481      3.27693      3.38688      3.43200      3.54271      3.85280     96.53101      0.30688      2.28831      2.05770      0.39862      0.25343   3123.86639
       1555.69920      3.78796      8.50000      -999.25    -36.25250      0.64933      0.22205      3.09202      3.30312      3.40878      3.46349      3.57837      3.90492     96.54470      0.30687      2.25860      2.07003      0.40446      0.26059   3136.66701
       1555.85160      3.79562      8.50000      -999.25    -36.34833      0.61353      0.23167      3.07099      3.28183      3.37614      3.43481      3.54777      3.86356     96.22954      0.30721      2.37813      2.09066      0.40006      0.27627   3117.66616
       1556.00400      3.80327      8.50000      -999.25    -36.56083      0.66464      0.23774      3.05173      3.27952      3.37092      3.42338      3.54342      3.87540     96.11252      0.30395      2.21315      2.06635      0.36736      0.27015   3117.06592
       1556.15640      3.80327      8.50000      -999.25    -36.69417      0.61718      0.22470      3.13227      3.37657      3.47518      3.53082      3.66807      4.03319     96.05351      0.29758      2.23608      2.00841      -999.25      0.25336   3120.06712
       1556.30880      3.79944      8.50000      -999.25    -37.10667      0.66599      0.20977      3.15965      3.42085      3.52871      3.58750      3.72332      4.12299     95.58284      0.29114      2.08507      2.01247      -999.25      0.23359   3094.53332
       1556.46120      3.78796      8.50000      -999.25    -36.70667      0.67434      0.22161      3.05180      3.30673      3.41282      3.47302      3.60818      4.00756     96.64138      0.29444      2.22157      2.04229      -999.25      0.24245   3152.93419
       1556.61360      3.79944      8.50000      -999.25    -36.57750      0.67340      0.23406      2.89729      3.13947      3.23519      3.29448      3.42486      3.79487     96.45372      0.30034      2.25307      2.06133      -999.25      0.25817   3179.06598
       1556.76600      3.78796      8.50000      -999.25    -36.69417      0.62931      0.22154      3.25126      3.55662      3.67440      3.75718      3.90591      4.35575     95.08864      0.30113      2.15019      2.01890      -999.25      0.25270   3122.20056
       1556.91840      3.78796      8.50000      -999.25    -36.83583      0.62807      0.22224      3.33249      3.66757      3.80549      3.88735      4.04407      4.54410     94.02275      0.29625      2.09316      2.00207      -999.25      0.25112   3128.60087
       1557.07080      3.78796      8.50000      -999.25    -36.57334      0.63937      0.22441      3.03772      3.35638      3.47358      3.55052      3.69160      4.15549     93.74609      0.28964      2.11223      2.02026      -999.25      0.25005   3166.66776
       1557.22320      3.78796      8.50000      -999.25    -36.20667      0.65630      0.22199      3.05389      3.39051      3.51052      3.58774      3.73271      4.21638     93.81397      0.28780      2.16474      2.03631      -999.25      0.24801   3114.19961
