~VERSION INFORMATION 
VERS  .    2.0                                     :CWLS Log ASCII Standard - VERSION2.0
WRAP  .    NO                                      :One Line per Depth step
DLM   .    SPACE                                   :Column Data section Delimiter
PROD  .    Schlumberger Technology Corp.           :LAS Producer
PROG  .    Horizon LASWriter 3.0.9609.0            :LAS Program name and version
SOURCE.    Composite 1 (PEX-HRLA-BHC-SP-Log[5]/Up + PEX-HRLA-BHC-SP 2-Main[2]/Up):Run&Pass Information
CREA  .    03/21/2012                              :LAS Creation date {MM/DD/YYYY}
#--------------------------------------------------
~WELL INFORMATION 
#MNEM           .UNIT                      DATA            :DESCRIPTION
#----            ------          --------------            -----------------------------
STRT            .m                     83.36280            :START DEPTH
STOP            .m                   1576.27320            :STOP DEPTH
STEP            .m                       0.1524            :STEP
NULL            .                       -999.25            :NULL VALUE
COMP            .                       TAG Oil            :COMPANY
WELL            .                    Cheal A-10            :WELL NAME
FLD             .                         Cheal            :FIELD NAME
RIGN            .                     Ensign 19            :Rig Name
RIGTYP          .                       -999.25            :Rig Type
SON             .                       -999.25            :Service Order Number
SRVC            .                  Schlumberger            :SERVICE COMPANY
DATE            .                    03/06/2012            :LOG DATE(Composite Date for Composite LAP) (MM/DD/YYYY)
CLAB            .                       -999.25            :County Label
CNTY            .                       -999.25            :COUNTY
SLAB            .                       Region:            :State/Province Label
STAT            .                      Taranaki            :STATE or PROVINCE
PROV            .                      Taranaki            :STATE or PROVINCE
CTRY            .                   New Zealand            :COUNTRY
CONT_REGION     .                       -999.25            :Continent Region
SECT            .                       -999.25            :Section
TOWN            .                       -999.25            :Township
RANG            .                       -999.25            :Range
API             .                       -999.25            :API NUMBER
UWI             .                     PMP 38156            :UNIQUE WELL ID
LUL             .                          NZNP            :Logging Unit Location
LUN             .                          2268            :Logging Unit Number
LOC             .                       -999.25            :FIELD LOCATION
FL1             .                       -999.25            :Field Location Line 1
FL2             .                       -999.25            :Field Location Line 2
LATI            .deg             39° 23' 19.653" S         :LATITUDE
LONG            .deg             174° 18' 14.524" E        :LONGITUDE
PDAT            .                           MSL            :Local Permanent Datum
LMF             .                            DF            :Logging Measured From
APD             .m                    269.80000            :Elevation of Depth Reference (LMF) Above Permanent Datum
EPD             .m                      0.00000            :Elevation of Permanent Datum (PDAT) above Mean Sea Level
EKB             .m                      -999.25            :Elevation of Kelly Bushing Above Permanent Datum
EDF             .m                    269.80000            :Elevation of Drill Floor Above Permanent Datum
EGL             .m                    265.00000            :Elevation of Ground Level Above Permanent Datum
ECF             .m                      -999.25            :Elevation of Casing Flange above Permanent Datum
#--------------------------------------------------
~CURVE INFORMATION
#MNEM           .UNIT                  API CODE            :DESCRIPTION
#----            ------          --------------            -----------------------------
DEPT            .m                                         :                                                        Depth Index
CALI            .in                                        :        (HDRS[1])               (1in)                   Caliper
BS              .in                                        :        (Borehole)              (6in)                   Bit Size
GR              .gAPI                                      :        (HGNS[1])               (2in)                   Gamma Ray
SP              .mV                                        :        (SPE-A[1])              (6in)                   Spontaneous Potential
DSO8            .in                                        :        (HDRS[1])               (2in)                   High Resolution Density Standoff
RSO8            .in                                        :        (HDRS[1])               (2in)                   Resistivity Standoff High Resolution
RLA1            .ohm.m                                     :        (HRLT-B[1])             (2in)                   Apparent Resistivity from Computed Focusing Mode 1
RLA2            .ohm.m                                     :        (HRLT-B[1])             (2in)                   Apparent Resistivity from Computed Focusing Mode 2
RLA3            .ohm.m                                     :        (HRLT-B[1])             (2in)                   Apparent Resistivity from Computed Focusing Mode 3
RLA4            .ohm.m                                     :        (HRLT-B[1])             (2in)                   Apparent Resistivity from Computed Focusing Mode 4
RLA5            .ohm.m                                     :        (HRLT-B[1])             (2in)                   Apparent Resistivity from Computed Focusing Mode 5
RT              .ohm.m                                     :        (HRLT-B[1])             (2in)                   True Resistivity
DT              .us/ft                                     :        (DSLT-H[1])             (6in)                   Delta-T (also called Slowness or Interval Transit Time)
HDRA            .g/cm3                                     :        (HDRS[1])               (2in)                   Density Standoff Correction
PEF8            .                                          :        (HDRS[1])               (2in)                   High Resolution Formation Photoelectric Factor
RHO8            .g/cm3                                     :        (HDRS[1])               (2in)                   High Resolution Formation Density
TNPH            .m3/m3                                     :        (HGNS[1])               (2in)                   Thermal Neutron Porosity (Ratio Method) in Selected Lithology
RXO8            .ohm.m                                     :        (HDRS[1])               (2in)                   Invaded Formation Resistivity filtered at 8 inches
TENS            .lbf                                       :        (WLWorkflow)            (6in)                   Cable Tension
#-------------------------------------------------------------
#            DEPT         CALI           BS           GR           SP         DSO8         RSO8         RLA1         RLA2         RLA3         RLA4         RLA5           RT           DT         HDRA         PEF8         RHO8         TNPH         RXO8         TENS 
#                    (HDRS[1])   (Borehole)    (HGNS[1])   (SPE-A[1])    (HDRS[1])    (HDRS[1])  (HRLT-B[1])  (HRLT-B[1])  (HRLT-B[1])  (HRLT-B[1])  (HRLT-B[1])  (HRLT-B[1])  (DSLT-H[1])    (HDRS[1])    (HDRS[1])    (HDRS[1])    (HGNS[1])    (HDRS[1])  (WLWorkflo) 
#                                                                                                                                                                                                                                                                        
#                        (1in)        (6in)        (2in)        (6in)        (2in)        (2in)        (2in)        (2in)        (2in)        (2in)        (2in)        (2in)        (6in)        (2in)        (2in)        (2in)        (2in)        (2in)        (6in) 
~ASCII
# ...
         92.81160      3.92223      8.50000     44.24146      -999.25      0.47145      0.28437      -999.25      -999.25      -999.25      -999.25      -999.25      -999.25      -999.25      0.25170      7.90091      2.32740      0.51088      0.04680      -999.25
         92.96400      3.89922      8.50000     49.79192      -999.25      0.47145      0.28206      -999.25      -999.25      -999.25      -999.25      -999.25      -999.25      -999.25      0.25170      7.90091      2.32740      0.45860      0.04690      -999.25
         93.11640      3.92223      8.50000     41.43268      -999.25      0.47145      0.28388      -999.25      -999.25      -999.25      -999.25      -999.25      -999.25      -999.25      0.25170      7.90091      2.32740      0.49273      0.04674      -999.25
         93.26880      3.92223      8.50000     37.92146      -999.25      0.47145      0.28715      -999.25      -999.25      -999.25      -999.25      -999.25      -999.25      -999.25      0.25170      7.90091      2.32740      0.59540      0.04686      -999.25
         93.42120      3.92223      8.50000     35.81483      -999.25      0.47145      0.29112      -999.25      -999.25      -999.25      -999.25      -999.25      -999.25      -999.25      0.25170      7.90091      2.32740      0.59162      0.04726      -999.25
         93.57360      3.92223      8.50000     42.83671      -999.25      0.47145      0.29073      -999.25      -999.25      -999.25      -999.25      -999.25      -999.25      -999.25      0.25170      7.90091      2.32740      0.50122      0.04734      -999.25
         93.72600      3.92223      8.50000     56.88219      -999.25      0.47145      0.28762      -999.25      -999.25      -999.25      -999.25      -999.25      -999.25      -999.25      0.25170      7.90091      2.32740      0.51240      0.04658      -999.25
         93.87840      3.92223      8.50000     45.64583      -999.25      0.47145      0.28976      -999.25      -999.25      -999.25      -999.25      -999.25      -999.25      -999.25      0.25170      7.90091      2.32740      0.60500      0.04689      -999.25
         94.03080      3.92223      8.50000     44.24149      -999.25      0.46959      0.28580      -999.25      -999.25      -999.25      -999.25      -999.25      -999.25      -999.25      0.25390      8.17410      2.32623      0.68988      0.04724      -999.25
         94.18320      3.92223      8.50000     50.56199      -999.25      0.45592      0.28691      -999.25      -999.25      -999.25      -999.25      -999.25      -999.25      -999.25      0.25631      8.24991      2.25778      0.55173      0.04701      -999.25
         94.33560      3.92223      8.50000     48.45546      -999.25      0.48396      0.28565      -999.25      -999.25      -999.25      -999.25      -999.25      -999.25      -999.25      0.26469      8.38327      2.29423      0.50208      0.04725      -999.25
         94.48800      3.92223      8.50000     46.34845      -999.25      0.50494      0.28965      -999.25      -999.25      -999.25      -999.25      -999.25      -999.25      -999.25      0.26811      8.38438      2.35985      0.46470      0.04709      -999.25
         94.64040      3.92223      8.50000     54.07227      -999.25      0.50073      0.28855      -999.25      -999.25      -999.25      -999.25      -999.25      -999.25      -999.25      0.26454      8.25590      2.39104      0.46475      0.04724      -999.25
         94.79280      3.92223      8.50000     47.05062      -999.25      0.43745      0.28658      -999.25      -999.25      -999.25      -999.25      -999.25      -999.25      -999.25      0.24693      8.11736      2.35853      0.45495      0.04729      -999.25
         94.94520      3.92223      8.50000     37.92142      -999.25      0.38477      0.28573      -999.25      -999.25      -999.25      -999.25      -999.25      -999.25      -999.25      0.22695      7.17258      2.27839      0.46339      0.04723      -999.25
         95.09760      3.92223      8.50000     42.83802      -999.25      0.33478      0.28069      -999.25      -999.25      -999.25      -999.25      -999.25      -999.25      -999.25      0.20941      6.81712      2.16896      0.52608      0.04681      -999.25
         95.25000      3.89922      8.50000     60.31333      -999.25      0.40937      0.29011      -999.25      -999.25      -999.25      -999.25      -999.25      -999.25      -999.25      0.21324      7.35161      2.17517      0.62547      0.04701      -999.25
         95.40240      3.92223      8.50000     54.77555      -999.25      0.51859      0.29446      -999.25      -999.25      -999.25      -999.25      -999.25      -999.25      -999.25      0.22711      7.92307      2.26342      0.79550      0.04753      -999.25
         95.55480      3.92223      8.50000     42.83765      -999.25      0.60967      0.28754      -999.25      -999.25      -999.25      -999.25      -999.25      -999.25      -999.25      0.25153      8.45518      2.35220      0.58519      0.04793      -999.25
         95.70720      3.92223      8.50000     47.75308      -999.25      0.59750      0.28732      -999.25      -999.25      -999.25      -999.25      -999.25      -999.25      -999.25      0.26974      8.57332      2.42154      0.51521      0.04731      -999.25
         95.85960      3.89922      8.50000     35.76570      -999.25      0.54154      0.28424      -999.25      -999.25      -999.25      -999.25      -999.25      -999.25      -999.25      0.27945      8.73936      2.36766      0.47574      0.04657      -999.25
         96.01200      3.92223      8.50000     59.69055      -999.25      0.47723      0.28461      -999.25      -999.25      -999.25      -999.25      -999.25      -999.25      -999.25      0.27573      8.48853      2.35818      0.48475      0.04623      -999.25
         96.16440      3.92223      8.50000     53.37112      -999.25      0.44436      0.28923      -999.25      -999.25      -999.25      -999.25      -999.25      -999.25      -999.25      0.26843      8.30899      2.31491      0.53702      0.04700      -999.25
         96.31680      3.92223      8.50000     50.56266      -999.25      0.45972      0.28870      -999.25      -999.25      -999.25      -999.25      -999.25      -999.25      -999.25      0.26355      8.20348      2.32185      0.53142      0.04741      -999.25
         96.46920      3.92223      8.50000     44.24123      -999.25      0.48322      0.28597      -999.25      -999.25      -999.25      -999.25      -999.25      -999.25      -999.25      0.25646      8.34184      2.31942      0.69370      0.04715      -999.25
         96.62160      3.92223      8.50000     49.85947      -999.25      0.49393      0.29236      -999.25      -999.25      -999.25      -999.25      -999.25      -999.25      -999.25      0.26013      8.25923      2.31656      0.47249      0.04749      -999.25
         96.77400      3.92223      8.50000     47.75255      -999.25      0.51438      0.29176      0.01976      0.01666      0.01469      0.01267      0.00685      0.00685      -999.25      0.26470      8.08039      2.30895      0.53502      0.04800      -999.25
         96.92640      3.92223      8.50000     43.53803      -999.25      0.50363      0.28730      0.02001      0.01692      0.01501      0.01300      0.00715      0.00715      -999.25      0.27437      8.24241      2.32483      0.47515      0.04799      -999.25
         97.07880      3.92223      8.50000     52.66941      -999.25      0.54085      0.28386      0.01881      0.01603      0.01415      0.01221      0.00670      0.00670      -999.25      0.27137      8.08227      2.32640      0.52711      0.04805      -999.25
         97.23120      3.92223      8.50000     48.45535      -999.25      0.52138      0.28330      0.01750      0.01486      0.01314      0.01127      0.00578      0.00578      -999.25      0.26936      8.24623      2.30608      0.48235      0.04776      -999.25
         97.38360      3.92223      8.50000     61.09489      -999.25      0.52655      0.28403      0.01716      0.01470      0.01292      0.01104      0.00554      0.00554      -999.25      0.27080      8.04055      2.29197      0.54135      0.04801      -999.25
