~VERSION INFORMATION 
VERS  .    2.0                                     :CWLS Log ASCII Standard - VERSION2.0
WRAP  .    NO                                      :One Line per Depth step
DLM   .    SPACE                                   :Column Data section Delimiter
PROD  .    Schlumberger Technology Corp.           :LAS Producer
PROG  .    Horizon LASWriter 3.0.9609.0            :LAS Program name and version
SOURCE.    Composite 1 (PEX-HRLA-BHC-SP-Log[5]/Up + PEX-HRLA-BHC-SP 2-Main[2]/Up):Run&Pass Information
CREA  .    03/21/2012                              :LAS Creation date {MM/DD/YYYY}
#--------------------------------------------------
~WELL INFORMATION 
#MNEM           .UNIT                      DATA            :DESCRIPTION
#----            ------          --------------            -----------------------------
STRT            .m                     83.36280            :START DEPTH
STOP            .m                   1576.27320            :STOP DEPTH
STEP            .m                       0.1524            :STEP
NULL            .                       -999.25            :NULL VALUE
COMP            .                       TAG Oil            :COMPANY
WELL            .                    Cheal A-10            :WELL NAME
FLD             .                         Cheal            :FIELD NAME
RIGN            .                     Ensign 19            :Rig Name
RIGTYP          .                       -999.25            :Rig Type
SON             .                       -999.25            :Service Order Number
SRVC            .                  Schlumberger            :SERVICE COMPANY
DATE            .                    03/06/2012            :LOG DATE(Composite Date for Composite LAP) (MM/DD/YYYY)
CLAB            .                       -999.25            :County Label
CNTY            .                       -999.25            :COUNTY
SLAB            .                       Region:            :State/Province Label
STAT            .                      Taranaki            :STATE or PROVINCE
PROV            .                      Taranaki            :STATE or PROVINCE
CTRY            .                   New Zealand            :COUNTRY
CONT_REGION     .                       -999.25            :Continent Region
SECT            .                       -999.25            :Section
TOWN            .                       -999.25            :Township
RANG            .                       -999.25            :Range
API             .                       -999.25            :API NUMBER
UWI             .                     PMP 38156            :UNIQUE WELL ID
LUL             .                          NZNP            :Logging Unit Location
LUN             .                          2268            :Logging Unit Number
LOC             .                       -999.25            :FIELD LOCATION
FL1             .                       -999.25            :Field Location Line 1
FL2             .                       -999.25            :Field Location Line 2
LATI            .deg             39° 23' 19.653" S         :LATITUDE
LONG            .deg             174° 18' 14.524" E        :LONGITUDE
PDAT            .                           MSL            :Local Permanent Datum
LMF             .                            DF            :Logging Measured From
APD             .m                    269.80000            :Elevation of Depth Reference (LMF) Above Permanent Datum
EPD             .m                      0.00000            :Elevation of Permanent Datum (PDAT) above Mean Sea Level
EKB             .m                      -999.25            :Elevation of Kelly Bushing Above Permanent Datum
EDF             .m                    269.80000            :Elevation of Drill Floor Above Permanent Datum
EGL             .m                    265.00000            :Elevation of Ground Level Above Permanent Datum
ECF             .m                      -999.25            :Elevation of Casing Flange above Permanent Datum
#--------------------------------------------------
~CURVE INFORMATION
#MNEM           .UNIT                  API CODE            :DESCRIPTION
#----            ------          --------------            -----------------------------
DEPT            .m                                         :                                                        Depth Index
CALI            .in                                        :        (HDRS[1])               (1in)                   Caliper
BS              .in                                        :        (Borehole)              (6in)                   Bit Size
GR              .gAPI                                      :        (HGNS[1])               (2in)                   Gamma Ray
SP              .mV                                        :        (SPE-A[1])              (6in)                   Spontaneous Potential
DSO8            .in                                        :        (HDRS[1])               (2in)                   High Resolution Density Standoff
RSO8            .in                                        :        (HDRS[1])               (2in)                   Resistivity Standoff High Resolution
RLA1            .ohm.m                                     :        (HRLT-B[1])             (2in)                   Apparent Resistivity from Computed Focusing Mode 1
RLA2            .ohm.m                                     :        (HRLT-B[1])             (2in)                   Apparent Resistivity from Computed Focusing Mode 2
RLA3            .ohm.m                                     :        (HRLT-B[1])             (2in)                   Apparent Resistivity from Computed Focusing Mode 3
RLA4            .ohm.m                                     :        (HRLT-B[1])             (2in)                   Apparent Resistivity from Computed Focusing Mode 4
RLA5            .ohm.m                                     :        (HRLT-B[1])             (2in)                   Apparent Resistivity from Computed Focusing Mode 5
RT              .ohm.m                                     :        (HRLT-B[1])             (2in)                   True Resistivity
DT              .us/ft                                     :        (DSLT-H[1])             (6in)                   Delta-T (also called Slowness or Interval Transit Time)
HDRA            .g/cm3                                     :        (HDRS[1])               (2in)                   Density Standoff Correction
PEF8            .                                          :        (HDRS[1])               (2in)                   High Resolution Formation Photoelectric Factor
RHO8            .g/cm3                                     :        (HDRS[1])               (2in)                   High Resolution Formation Density
TNPH            .m3/m3                                     :        (HGNS[1])               (2in)                   Thermal Neutron Porosity (Ratio Method) in Selected Lithology
RXO8            .ohm.m                                     :        (HDRS[1])               (2in)                   Invaded Formation Resistivity filtered at 8 inches
TENS            .lbf                                       :        (WLWorkflow)            (6in)                   Cable Tension
#-------------------------------------------------------------
#            DEPT         CALI           BS           GR           SP         DSO8         RSO8         RLA1         RLA2         RLA3         RLA4         RLA5           RT           DT         HDRA         PEF8         RHO8         TNPH         RXO8         TENS 
#                    (HDRS[1])   (Borehole)    (HGNS[1])   (SPE-A[1])    (HDRS[1])    (HDRS[1])  (HRLT-B[1])  (HRLT-B[1])  (HRLT-B[1])  (HRLT-B[1])  (HRLT-B[1])  (HRLT-B[1])  (DSLT-H[1])    (HDRS[1])    (HDRS[1])    (HDRS[1])    (HGNS[1])    (HDRS[1])  (WLWorkflo) 
#                                                                                                                                                                                                                                                                        
#                        (1in)        (6in)        (2in)        (6in)        (2in)        (2in)        (2in)        (2in)        (2in)        (2in)        (2in)        (2in)        (6in)        (2in)        (2in)        (2in)        (2in)        (2in)        (6in) 
~ASCII
# ...
       1259.73840      7.86839      8.50000    107.44470    -46.62891      0.22255      0.12027      4.81975      5.49982      5.86139      6.13019      6.43812      7.60278     93.98560      0.06010      3.15534      2.40533      0.35665      1.84934   2524.39985
       1259.89080      7.90290      8.50000    108.63010    -46.93333      0.17549      0.10904      4.70499      5.29969      5.64581      5.89637      6.18247      7.24515     93.00375      0.05113      3.16311      2.41262      0.35724      1.85270   2519.87445
       1260.04320      7.92591      8.50000    108.79670    -47.50417      0.11740      0.09256      4.43087      4.93679      5.25004      5.47431      5.74579      6.68018     92.83193      0.05177      3.02702      2.38624      0.34533      1.91868   2515.53339
       1260.19560      8.04096      8.50000    101.37840    -48.50417      0.13953      0.09613      4.64533      5.16226      5.49191      5.71082      5.99073      6.94849     93.29946      0.05795      3.11146      2.39236      0.34914      1.99189   2467.93459
       1260.34800      8.10999      8.50000    112.02160    -49.56641      0.17617      0.10608      5.21139      5.80377      6.17091      6.40230      6.71812      7.78707     93.70006      0.06551      3.14063      2.41239      0.35135      2.16872   2486.49932
       1260.50040      8.20203      8.50000    106.58180    -50.52083      0.19800      0.11235      5.56941      6.14895      6.49180      6.70883      7.02882      8.03198     94.81548      0.06867      3.14342      2.43128      0.36071      2.41414   2498.80086
       1260.65280      8.23271      8.50000    111.57160    -51.09583      0.20387      0.10943      5.49434      6.01693      6.31127      6.47716      6.79218      7.65874     94.95541      0.06982      3.21878      2.44119      0.37724      2.41181   2520.06779
       1260.80520      8.23271      8.50000    125.89520    -51.66667      0.18877      0.10848      5.32567      5.74767      6.01611      6.13110      6.43967      7.17824     95.66072      0.06922      3.21015      2.43575      0.37696      2.40093   2471.59898
       1260.95760      8.27106      8.50000    113.49040    -52.11250      0.15918      0.10379      5.39611      5.76435      6.04227      6.12852      6.43169      7.14628     96.56634      0.06547      3.23659      2.41803      0.38300      2.51442   2448.20086
       1261.11000      8.33242      8.50000    112.16400    -52.47917      0.17072      0.10713      5.57873      5.94073      6.17989      6.27412      6.58022      7.22116     97.19039      0.05816      3.22753      2.43575      0.37561      2.90857   2465.46619
       1261.26240      8.37844      8.50000    111.22080    -52.98750      0.14061      0.10599      5.67951      6.02684      6.12131      6.27188      6.55049      7.03916     98.11497      0.05778      3.16656      2.41689      0.35556      3.20298   2460.66652
       1261.41480      8.47815      8.50000    116.94350    -52.79167      0.13675      0.10870      5.63012      5.91845      6.00270      6.14714      6.40517      6.79947     97.81712      0.05514      3.25056      2.40591      0.34294      3.09874   2436.53328
       1261.56720      8.46280      8.50000    113.01620    -52.90625      0.17599      0.11241      5.59000      5.76758      5.90559      6.04276      6.28001      6.58825     98.21711      0.05586      3.26371      2.44548      0.37034      2.95985   2476.26601
       1261.71960      8.35543      8.50000    115.64050    -53.22917      0.15800      0.11203      5.59104      5.75618      5.92077      6.04120      6.25703      6.56314     97.44145      0.05289      3.22418      2.43978      0.37733      2.98055   2453.56256
       1261.87200      8.39378      8.50000    121.40980    -53.40417      0.12916      0.10347      5.60503      5.87759      6.04510      6.15085      6.36246      6.79589     97.94120      0.04973      3.33648      2.42052      0.38851      2.96254   2485.46744
       1262.02440      8.37844      8.50000    118.54340    -53.72083      0.14594      0.09428      5.58706      5.90935      6.08062      6.16314      6.34781      6.80962     91.85886      0.04937      3.22249      2.46602      0.38176      3.17810   2529.86721
       1262.17680      8.50115      8.50000    107.59230    -54.12917      0.15868      0.10576      8.51615      9.29464      9.62598      9.78714     10.02786     11.22463     83.50767      0.04835      3.29750      2.55311      0.35044      5.18731   2433.46689
       1262.32920      8.54717      8.50000    110.61140    -54.24166      0.09299      0.11893      9.51045     10.56678     10.96580     11.11531     11.37046     13.01282     83.73731      0.04774      3.63702      2.51872      0.31941      8.76267   2434.86745
       1262.48160      8.50115      8.50000    120.91070    -53.87500      0.12573      0.09035      5.81234      6.20316      6.38572      6.46455      6.60427      7.16272     81.23807      0.04194      3.13375      2.44782      0.32360      3.55529   2481.46584
       1262.63400      8.47815      8.50000    115.89250    -53.70536      0.13617      0.09554      5.51763      5.91173      6.10457      6.16799      6.32555      6.89571     87.65121      0.04019      3.12099      2.45235      0.33789      3.26025   2538.37398
       1262.78640      8.34009      8.50000    113.07070    -53.38281      0.09922      0.11216      5.82579      6.18622      6.38183      6.45901      6.61968      7.14872     94.72187      0.04552      3.19176      2.40222      0.37262      3.10011   2489.13408
       1262.93880      8.36309      8.50000    113.93570    -52.99166      0.12638      0.13683      5.81564      6.12760      6.30025      6.36970      6.53059      6.96858     94.72672      0.05475      3.15796      2.39381      0.37289      2.76042   2507.13453
       1263.09120      8.39378      8.50000    120.36390    -52.70417      0.12816      0.10820      5.40799      5.80735      5.89492      5.94361      6.09006      6.53112     94.76537      0.06055      3.17025      2.41601      0.39682      2.75400   2436.60072
       1263.24360      8.47815      8.50000    117.64170    -52.59583      0.14609      0.09811      5.48331      5.96586      5.99248      6.05131      6.20304      6.67777     95.80400      0.05904      3.31492      2.42387      0.37554      2.85141   2469.93314
       1263.39600      8.66222      8.50000    123.14110    -52.84583      0.13263      0.10409      5.80512      6.25429      6.32686      6.37486      6.53972      7.00692     95.67434      0.05539      3.16951      2.39630      0.39570      2.97314   2408.06572
       1263.54840      8.57785      8.50000    117.43270    -52.79583      0.14044      0.10572      5.83249      6.21411      6.32991      6.34588      6.50943      6.91553     95.54684      0.05018      3.10675      2.41140      0.39535      3.00399   2418.13267
       1263.70080      8.56251      8.50000    116.65630    -52.71250      0.14010      0.10243      5.91782      6.20997      6.38315      6.38930      6.55554      6.89624     95.95607      0.04614      3.17629      2.45821      0.40134      3.59759   2472.86690
       1263.85320      8.60853      8.50000    118.63920    -53.00781      0.13070      0.10363      6.08531      6.27302      6.45962      6.50787      6.64614      6.88894     98.13530      0.04740      3.20190      2.41582      0.43820      3.83078   2428.26705
       1264.00560      8.66222      8.50000    129.49230    -53.19167      0.12749      0.10671      6.29176      6.44559      6.65720      6.72746      6.85723      7.09916     97.53082      0.04988      3.14356      2.41966      0.43741      3.98313   2410.59932
       1264.15800      8.65072      8.50000    111.79550    -53.05833      0.12480      0.09193      6.04832      6.17332      6.36085      6.45252      6.55679      6.75368     97.89832      0.04689      3.07669      2.43570      0.42255      4.04309   2426.79905
       1264.31040      8.70824      8.50000    101.81280    -53.00834      0.09530      0.09491      6.54862      6.76514      6.96694      7.07175      7.18226      7.49855    100.16054      0.04083      3.11078      2.38614      0.40711      3.71618   2434.18852
